{"3400004": [{"ncessch": "340000406014", "school_name": "Chatham High School", "city": "CHATHAM", "state": "NJ", "zip": "07928", "lat": 40.7314000000001, "lon": -74.4012, "charter": false, "level": "", "enrollment": 1231, "teachers_fte": 102.830001831055}, {"ncessch": "340000406015", "school_name": "Chatham Middle School", "city": "CHATHAM", "state": "NJ", "zip": "07928", "lat": 40.7459000010001, "lon": -74.3901999999999, "charter": false, "level": "", "enrollment": 877, "teachers_fte": 86.7200012207031}, {"ncessch": "340000406016", "school_name": "Lafayette Avenue School", "city": "CHATHAM", "state": "NJ", "zip": "07928", "lat": 40.732264, "lon": -74.3990620009999, "charter": false, "level": "", "enrollment": 545, "teachers_fte": 52.2900009155273}, {"ncessch": "340000406017", "school_name": "Milton Avenue School", "city": "CHATHAM", "state": "NJ", "zip": "07928", "lat": 40.7476, "lon": -74.3806, "charter": false, "level": "", "enrollment": 282, "teachers_fte": 25.1000003814697}, {"ncessch": "340000406018", "school_name": "Washington Avenue School", "city": "CHATHAM", "state": "NJ", "zip": "07928", "lat": 40.7366000010001, "lon": -74.3909, "charter": false, "level": "", "enrollment": 296, "teachers_fte": 25.2800006866455}, {"ncessch": "340000406019", "school_name": "Southern Boulevard School", "city": "CHATHAM", "state": "NJ", "zip": "07928", "lat": 40.7305000000001, "lon": -74.4127999999999, "charter": false, "level": "", "enrollment": 373, "teachers_fte": 34.689998626709}], "3400005": [{"ncessch": "340000500817", "school_name": "Developmental Learning Center Warren", "city": "WARREN", "state": "NJ", "zip": "07059", "lat": 40.6387, "lon": -74.5167, "charter": false, "level": "", "enrollment": 139, "teachers_fte": 22.7999992370605}, {"ncessch": "340000506063", "school_name": "Developmental Learning Center New Providence", "city": "NEW PROVIDENCE", "state": "NJ", "zip": "07974", "lat": 40.6987, "lon": -74.392800001, "charter": false, "level": "", "enrollment": 74, "teachers_fte": 13.0}], "3400006": [{"ncessch": "340000600695", "school_name": "Atlantic County Elementary and Middle Schools", "city": "MAYS LANDING", "state": "NJ", "zip": "08330", "lat": 39.4383260000001, "lon": -74.6942339999999, "charter": false, "level": "", "enrollment": 197, "teachers_fte": 17.0}, {"ncessch": "340000600697", "school_name": "Atlantic County High School", "city": "MAYS LANDING", "state": "NJ", "zip": "08330", "lat": 39.4383260000001, "lon": -74.6942339999999, "charter": false, "level": "", "enrollment": 97, "teachers_fte": null}], "3400007": [{"ncessch": "340000700081", "school_name": "Maywood Campus", "city": "MAYWOOD", "state": "NJ", "zip": "07607", "lat": 40.8997620000001, "lon": -74.0631260009999, "charter": false, "level": "", "enrollment": 174, "teachers_fte": 21.0}, {"ncessch": "340000700083", "school_name": "Moonachie Campus", "city": "Moonachie", "state": "NJ", "zip": "07074", "lat": 40.844817999, "lon": -74.048152, "charter": false, "level": "", "enrollment": 47, "teachers_fte": 8.0}, {"ncessch": "340000700578", "school_name": "Lodi MS HS", "city": "LODI", "state": "NJ", "zip": "07644", "lat": 40.8757630000001, "lon": -74.080591, "charter": false, "level": "", "enrollment": 90, "teachers_fte": 24.0}], "3400008": [{"ncessch": "340000800107", "school_name": "Central Elementary School", "city": "GREAT MEADOWS", "state": "NJ", "zip": "07838", "lat": 40.873799999, "lon": -74.9027, "charter": false, "level": "", "enrollment": 296, "teachers_fte": 23.2999992370605}, {"ncessch": "340000800248", "school_name": "Great Meadows Regional Middle School", "city": "GREAT MEADOWS", "state": "NJ", "zip": "07838", "lat": 40.8718000000001, "lon": -74.9028, "charter": false, "level": "", "enrollment": 346, "teachers_fte": 28.8999996185303}], "3400009": [{"ncessch": "340000900176", "school_name": "Bernards High School", "city": "Bernardsville", "state": "NJ", "zip": "07924", "lat": 40.7206, "lon": -74.5655, "charter": false, "level": "", "enrollment": 812, "teachers_fte": 64.7699966430664}, {"ncessch": "340000900177", "school_name": "Marion T. Bedwell Elementary School", "city": "Bernardsville", "state": "NJ", "zip": "07924", "lat": 40.7323000000001, "lon": -74.5701999999999, "charter": false, "level": "", "enrollment": 453, "teachers_fte": 42.4799995422363}, {"ncessch": "340000900178", "school_name": "Bernardsville Middle School", "city": "Bernardsville", "state": "NJ", "zip": "07924", "lat": 40.7334000010001, "lon": -74.5706, "charter": false, "level": "", "enrollment": 458, "teachers_fte": 44.0}], "3400014": [{"ncessch": "340001400258", "school_name": "Englewood on the Palisades Charter School", "city": "ENGLEWOOD", "state": "NJ", "zip": "07631", "lat": 40.899531, "lon": -73.9750579999999, "charter": true, "level": "", "enrollment": 303, "teachers_fte": 25.0}], "3400015": [{"ncessch": "340001500259", "school_name": "Teaneck Community Charter school", "city": "TEANECK", "state": "NJ", "zip": "07666", "lat": 40.8842700000001, "lon": -74.023781, "charter": true, "level": "", "enrollment": 358, "teachers_fte": 31.0}], "3400019": [{"ncessch": "340001900269", "school_name": "Chartertech High School for the Performing Arts", "city": "SOMERS POINT", "state": "NJ", "zip": "08244", "lat": 39.3275, "lon": -74.5998999999999, "charter": true, "level": "", "enrollment": 370, "teachers_fte": 43.0}], "3400020": [{"ncessch": "340002000282", "school_name": "Discovery Charter School", "city": "NEWARK", "state": "NJ", "zip": "07102", "lat": 40.733867, "lon": -74.174789, "charter": true, "level": "", "enrollment": 105, "teachers_fte": 5.5}], "3400021": [{"ncessch": "340002100283", "school_name": "East Orange Community Charter School", "city": "EAST ORANGE", "state": "NJ", "zip": "07017", "lat": 40.773692, "lon": -74.221081, "charter": true, "level": "", "enrollment": 448, "teachers_fte": 1.0}], "3400022": [{"ncessch": "340002200285", "school_name": "Marion P. Thomas Charter School", "city": "NEWARK", "state": "NJ", "zip": "07103", "lat": 40.747082, "lon": -74.1806839989999, "charter": true, "level": "", "enrollment": 1425, "teachers_fte": null}], "3400023": [{"ncessch": "340002300287", "school_name": "New Horizons Community Charter School", "city": "NEWARK", "state": "NJ", "zip": "07103", "lat": 40.736069001, "lon": -74.18945, "charter": true, "level": "", "enrollment": 381, "teachers_fte": 25.0}], "3400024": [{"ncessch": "340002400289", "school_name": "North Star Academy Charter School", "city": "NEWARK", "state": "NJ", "zip": "07102", "lat": 40.7425000000001, "lon": -74.1709999999999, "charter": true, "level": "", "enrollment": 6352, "teachers_fte": 236.380004882812}], "3400025": [{"ncessch": "340002500291", "school_name": "Robert Treat Academy Charter School", "city": "NEWARK", "state": "NJ", "zip": "07104", "lat": 40.765701, "lon": -74.171866, "charter": true, "level": "", "enrollment": 689, "teachers_fte": 37.9000015258789}], "3400026": [{"ncessch": "340002600292", "school_name": "Maria Varisco Rogers Charter School", "city": "NEWARK", "state": "NJ", "zip": "07104", "lat": 40.774121, "lon": -74.1648039999999, "charter": true, "level": "", "enrollment": 569, "teachers_fte": 46.5499992370605}], "3400029": [{"ncessch": "340002900297", "school_name": "Elysian Charter School of Hoboken", "city": "HOBOKEN", "state": "NJ", "zip": "07030", "lat": 40.7546750000001, "lon": -74.027778, "charter": true, "level": "", "enrollment": 292, "teachers_fte": 26.2999992370605}], "3400032": [{"ncessch": "340003200302", "school_name": "Hoboken Charter School", "city": "Hoboken", "state": "NJ", "zip": "07030", "lat": 40.74523, "lon": -74.028151, "charter": true, "level": "", "enrollment": 300, "teachers_fte": 28.2399997711182}], "3400033": [{"ncessch": "340003300303", "school_name": "Jersey City Community Charter School", "city": "JERSEY CITY", "state": "NJ", "zip": "07305", "lat": 40.6965700000001, "lon": -74.090880999, "charter": true, "level": "", "enrollment": 587, "teachers_fte": 32.0}], "3400034": [{"ncessch": "340003400305", "school_name": "Jersey City Golden Door Charter School", "city": "JERSEY CITY", "state": "NJ", "zip": "07306", "lat": 40.7372070000001, "lon": -74.062417, "charter": true, "level": "", "enrollment": 668, "teachers_fte": 43.5999984741211}], "3400035": [{"ncessch": "340003500307", "school_name": "Learning Community Charter School", "city": "JERSEY CITY", "state": "NJ", "zip": "07304", "lat": 40.722834, "lon": -74.075704001, "charter": true, "level": "", "enrollment": 637, "teachers_fte": 48.0}], "3400036": [{"ncessch": "340003600309", "school_name": "Soaring Heights Charter School", "city": "JERSEY CITY", "state": "NJ", "zip": "07305", "lat": 40.6981000000001, "lon": -74.1007, "charter": true, "level": "", "enrollment": 270, "teachers_fte": 14.8000001907349}], "3400041": [{"ncessch": "340004100321", "school_name": "International Charter School", "city": "TRENTON", "state": "NJ", "zip": "08611", "lat": 40.205200001, "lon": -74.7501999999999, "charter": true, "level": "", "enrollment": 109, "teachers_fte": 8.80000019073486}], "3400042": [{"ncessch": "340004200322", "school_name": "Pace Charter School of Hamilton", "city": "HAMILTON TWP", "state": "NJ", "zip": "08610", "lat": 40.199058, "lon": -74.7328459999999, "charter": true, "level": "", "enrollment": 439, "teachers_fte": 38.0}], "3400043": [{"ncessch": "340004300323", "school_name": "Princeton Charter School", "city": "PRINCETON", "state": "NJ", "zip": "08540", "lat": 40.3697000000001, "lon": -74.6573, "charter": true, "level": "", "enrollment": 424, "teachers_fte": 41.3800010681152}], "3400046": [{"ncessch": "340004600329", "school_name": "The Village Charter School", "city": "TRENTON", "state": "NJ", "zip": "08638", "lat": 40.2408, "lon": -74.8058, "charter": true, "level": "", "enrollment": 359, "teachers_fte": 28.0}], "3400047": [{"ncessch": "340004700330", "school_name": "Greater Brunswick Charter School", "city": "NEW BRUNSWICK", "state": "NJ", "zip": "08901", "lat": 40.4799, "lon": -74.4621, "charter": true, "level": "", "enrollment": 394, "teachers_fte": null}], "3400048": [{"ncessch": "340004800335", "school_name": "Academy Charter High School", "city": "LAKE COMO", "state": "NJ", "zip": "07719", "lat": 40.1713, "lon": -74.0279, "charter": true, "level": "", "enrollment": 180, "teachers_fte": 19.0}], "3400049": [{"ncessch": "340004900336", "school_name": "Red Bank Charter School", "city": "RED BANK", "state": "NJ", "zip": "07701", "lat": 40.3483400010001, "lon": -74.0716709989999, "charter": true, "level": "", "enrollment": 192, "teachers_fte": 26.1000003814697}], "3400050": [{"ncessch": "340005000021", "school_name": "Hunterdon County Vocational School District Central Campus", "city": "FLEMINGTON", "state": "NJ", "zip": "08822", "lat": 40.5200409990001, "lon": -74.8502769999999, "charter": false, "level": "", "enrollment": 50, "teachers_fte": 10.6000003814697}, {"ncessch": "340005000716", "school_name": "Hunterdon Polytech Bartles Corner Campus", "city": "Flemington", "state": "NJ", "zip": "08822", "lat": 40.5353000010001, "lon": -74.854799999, "charter": false, "level": "", "enrollment": 2, "teachers_fte": 8.43000030517578}, {"ncessch": "340005003405", "school_name": "Hunterdon County Academies", "city": "Annandale", "state": "NJ", "zip": "08801", "lat": 40.6284279990001, "lon": -74.884037, "charter": false, "level": "", "enrollment": 211, "teachers_fte": 4.0}], "3400051": [{"ncessch": "340005100339", "school_name": "Unity Charter School", "city": "MORRISTOWN", "state": "NJ", "zip": "07960", "lat": 40.8057000000001, "lon": -74.466969999, "charter": true, "level": "", "enrollment": 263, "teachers_fte": 25.0}], "3400052": [{"ncessch": "340005200351", "school_name": "Classical Academy Charter School of Clifton", "city": "CLIFTON", "state": "NJ", "zip": "07011", "lat": 40.8782440000001, "lon": -74.143046999, "charter": true, "level": "", "enrollment": 163, "teachers_fte": 13.0}], "3400055": [{"ncessch": "340005500361", "school_name": "Sussex County Technology Charter School", "city": "SPARTA", "state": "NJ", "zip": "07871", "lat": 41.1127730000001, "lon": -74.634263, "charter": true, "level": "", "enrollment": 220, "teachers_fte": 22.8500003814697}], "3400061": [{"ncessch": "340006100378", "school_name": "The Queen City Academy Charter School", "city": "PLAINFIELD", "state": "NJ", "zip": "07063", "lat": 40.6039000000001, "lon": -74.429600001, "charter": true, "level": "", "enrollment": 403, "teachers_fte": 15.0}], "3400064": [{"ncessch": "340006400373", "school_name": "The Gray Charter School", "city": "NEWARK", "state": "NJ", "zip": "07102", "lat": 40.7307000000001, "lon": -74.1692, "charter": true, "level": "", "enrollment": 344, "teachers_fte": 18.0}], "3400069": [{"ncessch": "340006900719", "school_name": "Developmental Learning Center", "city": "Tinton Falls", "state": "NJ", "zip": "07712", "lat": 40.2703290000001, "lon": -74.080521, "charter": false, "level": "", "enrollment": 55, "teachers_fte": 14.0}], "3400070": [{"ncessch": "340007000529", "school_name": "TEAM Academy Charter School", "city": "NEWARK", "state": "NJ", "zip": "07102", "lat": 40.711168, "lon": -74.202782, "charter": true, "level": "", "enrollment": 6096, "teachers_fte": 270.0}], "3400073": [{"ncessch": "340007300531", "school_name": "University Academy Charter High School", "city": "JERSEY CITY", "state": "NJ", "zip": "07305", "lat": 40.7123000010001, "lon": -74.092, "charter": true, "level": "", "enrollment": 432, "teachers_fte": 33.0}], "3400076": [{"ncessch": "340007600483", "school_name": "Hope Academy Charter School", "city": "ASBURY PARK", "state": "NJ", "zip": "07712", "lat": 40.2182540000001, "lon": -74.00811, "charter": true, "level": "", "enrollment": 273, "teachers_fte": 25.5}], "3400078": [{"ncessch": "340007800487", "school_name": "Leap Academy University Charter School", "city": "CAMDEN", "state": "NJ", "zip": "08102", "lat": 39.9460800000001, "lon": -75.118301001, "charter": true, "level": "", "enrollment": 1557, "teachers_fte": 106.0}], "3400080": [{"ncessch": "340008000566", "school_name": "Freedom Prep Charter School", "city": "CAMDEN", "state": "NJ", "zip": "08104", "lat": 39.9289380000001, "lon": -75.1084719999999, "charter": true, "level": "", "enrollment": 743, "teachers_fte": 38.0}], "3400082": [{"ncessch": "340008200569", "school_name": "Ridge and Valley Charter School", "city": "Frelinghuysen", "state": "NJ", "zip": "07825", "lat": 40.975958, "lon": -74.936179, "charter": true, "level": "", "enrollment": 130, "teachers_fte": 18.0}], "3400083": [{"ncessch": "340008300573", "school_name": "Union County TEAMS Charter School", "city": "PLAINFIELD", "state": "NJ", "zip": "07060", "lat": 40.6119380000001, "lon": -74.425589999, "charter": true, "level": "", "enrollment": 334, "teachers_fte": 10.0}], "3400085": [{"ncessch": "340008500694", "school_name": "Ancora Psychiatric Hospital", "city": "ANCORA", "state": "NJ", "zip": "08037", "lat": 39.6822990000001, "lon": -74.860666999, "charter": false, "level": "", "enrollment": null, "teachers_fte": null}, {"ncessch": "340008500737", "school_name": "Ann Klein Forensic Center", "city": "WEST TRENTON", "state": "NJ", "zip": "08625", "lat": 40.246658, "lon": -74.801159, "charter": false, "level": "", "enrollment": null, "teachers_fte": null}, {"ncessch": "340008500739", "school_name": "Camden Virtua", "city": "CAMDEN", "state": "NJ", "zip": "08104", "lat": 39.9289380000001, "lon": -75.1084719999999, "charter": false, "level": "", "enrollment": 0, "teachers_fte": null}, {"ncessch": "340008500740", "school_name": "Capital Academy", "city": "MT HOLLY", "state": "NJ", "zip": "08060", "lat": 40.0160680010001, "lon": -74.8145240009999, "charter": false, "level": "", "enrollment": null, "teachers_fte": null}, {"ncessch": "340008500741", "school_name": "Atlantic Regional School", "city": "EGG HARBOR", "state": "NJ", "zip": "08401", "lat": 39.420528, "lon": -74.570930999, "charter": false, "level": "", "enrollment": 0, "teachers_fte": null}, {"ncessch": "340008500743", "school_name": "Bergen Regional School", "city": "PARAMUS", "state": "NJ", "zip": "07652", "lat": 40.9551230000001, "lon": -74.0540159999999, "charter": false, "level": "", "enrollment": 0, "teachers_fte": null}, {"ncessch": "340008500744", "school_name": "Burlington Regional School", "city": "MT HOLLY", "state": "NJ", "zip": "08060", "lat": 40.0139790000001, "lon": -74.821928, "charter": false, "level": "", "enrollment": 0, "teachers_fte": null}, {"ncessch": "340008500745", "school_name": "Cape May Regional School", "city": "CAPE MAY COURT HOUSE", "state": "NJ", "zip": "08210", "lat": 39.0989000000001, "lon": -74.7991999989999, "charter": false, "level": "", "enrollment": 0, "teachers_fte": null}, {"ncessch": "340008500746", "school_name": "Cherry Hill Regional School", "city": "CHERRY HILL", "state": "NJ", "zip": "08003", "lat": 39.860639, "lon": -75.013544, "charter": false, "level": "", "enrollment": 0, "teachers_fte": null}, {"ncessch": "340008500748", "school_name": "Cumberland Regional School", "city": "VINELAND", "state": "NJ", "zip": "08360", "lat": 39.4474000010001, "lon": -75.0461999999999, "charter": false, "level": "", "enrollment": 0, "teachers_fte": null}, {"ncessch": "340008500753", "school_name": "Greystone Park Psychiatric Hospital", "city": "GREYSTONE PARK", "state": "NJ", "zip": "07950", "lat": 40.8386, "lon": -74.5106, "charter": false, "level": "", "enrollment": 0, "teachers_fte": null}, {"ncessch": "340008500763", "school_name": "Monmouth Regional School", "city": "OCEAN", "state": "NJ", "zip": "07712", "lat": 40.26602, "lon": -74.075014, "charter": false, "level": "", "enrollment": 0, "teachers_fte": null}, {"ncessch": "340008500765", "school_name": "Morris Regional School", "city": "MORRISTOWN", "state": "NJ", "zip": "07960", "lat": 40.827054, "lon": -74.501276, "charter": false, "level": "", "enrollment": null, "teachers_fte": null}, {"ncessch": "340008500767", "school_name": "Ocean Regional School", "city": "TOMS RIVER", "state": "NJ", "zip": "08753", "lat": 39.9762250000001, "lon": -74.197344, "charter": false, "level": "", "enrollment": 0, "teachers_fte": null}, {"ncessch": "340008500771", "school_name": "Passaic Regional School", "city": "TOTOWA", "state": "NJ", "zip": "07512", "lat": 40.900564, "lon": -74.227491, "charter": false, "level": "", "enrollment": 0, "teachers_fte": null}, {"ncessch": "340008500775", "school_name": "Trenton Psychiatric Hospital", "city": "TRENTON", "state": "NJ", "zip": "08625", "lat": 40.244380999, "lon": -74.8064419999999, "charter": false, "level": "", "enrollment": null, "teachers_fte": null}, {"ncessch": "340008500783", "school_name": "WARREN REGIONAL SCHOOL", "city": "PORT MURRAY", "state": "NJ", "zip": "07865", "lat": 40.7662309990001, "lon": -74.9352499999999, "charter": false, "level": "", "enrollment": 0, "teachers_fte": null}, {"ncessch": "340008503089", "school_name": "UMDNJ - CTR", "city": "Piscataway", "state": "NJ", "zip": "08854", "lat": 40.525696, "lon": -74.4702589999999, "charter": false, "level": "", "enrollment": 0, "teachers_fte": null}, {"ncessch": "340008503315", "school_name": "UNION REGIONAL SCHOOL", "city": "Scotch Plains", "state": "NJ", "zip": "07076", "lat": 40.6200600000001, "lon": -74.370353001, "charter": false, "level": "", "enrollment": 0, "teachers_fte": null}, {"ncessch": "340008503316", "school_name": "ESSEX REGIONAL SCHOOL", "city": "Newark", "state": "NJ", "zip": "07107", "lat": 40.761581, "lon": -74.183893, "charter": false, "level": "", "enrollment": 0, "teachers_fte": null}, {"ncessch": "340008503317", "school_name": "WANAQUE REGIONAL SCHOOL", "city": "Haskell", "state": "NJ", "zip": "07420", "lat": 41.0143200000001, "lon": -74.2982709999999, "charter": false, "level": "", "enrollment": null, "teachers_fte": null}, {"ncessch": "340008503320", "school_name": "MERCER REGIONAL SCHOOL", "city": "Trenton", "state": "NJ", "zip": "08618", "lat": 40.247355, "lon": -74.7998699999999, "charter": false, "level": "", "enrollment": 0, "teachers_fte": null}], "3400087": [{"ncessch": "340008700735", "school_name": "Paterson Charter School for Science/Technology", "city": "PATERSON", "state": "NJ", "zip": "07503", "lat": 40.8960490000001, "lon": -74.155175001, "charter": true, "level": "", "enrollment": null, "teachers_fte": 122.0}], "3400088": [{"ncessch": "340008800589", "school_name": "ADULT DIAGNOSTIC AND TREATMENT CENTER", "city": "AVENEL", "state": "NJ", "zip": "07001", "lat": 40.5898519990001, "lon": -74.2737049999999, "charter": false, "level": "", "enrollment": null, "teachers_fte": null}, {"ncessch": "340008800597", "school_name": "EDNA MAHAN CORRECTIONAL FACILITY FOR WOMEN", "city": "CLINTON", "state": "NJ", "zip": "08809", "lat": 40.6297450000001, "lon": -74.933781999, "charter": false, "level": "", "enrollment": null, "teachers_fte": null}, {"ncessch": "340008800598", "school_name": "GARDEN STATE CORRECTIONAL FACILITY", "city": "YARDVILLE", "state": "NJ", "zip": "08620", "lat": 40.1595329990001, "lon": -74.676925, "charter": false, "level": "", "enrollment": 0, "teachers_fte": null}, {"ncessch": "340008800600", "school_name": "William H. Fauver Youth Correctional Facility", "city": "ANNANDALE", "state": "NJ", "zip": "08801", "lat": 40.6496920000001, "lon": -74.862876, "charter": false, "level": "", "enrollment": null, "teachers_fte": null}, {"ncessch": "340008800601", "school_name": "NEW JERSEY STATE PRISON", "city": "TRENTON", "state": "NJ", "zip": "08625", "lat": 40.2079610000001, "lon": -74.756716001, "charter": false, "level": "", "enrollment": null, "teachers_fte": null}, {"ncessch": "340008800603", "school_name": "NORTHERN STATE PRISON", "city": "NEWARK", "state": "NJ", "zip": "07114", "lat": 40.7128729990001, "lon": -74.1712259999999, "charter": false, "level": "", "enrollment": null, "teachers_fte": null}, {"ncessch": "340008800610", "school_name": "Garden Sate Correctional Facility Annex", "city": "BORDENTOWN", "state": "NJ", "zip": "08505", "lat": 40.1599220000001, "lon": -74.669616, "charter": false, "level": "", "enrollment": null, "teachers_fte": null}], "3400089": [{"ncessch": "340008900630", "school_name": "DOVES RCH", "city": "HOPEWELL", "state": "NJ", "zip": "08525", "lat": 40.4254570000001, "lon": -74.758123, "charter": false, "level": "", "enrollment": 0, "teachers_fte": null}, {"ncessch": "340008900634", "school_name": "ESSEX RCH", "city": "NEWARK", "state": "NJ", "zip": "07107", "lat": 40.748, "lon": -74.192, "charter": false, "level": "", "enrollment": 0, "teachers_fte": null}, {"ncessch": "340008900645", "school_name": "OCEAN RCH", "city": "FORKED RIVER", "state": "NJ", "zip": "08731", "lat": 39.8407, "lon": -74.1846, "charter": false, "level": "", "enrollment": 0, "teachers_fte": null}, {"ncessch": "340008900648", "school_name": "PINELANDS RCH", "city": "TABERNACLE", "state": "NJ", "zip": "08088", "lat": 39.683434, "lon": -74.530179, "charter": false, "level": "", "enrollment": 0, "teachers_fte": null}, {"ncessch": "340008900653", "school_name": "VOORHEES RCH", "city": "GLEN GARDNER", "state": "NJ", "zip": "08826", "lat": 40.681636, "lon": -74.8920239999999, "charter": false, "level": "", "enrollment": 0, "teachers_fte": null}, {"ncessch": "340008900657", "school_name": "JUVENILE FEMALE SECURE UNIT", "city": "BORDENTOWN", "state": "NJ", "zip": "08505", "lat": 40.1370600000001, "lon": -74.721708, "charter": false, "level": "", "enrollment": 0, "teachers_fte": null}, {"ncessch": "340008900659", "school_name": "JUVENILE MEDIUM SECURE FACILITY", "city": "BORDENTOWN", "state": "NJ", "zip": "08505", "lat": 40.1370600000001, "lon": -74.721708, "charter": false, "level": "", "enrollment": 0, "teachers_fte": null}, {"ncessch": "340008900661", "school_name": "JUVENILE MEDIUM SECURE FACILITY SOUTH", "city": "BORDENTOWN", "state": "NJ", "zip": "08505", "lat": 40.137374999, "lon": -74.7219669999999, "charter": false, "level": "", "enrollment": null, "teachers_fte": null}, {"ncessch": "340008900662", "school_name": "NEW JERSEY TRAINING SCHOOL", "city": "JAMESBURG", "state": "NJ", "zip": "08831", "lat": 40.3431, "lon": -74.3983000009999, "charter": false, "level": "", "enrollment": 0, "teachers_fte": null}, {"ncessch": "340008902973", "school_name": "COSTELLO PREP", "city": "TABERNACLE", "state": "NJ", "zip": "08088", "lat": 39.7860000000001, "lon": -74.664499999, "charter": false, "level": "", "enrollment": 0, "teachers_fte": null}, {"ncessch": "340008903269", "school_name": "Vineland Preparatory Academy", "city": "VINELAND", "state": "NJ", "zip": "08361", "lat": 39.493569999, "lon": -74.988011, "charter": false, "level": "", "enrollment": 0, "teachers_fte": null}, {"ncessch": "340008903319", "school_name": "WARREN RCH", "city": "OXFORD", "state": "NJ", "zip": "07863", "lat": 40.7828420000001, "lon": -75.027693001, "charter": false, "level": "", "enrollment": null, "teachers_fte": null}, {"ncessch": "340008903322", "school_name": "SOUTHERN RCH", "city": "EGG HARBOR CITY", "state": "NJ", "zip": "08215", "lat": 39.5366110000001, "lon": -74.633748, "charter": false, "level": "", "enrollment": 0, "teachers_fte": null}], "3400090": [{"ncessch": "340009000829", "school_name": "Central Jersey College Prep Charter School", "city": "Somerset", "state": "NJ", "zip": "08873", "lat": 40.5138650000001, "lon": -74.565511, "charter": true, "level": "", "enrollment": 1288, "teachers_fte": 97.6999969482422}], "3400660": [{"ncessch": "340066000004", "school_name": "Emma C Attales", "city": "ABSECON", "state": "NJ", "zip": "08201", "lat": 39.4369999990001, "lon": -74.4953, "charter": false, "level": "", "enrollment": 401, "teachers_fte": 36.0499992370605}, {"ncessch": "340066000006", "school_name": "H Ashton Marsh", "city": "ABSECON", "state": "NJ", "zip": "08201", "lat": 39.4369999990001, "lon": -74.4954, "charter": false, "level": "", "enrollment": 546, "teachers_fte": 52.2000007629395}], "3400690": [{"ncessch": "340069002954", "school_name": "Alexandria Middle School", "city": "Pittstown", "state": "NJ", "zip": "08867", "lat": 40.573, "lon": -75.0119999999999, "charter": false, "level": "", "enrollment": 256, "teachers_fte": 31.2000007629395}, {"ncessch": "340069002956", "school_name": "Lester D. Wilson Elementary School", "city": "Pittstown", "state": "NJ", "zip": "08867", "lat": 40.5676999990001, "lon": -75.022900001, "charter": false, "level": "", "enrollment": 191, "teachers_fte": 19.7999992370605}], "3400715": [{"ncessch": "340071502923", "school_name": "Bergen Arts and Sciences Charter School", "city": "GARFIELD", "state": "NJ", "zip": "07026", "lat": 40.8741000000001, "lon": -74.0987, "charter": true, "level": "", "enrollment": 1253, "teachers_fte": 82.0}], "3400717": [{"ncessch": "340071702925", "school_name": "Foundation Academy Charter School", "city": "Trenton", "state": "NJ", "zip": "08608", "lat": 40.223755, "lon": -74.77719, "charter": true, "level": "", "enrollment": 1044, "teachers_fte": 57.0}], "3400718": [{"ncessch": "340071803014", "school_name": "Community Charter School of Paterson", "city": "PATERSON", "state": "NJ", "zip": "07501", "lat": 40.911659, "lon": -74.177691, "charter": true, "level": "", "enrollment": 874, "teachers_fte": 53.0}], "3400719": [{"ncessch": "340071903017", "school_name": "Pride Academy Charter School", "city": "EAST ORANGE", "state": "NJ", "zip": "07018", "lat": 40.7533, "lon": -74.219100001, "charter": true, "level": "", "enrollment": 299, "teachers_fte": 22.8500003814697}], "3400720": [{"ncessch": "340072003066", "school_name": "Mountain Villa School", "city": "Allamuchy", "state": "NJ", "zip": "07820", "lat": 40.914366, "lon": -74.813253, "charter": false, "level": "", "enrollment": 161, "teachers_fte": 10.0}, {"ncessch": "340072005788", "school_name": "Allamuchy Township School", "city": "ALLAMUCHY", "state": "NJ", "zip": "07820", "lat": 40.9246370000001, "lon": -74.8119409999999, "charter": false, "level": "", "enrollment": 265, "teachers_fte": 24.0}], "3400723": [{"ncessch": "340072303015", "school_name": "Paul Robeson Charter School for the Humanities", "city": "TRENTON", "state": "NJ", "zip": "08638", "lat": 40.2380890000001, "lon": -74.7497749999999, "charter": true, "level": "", "enrollment": 432, "teachers_fte": 35.0}], "3400724": [{"ncessch": "340072403011", "school_name": "Burch Charter School of Excellence", "city": "IRVINGTON", "state": "NJ", "zip": "07111", "lat": 40.7299340000001, "lon": -74.226983, "charter": true, "level": "", "enrollment": 328, "teachers_fte": 18.0}], "3400727": [{"ncessch": "340072703029", "school_name": "The Ethical Community Charter School", "city": "JERSEY CITY", "state": "NJ", "zip": "07306", "lat": 40.735899999, "lon": -74.0724, "charter": true, "level": "", "enrollment": 380, "teachers_fte": 19.0}], "3400729": [{"ncessch": "340072903027", "school_name": "Vineland Public Charter School", "city": "VINELAND", "state": "NJ", "zip": "08361", "lat": 39.4347770000001, "lon": -75.002911001, "charter": true, "level": "", "enrollment": 433, "teachers_fte": 30.0}], "3400730": [{"ncessch": "340073003028", "school_name": "Newark Educators Community Charter School", "city": "NEWARK", "state": "NJ", "zip": "07102", "lat": 40.732899, "lon": -74.179837, "charter": true, "level": "", "enrollment": 169, "teachers_fte": 17.0}], "3400731": [{"ncessch": "340073103022", "school_name": "Riverbank Charter School of Excellence", "city": "Roebling", "state": "NJ", "zip": "08554", "lat": 40.1155680000001, "lon": -74.783627, "charter": true, "level": "", "enrollment": 154, "teachers_fte": 14.0}], "3400734": [{"ncessch": "340073403037", "school_name": "Hoboken Dual Language Charter School", "city": "HOBOKEN", "state": "NJ", "zip": "07030", "lat": 40.7393640010001, "lon": -74.0378900009999, "charter": true, "level": "", "enrollment": 422, "teachers_fte": 16.0}], "3400735": [{"ncessch": "340073503055", "school_name": "Hatikvah International Academy Charter School", "city": "East Brunswick", "state": "NJ", "zip": "08816", "lat": 40.4062489990001, "lon": -74.4185439999999, "charter": true, "level": "", "enrollment": 595, "teachers_fte": 41.5499992370605}], "3400740": [{"ncessch": "340074003047", "school_name": "The Barack Obama Green Charter High School", "city": "Plainfield", "state": "NJ", "zip": "07060", "lat": 40.620506, "lon": -74.42323, "charter": true, "level": "", "enrollment": 257, "teachers_fte": 26.5}], "3400741": [{"ncessch": "340074103050", "school_name": "Academy for Urban Leadership Charter School", "city": "Perth Amboy", "state": "NJ", "zip": "08861", "lat": 40.5210490010001, "lon": -74.27575, "charter": true, "level": "", "enrollment": 376, "teachers_fte": 26.0}], "3400744": [{"ncessch": "340074403139", "school_name": "Benjamin Banneker Preparatory Charter School", "city": "Willingboro", "state": "NJ", "zip": "08046", "lat": 40.042583999, "lon": -74.900988, "charter": true, "level": "", "enrollment": 359, "teachers_fte": 29.0}], "3400745": [{"ncessch": "340074503137", "school_name": "Passaic Arts and Science Charter School", "city": "Passaic", "state": "NJ", "zip": "07410", "lat": 40.858977, "lon": -74.123275, "charter": true, "level": "", "enrollment": 1946, "teachers_fte": 126.0}], "3400746": [{"ncessch": "340074603143", "school_name": "Thomas Edison EnergySmart Charter School", "city": "Somerset", "state": "NJ", "zip": "08873", "lat": 40.52833, "lon": -74.522741001, "charter": true, "level": "", "enrollment": 604, "teachers_fte": 38.0699996948242}], "3400748": [{"ncessch": "340074803144", "school_name": "John P. Holland Charter School", "city": "Woodland", "state": "NJ", "zip": "07424", "lat": 40.902773, "lon": -74.190973, "charter": true, "level": "", "enrollment": 688, "teachers_fte": 36.0}], "3400749": [{"ncessch": "340074903184", "school_name": "Millville Public Charter School", "city": "Millville", "state": "NJ", "zip": "08332", "lat": 39.4077770000001, "lon": -75.032002, "charter": true, "level": "", "enrollment": 310, "teachers_fte": 27.0}], "3400750": [{"ncessch": "340075000224", "school_name": "Brookside School", "city": "Allendale", "state": "NJ", "zip": "07401", "lat": 41.03, "lon": -74.1365, "charter": false, "level": "", "enrollment": 524, "teachers_fte": 44.7999992370605}, {"ncessch": "340075000226", "school_name": "Hillside Elementary School", "city": "Allendale", "state": "NJ", "zip": "07401", "lat": 41.0314000000001, "lon": -74.1405999999999, "charter": false, "level": "", "enrollment": 382, "teachers_fte": 22.7000007629395}], "3400751": [{"ncessch": "340075103180", "school_name": "Great Oaks Legacy Charter School", "city": "Newark", "state": "NJ", "zip": "07102", "lat": 40.7324100000001, "lon": -74.174408999, "charter": true, "level": "", "enrollment": 2012, "teachers_fte": 101.0}], "3400754": [{"ncessch": "340075403181", "school_name": "Peoples Preparatory Charter School", "city": "Newark", "state": "NJ", "zip": "07103", "lat": 40.73477, "lon": -74.19514, "charter": true, "level": "", "enrollment": 340, "teachers_fte": 16.5}], "3400755": [{"ncessch": "340075503187", "school_name": "Roseville Community Charter School", "city": "NEWARK", "state": "NJ", "zip": "07107", "lat": 40.7542509990001, "lon": -74.193749001, "charter": true, "level": "", "enrollment": 272, "teachers_fte": 26.0}], "3400756": [{"ncessch": "340075603185", "school_name": "Dr Lena Edwards Academic Charter School", "city": "Jersey City", "state": "NJ", "zip": "07304", "lat": 40.7137900000001, "lon": -74.0726069999999, "charter": true, "level": "", "enrollment": 380, "teachers_fte": 27.0}], "3400759": [{"ncessch": "340075903196", "school_name": "BelovED Community Charter School", "city": "Jersey City", "state": "NJ", "zip": "07302", "lat": 40.7178999990001, "lon": -74.0583, "charter": true, "level": "", "enrollment": 1551, "teachers_fte": 100.0}], "3400763": [{"ncessch": "340076303247", "school_name": "Hope Community Charter School", "city": "Camden", "state": "NJ", "zip": "08103", "lat": 39.935078, "lon": -75.12233, "charter": true, "level": "", "enrollment": 133, "teachers_fte": 17.6000003814697}], "3400764": [{"ncessch": "340076403256", "school_name": "Philip's Academy Charter School", "city": "Newark", "state": "NJ", "zip": "07103", "lat": 40.746383, "lon": -74.186319001, "charter": true, "level": "", "enrollment": 639, "teachers_fte": 33.5}], "3400765": [{"ncessch": "340076503254", "school_name": "Paterson Arts and Science Charter School", "city": "Paterson", "state": "NJ", "zip": "07501", "lat": 40.910357, "lon": -74.179136, "charter": true, "level": "", "enrollment": 1160, "teachers_fte": 81.0}], "3400766": [{"ncessch": "340076603265", "school_name": "Compass Academy Charter School", "city": "Vineland", "state": "NJ", "zip": "08360", "lat": 39.4778400000001, "lon": -75.041981, "charter": true, "level": "", "enrollment": 176, "teachers_fte": 17.0}], "3400767": [{"ncessch": "340076703251", "school_name": "Jersey City Global Charter School", "city": "Jersey City", "state": "NJ", "zip": "07307", "lat": 40.7531999990001, "lon": -74.052, "charter": true, "level": "", "enrollment": 416, "teachers_fte": 13.0}], "3400769": [{"ncessch": "340076903010", "school_name": "Lambertville Public School", "city": "Lambertville", "state": "NJ", "zip": "08530", "lat": 40.37366, "lon": -74.944543, "charter": false, "level": "", "enrollment": 221, "teachers_fte": 31.5900001525879}, {"ncessch": "340076903036", "school_name": "South Hunterdon Regional High School", "city": "Lambertville", "state": "NJ", "zip": "08530", "lat": 40.387097, "lon": -74.8904259989999, "charter": false, "level": "", "enrollment": 417, "teachers_fte": 49.6599998474121}, {"ncessch": "340076903048", "school_name": "West Amwell Township School", "city": "Lambertville", "state": "NJ", "zip": "08530", "lat": 40.387029, "lon": -74.9203180009999, "charter": false, "level": "", "enrollment": 170, "teachers_fte": 26.8799991607666}], "3400770": [{"ncessch": "340077003291", "school_name": "Trenton Stem-to-Civics Charter School", "city": "Ewing", "state": "NJ", "zip": "08618", "lat": 40.2519280000001, "lon": -74.778086, "charter": true, "level": "", "enrollment": 585, "teachers_fte": 23.5}], "3400771": [{"ncessch": "340077103287", "school_name": "Atlantic Community Charter School", "city": "Galloway", "state": "NJ", "zip": "08205", "lat": 39.482, "lon": -74.458091, "charter": true, "level": "", "enrollment": 330, "teachers_fte": 36.0999984741211}], "3400772": [{"ncessch": "340077203313", "school_name": "Mastery Schools of Camden Inc.", "city": "Camden", "state": "NJ", "zip": "08105", "lat": 39.9501670000001, "lon": -75.100765, "charter": false, "level": "", "enrollment": 2880, "teachers_fte": 207.0}], "3400773": [{"ncessch": "340077303275", "school_name": "Link Community Charter School", "city": "Newark", "state": "NJ", "zip": "07114", "lat": 40.7246220000001, "lon": -74.1800909999999, "charter": true, "level": "", "enrollment": 339, "teachers_fte": 20.0}], "3400776": [{"ncessch": "340077603299", "school_name": "Camden Prep Inc.", "city": "Camden", "state": "NJ", "zip": "08104", "lat": 39.9252559990001, "lon": -75.106478, "charter": false, "level": "", "enrollment": 1162, "teachers_fte": 39.5499992370605}], "3400777": [{"ncessch": "340077703307", "school_name": "KIPP: Cooper Norcross A New Jersey Nonprofit Corporation", "city": "Camden", "state": "NJ", "zip": "08103", "lat": 39.939088, "lon": -75.11961, "charter": false, "level": "", "enrollment": 2026, "teachers_fte": 106.0}], "3400778": [{"ncessch": "340077803329", "school_name": "Marie H Katzenbach High School", "city": "Trenton", "state": "NJ", "zip": "08628", "lat": 40.2530130000001, "lon": -74.813188, "charter": false, "level": "", "enrollment": 41, "teachers_fte": 17.0}, {"ncessch": "340077803377", "school_name": "Marie H Katzenbach Elementary Middle School for the Deaf", "city": "Trenton", "state": "NJ", "zip": "08628", "lat": 40.2530130000001, "lon": -74.813188, "charter": false, "level": "", "enrollment": 43, "teachers_fte": 10.0}], "3400779": [{"ncessch": "340077903353", "school_name": "College Achieve Central Charter School", "city": "Plainfield", "state": "NJ", "zip": "07062", "lat": 40.633342999, "lon": -74.40426, "charter": true, "level": "", "enrollment": 1403, "teachers_fte": 102.0}], "3400781": [{"ncessch": "340078103335", "school_name": "Empowerment Academy Charter School", "city": "Jersey City", "state": "NJ", "zip": "07304", "lat": 40.7158600000001, "lon": -74.0854009999999, "charter": true, "level": "", "enrollment": 1002, "teachers_fte": 75.0}], "3400782": [{"ncessch": "340078203371", "school_name": "Bridgeton Public Charter School", "city": "Bridgeton", "state": "NJ", "zip": "08302", "lat": 39.423409, "lon": -75.206926, "charter": true, "level": "", "enrollment": 119, "teachers_fte": 13.0}], "3400783": [{"ncessch": "340078303345", "school_name": "Principle Academy Charter School", "city": "Egg Harbor Township", "state": "NJ", "zip": "08234", "lat": 39.403803999, "lon": -74.558756, "charter": true, "level": "", "enrollment": 472, "teachers_fte": 38.0}], "3400784": [{"ncessch": "340078403383", "school_name": "Philip's Academy Charter School of Paterson", "city": "Paterson", "state": "NJ", "zip": "07501", "lat": 40.9085860010001, "lon": -74.161681, "charter": true, "level": "", "enrollment": 515, "teachers_fte": 44.0}], "3400785": [{"ncessch": "340078503390", "school_name": "Camden's Promise Charter School", "city": "Camden", "state": "NJ", "zip": "08105", "lat": 39.9575800000001, "lon": -75.0858479999999, "charter": true, "level": "", "enrollment": 2363, "teachers_fte": 210.0}], "3400786": [{"ncessch": "340078603385", "school_name": "Cresthaven Academy Charter School", "city": "Plainfield", "state": "NJ", "zip": "07060", "lat": 40.610008001, "lon": -74.423748, "charter": true, "level": "", "enrollment": 532, "teachers_fte": 36.0}], "3400787": [{"ncessch": "340078703387", "school_name": "Hudson Arts and Science Charter School", "city": "Kearny", "state": "NJ", "zip": "07032", "lat": 40.7701300000001, "lon": -74.143141, "charter": true, "level": "", "enrollment": 846, "teachers_fte": 53.0}], "3400788": [{"ncessch": "340078803423", "school_name": "LEAD Charter School", "city": "Newark", "state": "NJ", "zip": "07103", "lat": 40.7386260000001, "lon": -74.193661, "charter": true, "level": "", "enrollment": 196, "teachers_fte": 5.0}], "3400789": [{"ncessch": "340078903411", "school_name": "Ocean Academy Charter School", "city": "Lakewood", "state": "NJ", "zip": "08701", "lat": 40.0513780000001, "lon": -74.231421, "charter": true, "level": "", "enrollment": 450, "teachers_fte": 39.0}], "3400791": [{"ncessch": "340079103403", "school_name": "College Achieve Greater Asbury Park Charter School District", "city": "Asbury Park", "state": "NJ", "zip": "07712", "lat": 40.222452, "lon": -74.0067549999999, "charter": true, "level": "", "enrollment": 554, "teachers_fte": 38.0}], "3400792": [{"ncessch": "340079203419", "school_name": "Achieve Community Charter School", "city": "Newark", "state": "NJ", "zip": "07108", "lat": 40.7217160000001, "lon": -74.202907, "charter": true, "level": "", "enrollment": 450, "teachers_fte": 26.0}], "3400793": [{"ncessch": "340079303413", "school_name": "College Achieve Paterson Charter School", "city": "Paterson", "state": "NJ", "zip": "07501", "lat": 40.9150700000001, "lon": -74.178081, "charter": true, "level": "", "enrollment": 1305, "teachers_fte": 68.0}], "3400794": [{"ncessch": "340079403457", "school_name": "Achievers Early College Prep Charter School", "city": "Trenton", "state": "NJ", "zip": "08611", "lat": 40.211799999, "lon": -74.746229001, "charter": true, "level": "", "enrollment": 353, "teachers_fte": 20.0}], "3400795": [{"ncessch": "340079503451", "school_name": "Middlesex County STEM Charter School", "city": "Perth Amboy", "state": "NJ", "zip": "08861", "lat": 40.524952999, "lon": -74.287676, "charter": true, "level": "", "enrollment": 462, "teachers_fte": 29.7999992370605}], "3400796": [{"ncessch": "340079600669", "school_name": "BERGEN CO JDC", "city": "PARAMUS", "state": "NJ", "zip": "07652", "lat": 40.8646180000001, "lon": -74.0536519999999, "charter": false, "level": "", "enrollment": 0, "teachers_fte": null}], "3400797": [{"ncessch": "340079700675", "school_name": "ESSEX CO JDC", "city": "NEWARK", "state": "NJ", "zip": "08302", "lat": 40.747708, "lon": -74.1853139999999, "charter": false, "level": "", "enrollment": 0, "teachers_fte": null}], "3400798": [{"ncessch": "340079800686", "school_name": "OCEAN CO JDC", "city": "TOMS RIVER", "state": "NJ", "zip": "08754", "lat": 40.0061150000001, "lon": -74.224728, "charter": false, "level": "", "enrollment": 0, "teachers_fte": null}], "3400799": [{"ncessch": "340079900681", "school_name": "MIDDLESEX CO JDC", "city": "NEW BRUNSWICK", "state": "NJ", "zip": "08902", "lat": 40.4281250000001, "lon": -74.489318999, "charter": false, "level": "", "enrollment": 0, "teachers_fte": null}], "3400802": [{"ncessch": "340080200672", "school_name": "CAMDEN CO JDC", "city": "BLACKWOODLEX", "state": "NJ", "zip": "08012", "lat": 39.7836980000001, "lon": -75.0666899999999, "charter": false, "level": "", "enrollment": 0, "teachers_fte": null}], "3400803": [{"ncessch": "340080300667", "school_name": "ATLANTIC CO JDC", "city": "EGG HARBOR CITY", "state": "NJ", "zip": "08215", "lat": 39.5365840000001, "lon": -74.633763001, "charter": false, "level": "", "enrollment": 0, "teachers_fte": null}], "3400804": [{"ncessch": "340080400685", "school_name": "MORRIS CO JDC", "city": "MORRISTOWN", "state": "NJ", "zip": "07963", "lat": 40.8321800000001, "lon": -74.519986, "charter": false, "level": "", "enrollment": 0, "teachers_fte": null}], "3400805": [{"ncessch": "340080503481", "school_name": "Creativity CoLaboratory Charter School", "city": "Elmer", "state": "NJ", "zip": "08318", "lat": 39.5787560000001, "lon": -75.198845999, "charter": true, "level": "", "enrollment": 191, "teachers_fte": 17.0}], "3400810": [{"ncessch": "340081005028", "school_name": "Alloway Township School", "city": "ALLOWAY", "state": "NJ", "zip": "08001", "lat": 39.5584000000001, "lon": -75.364299999, "charter": false, "level": "", "enrollment": 262, "teachers_fte": 27.0}], "3400840": [{"ncessch": "340084005790", "school_name": "Alpha Borough School", "city": "ALPHA", "state": "NJ", "zip": "08865", "lat": 40.6643, "lon": -75.1647, "charter": false, "level": "", "enrollment": 169, "teachers_fte": 24.3999996185303}], "3400870": [{"ncessch": "340087000228", "school_name": "Alpine Elementary School", "city": "ALPINE", "state": "NJ", "zip": "07620", "lat": 40.940999999, "lon": -73.927900001, "charter": false, "level": "", "enrollment": 165, "teachers_fte": 21.5}], "3400900": [{"ncessch": "340090005324", "school_name": "Florence M. Burd", "city": "NEWTON", "state": "NJ", "zip": "07860", "lat": 41.0398000000001, "lon": -74.7048, "charter": false, "level": "", "enrollment": 237, "teachers_fte": 28.3999996185303}, {"ncessch": "340090005326", "school_name": "Long Pond School", "city": "NEWTON", "state": "NJ", "zip": "07860", "lat": 41.0331, "lon": -74.7066, "charter": false, "level": "", "enrollment": 191, "teachers_fte": 24.7999992370605}], "3400930": [{"ncessch": "340093000157", "school_name": "Thurgood Marshall Elementary School", "city": "ASBURY PARK", "state": "NJ", "zip": "07712", "lat": 40.2183000000001, "lon": -74.010700001, "charter": false, "level": "", "enrollment": 231, "teachers_fte": 35.5}, {"ncessch": "340093003732", "school_name": "Asbury Park High School", "city": "ASBURY PARK", "state": "NJ", "zip": "07712", "lat": 40.2283, "lon": -74.0128999999999, "charter": false, "level": "", "enrollment": 607, "teachers_fte": 50.0099983215332}, {"ncessch": "340093003740", "school_name": "Bradley Elementary School", "city": "ASBURY PARK", "state": "NJ", "zip": "07712", "lat": 40.2244000000001, "lon": -74.016499999, "charter": false, "level": "", "enrollment": 305, "teachers_fte": 34.0}, {"ncessch": "340093003742", "school_name": "Dr. Martin Luther King Upper Elementary School", "city": "ASBURY PARK", "state": "NJ", "zip": "07712", "lat": 40.2182320000001, "lon": -74.019596001, "charter": false, "level": "", "enrollment": 267, "teachers_fte": 32.5}], "3400960": [{"ncessch": "340096000010", "school_name": "Atlantic City High School", "city": "Atlantic City", "state": "NJ", "zip": "08401", "lat": 39.3677000010001, "lon": -74.4768999999999, "charter": false, "level": "", "enrollment": 1764, "teachers_fte": 146.800003051758}, {"ncessch": "340096000012", "school_name": "Sovereign Avenue School", "city": "Atlantic City", "state": "NJ", "zip": "08401", "lat": 39.355398999, "lon": -74.4519089999999, "charter": false, "level": "", "enrollment": 698, "teachers_fte": 68.4300003051758}, {"ncessch": "340096000016", "school_name": "Chelsea Heights School", "city": "Atlantic City", "state": "NJ", "zip": "08401", "lat": 39.3559000010001, "lon": -74.464000001, "charter": false, "level": "", "enrollment": 269, "teachers_fte": 28.0}, {"ncessch": "340096000018", "school_name": "Texas Avenue School", "city": "Atlantic City", "state": "NJ", "zip": "08401", "lat": 39.3579, "lon": -74.444, "charter": false, "level": "", "enrollment": 498, "teachers_fte": 45.4000015258789}, {"ncessch": "340096000020", "school_name": "New York Avenue School", "city": "Atlantic City", "state": "NJ", "zip": "08401", "lat": 39.367899999, "lon": -74.4326, "charter": false, "level": "", "enrollment": 571, "teachers_fte": 52.9500007629395}, {"ncessch": "340096000022", "school_name": "Uptown School Complex", "city": "Atlantic City", "state": "NJ", "zip": "08401", "lat": 39.371, "lon": -74.4173, "charter": false, "level": "", "enrollment": 556, "teachers_fte": 53.0499992370605}, {"ncessch": "340096000026", "school_name": "Pennsylvania Ave School", "city": "Atlantic City", "state": "NJ", "zip": "08401", "lat": 39.3670000000001, "lon": -74.4197, "charter": false, "level": "", "enrollment": 531, "teachers_fte": 55.7000007629395}, {"ncessch": "340096000028", "school_name": "Richmond Avenue School", "city": "Atlantic City", "state": "NJ", "zip": "08401", "lat": 39.3493, "lon": -74.46, "charter": false, "level": "", "enrollment": 588, "teachers_fte": 57.8300018310547}, {"ncessch": "340096000030", "school_name": "Venice Park School", "city": "Atlantic City", "state": "NJ", "zip": "08401", "lat": 39.3758, "lon": -74.4487999999999, "charter": false, "level": "", "enrollment": 65, "teachers_fte": 8.13000011444092}, {"ncessch": "340096000032", "school_name": "Dr Martin Luther King Jr School Complex", "city": "Atlantic City", "state": "NJ", "zip": "08401", "lat": 39.3648000000001, "lon": -74.4387, "charter": false, "level": "", "enrollment": 516, "teachers_fte": 50.75}, {"ncessch": "340096003259", "school_name": "Brighton Avenue School", "city": "Atlantic City", "state": "NJ", "zip": "08401", "lat": 39.3556, "lon": -74.448400001, "charter": false, "level": "", "enrollment": 290, "teachers_fte": 34.0499992370605}], "3400990": [{"ncessch": "340099000034", "school_name": "Atlantic County Institute of Technology", "city": "MAYS LANDING", "state": "NJ", "zip": "08330", "lat": 39.4423420000001, "lon": -74.6964399999999, "charter": false, "level": "", "enrollment": 1759, "teachers_fte": 143.5}], "3401020": [{"ncessch": "340102003746", "school_name": "Atlantic Highlands Elementary School", "city": "ATLANTIC HIGHLANDS", "state": "NJ", "zip": "07716", "lat": 40.4114000000001, "lon": -74.038399999, "charter": false, "level": "", "enrollment": 256, "teachers_fte": 27.0}], "3401050": [{"ncessch": "340105001298", "school_name": "Audubon Junior/Senior High School", "city": "AUDUBON", "state": "NJ", "zip": "08106", "lat": 39.8849000000001, "lon": -75.0764, "charter": false, "level": "", "enrollment": 758, "teachers_fte": 64.0}, {"ncessch": "340105001300", "school_name": "Haviland Avenue School", "city": "AUDUBON", "state": "NJ", "zip": "08106", "lat": 39.8943, "lon": -75.0645, "charter": false, "level": "", "enrollment": 237, "teachers_fte": 28.2299995422363}, {"ncessch": "340105001302", "school_name": "Mansion Avenue School", "city": "AUDUBON", "state": "NJ", "zip": "08106", "lat": 39.8883000000001, "lon": -75.0733999999999, "charter": false, "level": "", "enrollment": 356, "teachers_fte": 33.7400016784668}, {"ncessch": "340105006137", "school_name": "Audubon Park Preschool", "city": "Audubon Park", "state": "NJ", "zip": "08106", "lat": 39.895176, "lon": -75.086784, "charter": false, "level": "", "enrollment": 54, "teachers_fte": null}], "3401110": [{"ncessch": "340111001702", "school_name": "Avalon Elementary School", "city": "AVALON", "state": "NJ", "zip": "08202", "lat": 39.095699999, "lon": -74.725, "charter": false, "level": "", "enrollment": 83, "teachers_fte": 12.1999998092651}], "3401140": [{"ncessch": "340114003748", "school_name": "Avon Elementary School", "city": "AVON", "state": "NJ", "zip": "07717", "lat": 40.1903, "lon": -74.021, "charter": false, "level": "", "enrollment": 117, "teachers_fte": 17.8999996185303}], "3401170": [{"ncessch": "340117001308", "school_name": "Avon Elementary School", "city": "HADDONFIELD", "state": "NJ", "zip": "08033", "lat": 39.8806000000001, "lon": -75.0445999999999, "charter": false, "level": "", "enrollment": 310, "teachers_fte": 36.2999992370605}, {"ncessch": "340117001312", "school_name": "Woodland Middle School", "city": "BARRINGTON", "state": "NJ", "zip": "08007", "lat": 39.8688999990001, "lon": -75.0493999999999, "charter": false, "level": "", "enrollment": 245, "teachers_fte": 26.5}], "3401230": [{"ncessch": "340123004568", "school_name": "Bay Head Elementary", "city": "BAY HEAD", "state": "NJ", "zip": "08742", "lat": 40.0697000000001, "lon": -74.0502, "charter": false, "level": "", "enrollment": 123, "teachers_fte": 14.4499998092651}], "3401260": [{"ncessch": "340126000001", "school_name": "William Shemin Midtown Community School #8", "city": "BAYONNE", "state": "NJ", "zip": "07002", "lat": 40.6672, "lon": -74.123500001, "charter": false, "level": "", "enrollment": 1210, "teachers_fte": 96.0}, {"ncessch": "340126000141", "school_name": "Nicholas Oresko Community School", "city": "BAYONNE", "state": "NJ", "zip": "07002", "lat": 40.664022, "lon": -74.115418999, "charter": false, "level": "", "enrollment": 393, "teachers_fte": 26.0}, {"ncessch": "340126002704", "school_name": "Bayonne High School", "city": "BAYONNE", "state": "NJ", "zip": "07002", "lat": 40.6723860000001, "lon": -74.121237, "charter": false, "level": "", "enrollment": 2656, "teachers_fte": 213.0}, {"ncessch": "340126002710", "school_name": "Walter F. Robinson Community School", "city": "BAYONNE", "state": "NJ", "zip": "07002", "lat": 40.6724, "lon": -74.117, "charter": false, "level": "", "enrollment": 908, "teachers_fte": 80.0}, {"ncessch": "340126002712", "school_name": "John M. Bailey Community School", "city": "BAYONNE", "state": "NJ", "zip": "07002", "lat": 40.6573000000001, "lon": -74.1290999999999, "charter": false, "level": "", "enrollment": 655, "teachers_fte": 51.0}, {"ncessch": "340126002714", "school_name": "Henry E. Harris Community School", "city": "BAYONNE", "state": "NJ", "zip": "07002", "lat": 40.6507, "lon": -74.131, "charter": false, "level": "", "enrollment": 653, "teachers_fte": 60.0}, {"ncessch": "340126002716", "school_name": "Horace Mann Community School", "city": "BAYONNE", "state": "NJ", "zip": "07002", "lat": 40.6763, "lon": -74.108800001, "charter": false, "level": "", "enrollment": 643, "teachers_fte": 51.0}, {"ncessch": "340126002718", "school_name": "Lincoln Community School #5", "city": "BAYONNE", "state": "NJ", "zip": "07002", "lat": 40.667, "lon": -74.1104, "charter": false, "level": "", "enrollment": 482, "teachers_fte": 46.0}, {"ncessch": "340126002720", "school_name": "Mary J Donohoe Community School", "city": "BAYONNE", "state": "NJ", "zip": "07002", "lat": 40.6518, "lon": -74.1272, "charter": false, "level": "", "enrollment": 459, "teachers_fte": 29.0}, {"ncessch": "340126002722", "school_name": "Philip G. Vroom Community School", "city": "BAYONNE", "state": "NJ", "zip": "07002", "lat": 40.6666000000001, "lon": -74.1169, "charter": false, "level": "", "enrollment": 450, "teachers_fte": 38.0}, {"ncessch": "340126002728", "school_name": "Washington Community School #9", "city": "BAYONNE", "state": "NJ", "zip": "07002", "lat": 40.6838000000001, "lon": -74.1088, "charter": false, "level": "", "enrollment": 648, "teachers_fte": 60.0}, {"ncessch": "340126002730", "school_name": "Woodrow Wilson Community School", "city": "BAYONNE", "state": "NJ", "zip": "07002", "lat": 40.6887, "lon": -74.1031, "charter": false, "level": "", "enrollment": 727, "teachers_fte": 62.0}, {"ncessch": "340126003447", "school_name": "Bayonne Alternative High School", "city": "Bayonne", "state": "NJ", "zip": "07002", "lat": 40.6723860000001, "lon": -74.121237, "charter": false, "level": "", "enrollment": 180, "teachers_fte": 0.5}], "3401290": [{"ncessch": "340129004570", "school_name": "Beach Haven School", "city": "Beach Haven", "state": "NJ", "zip": "08008", "lat": 39.567439999, "lon": -74.235648, "charter": false, "level": "", "enrollment": 72, "teachers_fte": 11.0}], "3401320": [{"ncessch": "340132005120", "school_name": "Bedminster Township Public School", "city": "Bedminster", "state": "NJ", "zip": "07921", "lat": 40.6781, "lon": -74.6435, "charter": false, "level": "", "enrollment": 452, "teachers_fte": 53.8699989318848}], "3401350": [{"ncessch": "340135001954", "school_name": "Belleville High School", "city": "BELLEVILLE", "state": "NJ", "zip": "07109", "lat": 40.803299999, "lon": -74.162, "charter": false, "level": "", "enrollment": 1499, "teachers_fte": 120.0}, {"ncessch": "340135001956", "school_name": "Belleville Middle School", "city": "BELLEVILLE", "state": "NJ", "zip": "07109", "lat": 40.790699999, "lon": -74.152, "charter": false, "level": "", "enrollment": 671, "teachers_fte": 59.5}, {"ncessch": "340135001962", "school_name": "Belleville PS3", "city": "BELLEVILLE", "state": "NJ", "zip": "07109", "lat": 40.7951, "lon": -74.155600001, "charter": false, "level": "", "enrollment": 352, "teachers_fte": 27.0}, {"ncessch": "340135001964", "school_name": "Belleville PS4", "city": "BELLEVILLE", "state": "NJ", "zip": "07109", "lat": 40.7818790000001, "lon": -74.180108, "charter": false, "level": "", "enrollment": 452, "teachers_fte": 36.0}, {"ncessch": "340135001966", "school_name": "Belleville PS5", "city": "BELLEVILLE", "state": "NJ", "zip": "07109", "lat": 40.8028, "lon": -74.1563, "charter": false, "level": "", "enrollment": 397, "teachers_fte": 26.0}, {"ncessch": "340135001968", "school_name": "Belleville PS7", "city": "BELLEVILLE", "state": "NJ", "zip": "07109", "lat": 40.8012000000001, "lon": -74.163500001, "charter": false, "level": "", "enrollment": 446, "teachers_fte": 34.0}, {"ncessch": "340135001970", "school_name": "Belleville PS8", "city": "BELLEVILLE", "state": "NJ", "zip": "07109", "lat": 40.7903000000001, "lon": -74.1584999999999, "charter": false, "level": "", "enrollment": 494, "teachers_fte": 29.0}, {"ncessch": "340135001972", "school_name": "Belleville PS9", "city": "BELLEVILLE", "state": "NJ", "zip": "07109", "lat": 40.7979, "lon": -74.1433999989999, "charter": false, "level": "", "enrollment": 126, "teachers_fte": 8.0}, {"ncessch": "340135001974", "school_name": "Belleville PS10", "city": "BELLEVILLE", "state": "NJ", "zip": "07109", "lat": 40.7934000000001, "lon": -74.1717, "charter": false, "level": "", "enrollment": 170, "teachers_fte": 9.0}, {"ncessch": "340135003499", "school_name": "Hornblower Early Edudcation Elementary Sch", "city": "Belleville", "state": "NJ", "zip": "07109", "lat": 40.7889300000001, "lon": -74.147591, "charter": false, "level": "", "enrollment": 261, "teachers_fte": 20.0}], "3401380": [{"ncessch": "340138001316", "school_name": "Bell Oaks Upper Elementary School", "city": "BELLMAWR", "state": "NJ", "zip": "08031", "lat": 39.870399999, "lon": -75.0907999999999, "charter": false, "level": "", "enrollment": 457, "teachers_fte": 40.0}, {"ncessch": "340138001318", "school_name": "Bellmawr Park Elementary School", "city": "BELLMAWR", "state": "NJ", "zip": "08031", "lat": 39.8694, "lon": -75.104300001, "charter": false, "level": "", "enrollment": 463, "teachers_fte": 39.0}, {"ncessch": "340138001320", "school_name": "Ethel M Burke Elementary School", "city": "BELLMAWR", "state": "NJ", "zip": "08031", "lat": 39.8647, "lon": -75.0794, "charter": false, "level": "", "enrollment": 236, "teachers_fte": 25.0}], "3401410": [{"ncessch": "340141003750", "school_name": "Belmar Elementary", "city": "BELMAR", "state": "NJ", "zip": "07719", "lat": 40.1781360000001, "lon": -74.0269079999999, "charter": false, "level": "", "enrollment": 394, "teachers_fte": 54.9900016784668}], "3401440": [{"ncessch": "340144005794", "school_name": "Belvidere High School", "city": "BELVIDERE", "state": "NJ", "zip": "07823", "lat": 40.8246, "lon": -75.065900001, "charter": false, "level": "", "enrollment": 346, "teachers_fte": 32.5}, {"ncessch": "340144005796", "school_name": "Belvidere Elementary School", "city": "BELVIDERE", "state": "NJ", "zip": "07823", "lat": 40.8249000000001, "lon": -75.0672, "charter": false, "level": "", "enrollment": 256, "teachers_fte": 30.6000003814697}], "3401450": [{"ncessch": "340145000073", "school_name": "Autistic", "city": "Paramus", "state": "NJ", "zip": "07652", "lat": 40.956152, "lon": -74.057814, "charter": false, "level": "", "enrollment": 201, "teachers_fte": 57.0}, {"ncessch": "340145000234", "school_name": "Hearing Impaired", "city": "Paramus", "state": "NJ", "zip": "07652", "lat": 40.956152, "lon": -74.057814, "charter": false, "level": "", "enrollment": 141, "teachers_fte": 23.0}, {"ncessch": "340145000238", "school_name": "Emotionally Disturbed", "city": "Paramus", "state": "NJ", "zip": "07652", "lat": 40.956152, "lon": -74.057814, "charter": false, "level": "", "enrollment": 111, "teachers_fte": 20.0}, {"ncessch": "340145000240", "school_name": "Life Skills", "city": "Paramus", "state": "NJ", "zip": "07652", "lat": 40.956152, "lon": -74.057814, "charter": false, "level": "", "enrollment": 69, "teachers_fte": 10.0}, {"ncessch": "340145005978", "school_name": "N. A. Bleshman Regional Day School", "city": "PARAMUS", "state": "NJ", "zip": "07652", "lat": 40.957812, "lon": -74.0560409999999, "charter": false, "level": "", "enrollment": 76, "teachers_fte": 12.0}, {"ncessch": "340145006020", "school_name": "Multiply Handicapped", "city": "Paramus", "state": "NJ", "zip": "07652", "lat": 40.956152, "lon": -74.057814, "charter": false, "level": "", "enrollment": 47, "teachers_fte": 7.0}], "3401470": [{"ncessch": "340147000250", "school_name": "Bergen County Academies", "city": "Hackensack", "state": "NJ", "zip": "07601", "lat": 40.9019000000001, "lon": -74.0339999999999, "charter": false, "level": "", "enrollment": 1116, "teachers_fte": 93.5999984741211}, {"ncessch": "340147000252", "school_name": "Bergen County Technical High School - Paramus", "city": "Paramus", "state": "NJ", "zip": "07652", "lat": 40.957927, "lon": -74.058905, "charter": false, "level": "", "enrollment": 286, "teachers_fte": 47.5}, {"ncessch": "340147000262", "school_name": "Bergen County Technical High School - Teterboro", "city": "Teterboro", "state": "NJ", "zip": "07608", "lat": 40.8606280000001, "lon": -74.054703001, "charter": false, "level": "", "enrollment": 675, "teachers_fte": 68.0}, {"ncessch": "340147000264", "school_name": "Bergen County Technical High School - Paramus", "city": "Paramus", "state": "NJ", "zip": "07652", "lat": 40.957927, "lon": -74.058905, "charter": false, "level": "", "enrollment": 30, "teachers_fte": 16.5}, {"ncessch": "340147003341", "school_name": "Applied Technology High School", "city": "Paramus", "state": "NJ", "zip": "07652", "lat": 40.951576, "lon": -74.088613, "charter": false, "level": "", "enrollment": 301, "teachers_fte": 18.0}, {"ncessch": "340147003543", "school_name": "Bergen County Institute for Science and Technology", "city": "Demarest", "state": "NJ", "zip": "07627", "lat": 40.9635210000001, "lon": -73.973195, "charter": false, "level": "", "enrollment": 157, "teachers_fte": 3.0}], "3401500": [{"ncessch": "340150000268", "school_name": "Bergenfield High School", "city": "BERGENFIELD", "state": "NJ", "zip": "07621", "lat": 40.9251, "lon": -74.0074, "charter": false, "level": "", "enrollment": 1224, "teachers_fte": 106.099998474121}, {"ncessch": "340150000270", "school_name": "Franklin Elementary School", "city": "BERGENFIELD", "state": "NJ", "zip": "07621", "lat": 40.9284999990001, "lon": -74.0038, "charter": false, "level": "", "enrollment": 346, "teachers_fte": 22.8999996185303}, {"ncessch": "340150000272", "school_name": "Hoover Elementary School", "city": "BERGENFIELD", "state": "NJ", "zip": "07621", "lat": 40.914200001, "lon": -73.9934, "charter": false, "level": "", "enrollment": 263, "teachers_fte": 24.2999992370605}, {"ncessch": "340150000274", "school_name": "Jefferson Elementary School", "city": "BERGENFIELD", "state": "NJ", "zip": "07621", "lat": 40.9321, "lon": -73.987, "charter": false, "level": "", "enrollment": 284, "teachers_fte": 17.5}, {"ncessch": "340150000276", "school_name": "Lincoln Elementary School", "city": "BERGENFIELD", "state": "NJ", "zip": "07621", "lat": 40.9172, "lon": -74.0072, "charter": false, "level": "", "enrollment": 406, "teachers_fte": 29.8999996185303}, {"ncessch": "340150000278", "school_name": "Roy W. Brown Middle School", "city": "BERGENFIELD", "state": "NJ", "zip": "07621", "lat": 40.9232000000001, "lon": -73.9979999999999, "charter": false, "level": "", "enrollment": 840, "teachers_fte": 65.4000015258789}, {"ncessch": "340150000280", "school_name": "Washington Elementary School", "city": "BERGENFIELD", "state": "NJ", "zip": "07621", "lat": 40.926299999, "lon": -73.993000001, "charter": false, "level": "", "enrollment": 255, "teachers_fte": 21.3999996185303}], "3401530": [{"ncessch": "340153000201", "school_name": "Governor Livingston High School", "city": "BERKELEY HEIGHTS", "state": "NJ", "zip": "07922", "lat": 40.6872000000001, "lon": -74.3866, "charter": false, "level": "", "enrollment": 936, "teachers_fte": 88.2399978637695}, {"ncessch": "340153000203", "school_name": "Mary Kay McMillin Early Childhood Center", "city": "BERKELEY HEIGHTS", "state": "NJ", "zip": "07922", "lat": 40.6696000000001, "lon": -74.4361, "charter": false, "level": "", "enrollment": 241, "teachers_fte": 23.75}, {"ncessch": "340153005434", "school_name": "Thomas P. Hughes School", "city": "BERKELEY HTS", "state": "NJ", "zip": "07922", "lat": 40.677100001, "lon": -74.428999999, "charter": false, "level": "", "enrollment": 276, "teachers_fte": 24.1700000762939}, {"ncessch": "340153005436", "school_name": "Columbia Middle School", "city": "BERKELEY HTS", "state": "NJ", "zip": "07922", "lat": 40.6769, "lon": -74.440500001, "charter": false, "level": "", "enrollment": 560, "teachers_fte": 52.4000015258789}, {"ncessch": "340153005440", "school_name": "Mountain Park School", "city": "BERKELEY HTS", "state": "NJ", "zip": "07922", "lat": 40.6681, "lon": -74.4514, "charter": false, "level": "", "enrollment": 223, "teachers_fte": 26.0}, {"ncessch": "340153005442", "school_name": "William Woodruff School", "city": "BERKELEY HTS", "state": "NJ", "zip": "07922", "lat": 40.6881000010001, "lon": -74.4322999999999, "charter": false, "level": "", "enrollment": 234, "teachers_fte": 17.5799999237061}], "3401560": [{"ncessch": "340156004574", "school_name": "Bayville Elementary School", "city": "BAYVILLE", "state": "NJ", "zip": "08721", "lat": 39.9178000000001, "lon": -74.1588, "charter": false, "level": "", "enrollment": 506, "teachers_fte": 45.5}, {"ncessch": "340156004576", "school_name": "Clara B. Worth Elementary School", "city": "BAYVILLE", "state": "NJ", "zip": "08721", "lat": 39.89, "lon": -74.1643, "charter": false, "level": "", "enrollment": 702, "teachers_fte": 56.5}, {"ncessch": "340156004578", "school_name": "H & M Potter School", "city": "BAYVILLE", "state": "NJ", "zip": "08721", "lat": 39.9143999990001, "lon": -74.1453999999999, "charter": false, "level": "", "enrollment": 632, "teachers_fte": 54.5}, {"ncessch": "340156006125", "school_name": "Berkeley Township Elementary School", "city": "BAYVILLE", "state": "NJ", "zip": "08721", "lat": 39.9011290010001, "lon": -74.158605, "charter": false, "level": "", "enrollment": 587, "teachers_fte": 52.5}], "3401590": [{"ncessch": "340159001324", "school_name": "Berlin Community School", "city": "BERLIN", "state": "NJ", "zip": "08009", "lat": 39.7972, "lon": -74.9482, "charter": false, "level": "", "enrollment": 770, "teachers_fte": 75.5999984741211}], "3401620": [{"ncessch": "340162001328", "school_name": "Dwight D Eisenhower Middle School", "city": "West Berlin", "state": "NJ", "zip": "08091", "lat": 39.8151960000001, "lon": -74.932847999, "charter": false, "level": "", "enrollment": 258, "teachers_fte": 30.0}, {"ncessch": "340162001332", "school_name": "John F Kennedy Elementary School", "city": "West Berlin", "state": "NJ", "zip": "08091", "lat": 39.813999999, "lon": -74.935100001, "charter": false, "level": "", "enrollment": 349, "teachers_fte": 28.0}], "3401650": [{"ncessch": "340165000355", "school_name": "Mount Prospect Elementary School", "city": "Basking Ridge", "state": "NJ", "zip": "07920", "lat": 40.6562000000001, "lon": -74.6227, "charter": false, "level": "", "enrollment": 539, "teachers_fte": 55.2999992370605}, {"ncessch": "340165005124", "school_name": "Ridge High School", "city": "Basking Ridge", "state": "NJ", "zip": "07920", "lat": 40.6942000000001, "lon": -74.5470999999999, "charter": false, "level": "", "enrollment": 1682, "teachers_fte": 147.899993896484}, {"ncessch": "340165005126", "school_name": "William Annin Middle School", "city": "Basking Ridge", "state": "NJ", "zip": "07920", "lat": 40.682199999, "lon": -74.5658, "charter": false, "level": "", "enrollment": 1131, "teachers_fte": 114.599998474121}, {"ncessch": "340165005128", "school_name": "Oak Street School", "city": "Basking Ridge", "state": "NJ", "zip": "07920", "lat": 40.705000001, "lon": -74.5522999999999, "charter": false, "level": "", "enrollment": 413, "teachers_fte": 38.5}, {"ncessch": "340165005132", "school_name": "Liberty Corner School", "city": "Liberty Corner", "state": "NJ", "zip": "07938", "lat": 40.6665, "lon": -74.5827, "charter": false, "level": "", "enrollment": 447, "teachers_fte": 40.5}, {"ncessch": "340165006021", "school_name": "Cedar Hill School", "city": "Basking Ridge", "state": "NJ", "zip": "07920", "lat": 40.6918000000001, "lon": -74.5472, "charter": false, "level": "", "enrollment": 520, "teachers_fte": 46.5}], "3401710": [{"ncessch": "340171002958", "school_name": "Ethel Hoppock Middle School", "city": "ASBURY", "state": "NJ", "zip": "08802", "lat": 40.6645, "lon": -75.033299999, "charter": false, "level": "", "enrollment": 130, "teachers_fte": 13.0}, {"ncessch": "340171005895", "school_name": "Thomas B. Conley Elementary School", "city": "ASBURY", "state": "NJ", "zip": "08802", "lat": 40.6837, "lon": -74.9922999999999, "charter": false, "level": "", "enrollment": 225, "teachers_fte": 19.0}], "3401740": [{"ncessch": "340174000952", "school_name": "Beverly City School District", "city": "BEVERLY", "state": "NJ", "zip": "08010", "lat": 40.0607000000001, "lon": -74.9229, "charter": false, "level": "", "enrollment": 343, "teachers_fte": 36.0}], "3401770": [{"ncessch": "340177000425", "school_name": "Timber Creek Regional High School", "city": "ERIAL", "state": "NJ", "zip": "08081", "lat": 39.7617999990001, "lon": -75.0176999999999, "charter": false, "level": "", "enrollment": 1166, "teachers_fte": 90.7900009155273}, {"ncessch": "340177001336", "school_name": "Highland Regional High School", "city": "BLACKWOOD", "state": "NJ", "zip": "08012", "lat": 39.8019, "lon": -75.0502, "charter": false, "level": "", "enrollment": 1204, "teachers_fte": 96.4800033569336}, {"ncessch": "340177001338", "school_name": "Triton Regional High School", "city": "RUNNEMEDE", "state": "NJ", "zip": "08078", "lat": 39.8501000000001, "lon": -75.0633999999999, "charter": false, "level": "", "enrollment": 1132, "teachers_fte": 95.3199996948242}], "3401800": [{"ncessch": "340180005800", "school_name": "Blairstown Elementary School", "city": "BLAIRSTOWN", "state": "NJ", "zip": "07825", "lat": 40.9825000000001, "lon": -74.9540000009999, "charter": false, "level": "", "enrollment": 430, "teachers_fte": 44.6800003051758}], "3401830": [{"ncessch": "340183000133", "school_name": "The Early Childhood Center @ Forest Glen", "city": "Bloomfield", "state": "NJ", "zip": "07003", "lat": 40.8054000010001, "lon": -74.1822, "charter": false, "level": "", "enrollment": 182, "teachers_fte": 9.0}, {"ncessch": "340183001980", "school_name": "Bloomfield High School", "city": "Bloomfield", "state": "NJ", "zip": "07003", "lat": 40.7996000000001, "lon": -74.1974999999999, "charter": false, "level": "", "enrollment": 2029, "teachers_fte": 168.5}, {"ncessch": "340183001982", "school_name": "Bloomfield Middle School", "city": "Bloomfield", "state": "NJ", "zip": "07003", "lat": 40.8245000000001, "lon": -74.1842, "charter": false, "level": "", "enrollment": 965, "teachers_fte": 84.0}, {"ncessch": "340183001986", "school_name": "Berkeley Elementary School", "city": "Bloomfield", "state": "NJ", "zip": "07003", "lat": 40.7861, "lon": -74.1931999999999, "charter": false, "level": "", "enrollment": 451, "teachers_fte": 43.0}, {"ncessch": "340183001988", "school_name": "Brookdale Elementary School", "city": "Bloomfield", "state": "NJ", "zip": "07003", "lat": 40.8329000000001, "lon": -74.1822, "charter": false, "level": "", "enrollment": 316, "teachers_fte": 30.5}, {"ncessch": "340183001992", "school_name": "Carteret Elementary School", "city": "Bloomfield", "state": "NJ", "zip": "07003", "lat": 40.7782999990001, "lon": -74.1903, "charter": false, "level": "", "enrollment": 373, "teachers_fte": 36.5}, {"ncessch": "340183001994", "school_name": "Demarest Elementary School", "city": "Bloomfield", "state": "NJ", "zip": "07003", "lat": 40.824300001, "lon": -74.1782000009999, "charter": false, "level": "", "enrollment": 470, "teachers_fte": 42.4000015258789}, {"ncessch": "340183001996", "school_name": "Fairview Elementary School", "city": "Bloomfield", "state": "NJ", "zip": "07003", "lat": 40.7933, "lon": -74.1863000009999, "charter": false, "level": "", "enrollment": 493, "teachers_fte": 42.5}, {"ncessch": "340183002000", "school_name": "Franklin Elementary School", "city": "Bloomfield", "state": "NJ", "zip": "07003", "lat": 40.8086000000001, "lon": -74.1854999999999, "charter": false, "level": "", "enrollment": 345, "teachers_fte": 34.0}, {"ncessch": "340183002002", "school_name": "Oak View Elementary School", "city": "Bloomfield", "state": "NJ", "zip": "07003", "lat": 40.8380000000001, "lon": -74.1733, "charter": false, "level": "", "enrollment": 335, "teachers_fte": 30.6000003814697}, {"ncessch": "340183002004", "school_name": "Watsessing Elementary School", "city": "Bloomfield", "state": "NJ", "zip": "07003", "lat": 40.7856, "lon": -74.2037999999999, "charter": false, "level": "", "enrollment": 305, "teachers_fte": 32.0}], "3401860": [{"ncessch": "340186004754", "school_name": "Martha B. Day Elementary School", "city": "BLOOMINGDALE", "state": "NJ", "zip": "07403", "lat": 41.0164, "lon": -74.3201, "charter": false, "level": "", "enrollment": 203, "teachers_fte": 19.0499992370605}, {"ncessch": "340186004756", "school_name": "Samuel R. Donald Elementary School", "city": "BLOOMINGDALE", "state": "NJ", "zip": "07403", "lat": 41.0048689990001, "lon": -74.333533001, "charter": false, "level": "", "enrollment": 188, "teachers_fte": 19.0}, {"ncessch": "340186004758", "school_name": "Walter T. Bergen Middle School", "city": "BLOOMINGDALE", "state": "NJ", "zip": "07403", "lat": 41.0205, "lon": -74.3384, "charter": false, "level": "", "enrollment": 224, "teachers_fte": 21.9500007629395}], "3401890": [{"ncessch": "340189002960", "school_name": "Bloomsbury Borough School", "city": "Bloomsbury", "state": "NJ", "zip": "08804", "lat": 40.6545, "lon": -75.0866, "charter": false, "level": "", "enrollment": 96, "teachers_fte": 15.3999996185303}], "3401920": [{"ncessch": "340192000284", "school_name": "Bogota Jr./Sr. High School", "city": "BOGOTA", "state": "NJ", "zip": "07603", "lat": 40.8777000000001, "lon": -74.023, "charter": false, "level": "", "enrollment": 442, "teachers_fte": 37.5999984741211}, {"ncessch": "340192000286", "school_name": "E. Roy Bixby", "city": "BOGOTA", "state": "NJ", "zip": "07603", "lat": 40.8691000000001, "lon": -74.0269, "charter": false, "level": "", "enrollment": 293, "teachers_fte": 28.0}, {"ncessch": "340192000290", "school_name": "Lillian M. Steen", "city": "BOGOTA", "state": "NJ", "zip": "07603", "lat": 40.8782439990001, "lon": -74.032627001, "charter": false, "level": "", "enrollment": 326, "teachers_fte": 25.0}, {"ncessch": "340192003525", "school_name": "Bogota Middle School", "city": "Bogota", "state": "NJ", "zip": "07603", "lat": 40.874877, "lon": -74.0246759999999, "charter": false, "level": "", "enrollment": 197, "teachers_fte": 12.5}], "3401950": [{"ncessch": "340195004154", "school_name": "Boonton High School", "city": "BOONTON", "state": "NJ", "zip": "07005", "lat": 40.9027, "lon": -74.403999999, "charter": false, "level": "", "enrollment": 662, "teachers_fte": 61.5999984741211}, {"ncessch": "340195004156", "school_name": "John Hill School", "city": "BOONTON", "state": "NJ", "zip": "07005", "lat": 40.9008000000001, "lon": -74.4018, "charter": false, "level": "", "enrollment": 530, "teachers_fte": 60.4900016784668}, {"ncessch": "340195004158", "school_name": "School Street School", "city": "BOONTON", "state": "NJ", "zip": "07005", "lat": 40.907, "lon": -74.412499999, "charter": false, "level": "", "enrollment": 298, "teachers_fte": 23.0}], "3401980": [{"ncessch": "340198004162", "school_name": "Rockaway Valley School", "city": "BOONTON TOWNSHIP", "state": "NJ", "zip": "07005", "lat": 40.9243000000001, "lon": -74.430799999, "charter": false, "level": "", "enrollment": 386, "teachers_fte": 40.5}], "3402030": [{"ncessch": "340203000801", "school_name": "Bordentown Regional Middle School", "city": "BORDENTOWN", "state": "NJ", "zip": "08505", "lat": 40.131557, "lon": -74.713703, "charter": false, "level": "", "enrollment": 531, "teachers_fte": 45.75}, {"ncessch": "340203000960", "school_name": "Bordentown Regional High School", "city": "BORDENTOWN", "state": "NJ", "zip": "08505", "lat": 40.154053, "lon": -74.684720001, "charter": false, "level": "", "enrollment": 763, "teachers_fte": 56.0}, {"ncessch": "340203005925", "school_name": "Clara Barton Elementary", "city": "BORDENTOWN", "state": "NJ", "zip": "08505", "lat": 40.1457, "lon": -74.7076, "charter": false, "level": "", "enrollment": 216, "teachers_fte": 19.0}, {"ncessch": "340203005926", "school_name": "Mac Farland Intermediate", "city": "BORDENTOWN", "state": "NJ", "zip": "08505", "lat": 40.1468, "lon": -74.7077, "charter": false, "level": "", "enrollment": 241, "teachers_fte": 27.25}, {"ncessch": "340203005927", "school_name": "Peter Muschal Elementary", "city": "BORDENTOWN", "state": "NJ", "zip": "08505", "lat": 40.1515000000001, "lon": -74.6852, "charter": false, "level": "", "enrollment": 480, "teachers_fte": 50.0}], "3402100": [{"ncessch": "340210000790", "school_name": "LaMonte-Annex Elementary School", "city": "Bound Brook", "state": "NJ", "zip": "08805", "lat": 40.5635330000001, "lon": -74.541534, "charter": false, "level": "", "enrollment": 235, "teachers_fte": 27.0}, {"ncessch": "340210003331", "school_name": "Smalley Elementary School", "city": "Bound Brook", "state": "NJ", "zip": "08805", "lat": 40.5704509990001, "lon": -74.538686, "charter": false, "level": "", "enrollment": 536, "teachers_fte": 52.9000015258789}, {"ncessch": "340210003340", "school_name": "Community Middle School", "city": "Bound Brook", "state": "NJ", "zip": "08805", "lat": 40.5626340000001, "lon": -74.532583, "charter": false, "level": "", "enrollment": 285, "teachers_fte": 26.0}, {"ncessch": "340210003360", "school_name": "Lafayette Elementary School", "city": "Bound Brook", "state": "NJ", "zip": "08805", "lat": 40.564402999, "lon": -74.5367239999999, "charter": false, "level": "", "enrollment": 250, "teachers_fte": 29.1000003814697}, {"ncessch": "340210005144", "school_name": "Bound Brook High School", "city": "Bound Brook", "state": "NJ", "zip": "08805", "lat": 40.567618001, "lon": -74.536458, "charter": false, "level": "", "enrollment": 677, "teachers_fte": 50.0}], "3402130": [{"ncessch": "340213003752", "school_name": "Bradley Beach Elementary School", "city": "BRADLEY BEACH", "state": "NJ", "zip": "07720", "lat": 40.2024000000001, "lon": -74.0157, "charter": false, "level": "", "enrollment": 205, "teachers_fte": 36.7999992370605}], "3402160": [{"ncessch": "340216000199", "school_name": "Whiton Elementary School", "city": "Neshanic Station", "state": "NJ", "zip": "08853", "lat": 40.5451, "lon": -74.7223999999999, "charter": false, "level": "", "enrollment": 587, "teachers_fte": 61.0}, {"ncessch": "340216005154", "school_name": "Branchburg Central Middle School", "city": "Branchburg", "state": "NJ", "zip": "08876", "lat": 40.5740000000001, "lon": -74.7137, "charter": false, "level": "", "enrollment": 410, "teachers_fte": 52.5}, {"ncessch": "340216005158", "school_name": "Stony Brook School", "city": "Branchburg", "state": "NJ", "zip": "08876", "lat": 40.5770000000001, "lon": -74.6989, "charter": false, "level": "", "enrollment": 286, "teachers_fte": 41.0}], "3402220": [{"ncessch": "340222000166", "school_name": "Warren H. Wolf Early Childhood Development Center", "city": "BRICK", "state": "NJ", "zip": "08723", "lat": 40.068402, "lon": -74.148707999, "charter": false, "level": "", "enrollment": 323, "teachers_fte": 25.5}, {"ncessch": "340222004582", "school_name": "Brick Township High School", "city": "BRICK TOWN", "state": "NJ", "zip": "08723", "lat": 40.0732, "lon": -74.153200001, "charter": false, "level": "", "enrollment": 1267, "teachers_fte": 101.5}, {"ncessch": "340222004584", "school_name": "Drum Point Road Elementary School", "city": "BRICK TOWN", "state": "NJ", "zip": "08723", "lat": 40.0447, "lon": -74.139, "charter": false, "level": "", "enrollment": 466, "teachers_fte": 37.2000007629395}, {"ncessch": "340222004586", "school_name": "Emma Havens Young Elementary School", "city": "BRICK", "state": "NJ", "zip": "08723", "lat": 40.043399999, "lon": -74.1374, "charter": false, "level": "", "enrollment": 756, "teachers_fte": 61.0999984741211}, {"ncessch": "340222004588", "school_name": "Herbertsville Early Childhood Development Center", "city": "BRICK", "state": "NJ", "zip": "08724", "lat": 40.1119, "lon": -74.112199999, "charter": false, "level": "", "enrollment": 186, "teachers_fte": 16.5}, {"ncessch": "340222004590", "school_name": "Lake Riviera Middle School", "city": "BRICK", "state": "NJ", "zip": "08723", "lat": 40.0287000000001, "lon": -74.1573999999999, "charter": false, "level": "", "enrollment": 908, "teachers_fte": 79.25}, {"ncessch": "340222004592", "school_name": "Lanes Mill Elementary School", "city": "BRICK", "state": "NJ", "zip": "08724", "lat": 40.1015, "lon": -74.134, "charter": false, "level": "", "enrollment": 581, "teachers_fte": 47.5}, {"ncessch": "340222004596", "school_name": "Midstreams Elementary School", "city": "BRICK TOWN", "state": "NJ", "zip": "08724", "lat": 40.0681000000001, "lon": -74.1000999999999, "charter": false, "level": "", "enrollment": 545, "teachers_fte": 43.9000015258789}, {"ncessch": "340222004598", "school_name": "Osbornville Elementary School", "city": "BRICK", "state": "NJ", "zip": "08723", "lat": 40.0445, "lon": -74.1231, "charter": false, "level": "", "enrollment": 432, "teachers_fte": 40.9000015258789}, {"ncessch": "340222004600", "school_name": "Veterans Memorial Elementary School", "city": "BRICK", "state": "NJ", "zip": "08724", "lat": 40.0842000000001, "lon": -74.1167, "charter": false, "level": "", "enrollment": 618, "teachers_fte": 55.2000007629395}, {"ncessch": "340222004602", "school_name": "Veterans Memorial Middle School", "city": "BRICK TOWN", "state": "NJ", "zip": "08724", "lat": 40.0833000000001, "lon": -74.1184, "charter": false, "level": "", "enrollment": 871, "teachers_fte": 81.0}, {"ncessch": "340222005896", "school_name": "Brick Township Memorial High School", "city": "BRICK", "state": "NJ", "zip": "08724", "lat": 40.1043000000001, "lon": -74.129000001, "charter": false, "level": "", "enrollment": 1320, "teachers_fte": 98.3300018310547}], "3402250": [{"ncessch": "340225000581", "school_name": "Geraldine O Foster Early Childhood Center", "city": "BRIDGETON", "state": "NJ", "zip": "08302", "lat": 39.423599999, "lon": -75.2150999999999, "charter": false, "level": "", "enrollment": 582, "teachers_fte": 32.0}, {"ncessch": "340225001784", "school_name": "Bridgeton High School", "city": "BRIDGETON", "state": "NJ", "zip": "08302", "lat": 39.438, "lon": -75.2449, "charter": false, "level": "", "enrollment": 1681, "teachers_fte": 109.0}, {"ncessch": "340225001786", "school_name": "Broad Street School", "city": "BRIDGETON", "state": "NJ", "zip": "08302", "lat": 39.4308, "lon": -75.2452, "charter": false, "level": "", "enrollment": 773, "teachers_fte": 79.5}, {"ncessch": "340225001788", "school_name": "Buckshutem Road School", "city": "BRIDGETON", "state": "NJ", "zip": "08302", "lat": 39.423599999, "lon": -75.214999999, "charter": false, "level": "", "enrollment": 624, "teachers_fte": 43.0}, {"ncessch": "340225001790", "school_name": "Cherry Street School", "city": "BRIDGETON", "state": "NJ", "zip": "08302", "lat": 39.4191000000001, "lon": -75.2205999999999, "charter": false, "level": "", "enrollment": 532, "teachers_fte": 42.5}, {"ncessch": "340225001794", "school_name": "Indian Ave School", "city": "BRIDGETON", "state": "NJ", "zip": "08302", "lat": 39.4406000000001, "lon": -75.218, "charter": false, "level": "", "enrollment": 604, "teachers_fte": 47.5}, {"ncessch": "340225001800", "school_name": "Quarter Mile Lane School", "city": "BRIDGETON", "state": "NJ", "zip": "08302", "lat": 39.4199, "lon": -75.2490999999999, "charter": false, "level": "", "enrollment": 699, "teachers_fte": 56.5}, {"ncessch": "340225001804", "school_name": "West Avenue School", "city": "BRIDGETON", "state": "NJ", "zip": "08302", "lat": 39.4343000000001, "lon": -75.2454, "charter": false, "level": "", "enrollment": 642, "teachers_fte": 57.5}], "3402280": [{"ncessch": "340228000173", "school_name": "Bridgewater-Raritan High School", "city": "Bridgewater", "state": "NJ", "zip": "08807", "lat": 40.5928280000001, "lon": -74.633368, "charter": false, "level": "", "enrollment": 2711, "teachers_fte": 224.699996948242}, {"ncessch": "340228005162", "school_name": "Bridgewater-Raritan Middle School", "city": "Bridgewater", "state": "NJ", "zip": "08807", "lat": 40.581897, "lon": -74.5868189999999, "charter": false, "level": "", "enrollment": 1347, "teachers_fte": 123.800003051758}, {"ncessch": "340228005166", "school_name": "Adamsville Primary School", "city": "Bridgewater", "state": "NJ", "zip": "08807", "lat": 40.569336999, "lon": -74.581580999, "charter": false, "level": "", "enrollment": 490, "teachers_fte": 56.9000015258789}, {"ncessch": "340228005168", "school_name": "Bradley Gardens Primary School", "city": "Bridgewater", "state": "NJ", "zip": "08807", "lat": 40.5627679990001, "lon": -74.663485001, "charter": false, "level": "", "enrollment": 255, "teachers_fte": 25.7000007629395}, {"ncessch": "340228005170", "school_name": "Crim Primary School", "city": "Bridgewater", "state": "NJ", "zip": "08807", "lat": 40.6131300000001, "lon": -74.5911359999999, "charter": false, "level": "", "enrollment": 391, "teachers_fte": 38.2999992370605}, {"ncessch": "340228005172", "school_name": "Eisenhower Intermediate School", "city": "Bridgewater", "state": "NJ", "zip": "08807", "lat": 40.6152680000001, "lon": -74.648739, "charter": false, "level": "", "enrollment": 627, "teachers_fte": 61.7000007629395}, {"ncessch": "340228005178", "school_name": "Hillside Intermediate School", "city": "Bridgewater", "state": "NJ", "zip": "08807", "lat": 40.6278990000001, "lon": -74.628817, "charter": false, "level": "", "enrollment": 555, "teachers_fte": 53.4000015258789}, {"ncessch": "340228005180", "school_name": "John F. Kennedy Primary School", "city": "Raritan", "state": "NJ", "zip": "08869", "lat": 40.568636, "lon": -74.6484579999999, "charter": false, "level": "", "enrollment": 450, "teachers_fte": 49.5}, {"ncessch": "340228005186", "school_name": "Van Holten Primary School", "city": "Bridgewater", "state": "NJ", "zip": "08807", "lat": 40.6020150000001, "lon": -74.652137, "charter": false, "level": "", "enrollment": 314, "teachers_fte": 26.2000007629395}, {"ncessch": "340228006047", "school_name": "Hamilton Primary School", "city": "Basking Ridge", "state": "NJ", "zip": "07920", "lat": 40.637278, "lon": -74.614401, "charter": false, "level": "", "enrollment": 479, "teachers_fte": 38.0}, {"ncessch": "340228006126", "school_name": "Milltown Primary School", "city": "Bridgewater", "state": "NJ", "zip": "08807", "lat": 40.5981650000001, "lon": -74.672790999, "charter": false, "level": "", "enrollment": 362, "teachers_fte": 35.4000015258789}], "3402310": [{"ncessch": "340231003754", "school_name": "Brielle Elementary School", "city": "BRIELLE", "state": "NJ", "zip": "08730", "lat": 40.1117, "lon": -74.0606999999999, "charter": false, "level": "", "enrollment": 487, "teachers_fte": 55.0}], "3402340": [{"ncessch": "340234003479", "school_name": "Brigantine Community School", "city": "Brigantine", "state": "NJ", "zip": "08203", "lat": 39.411908, "lon": -74.364569, "charter": false, "level": "", "enrollment": 390, "teachers_fte": 59.2000007629395}], "3402370": [{"ncessch": "340237001340", "school_name": "Alice Costello Elementary School", "city": "BROOKLAWN", "state": "NJ", "zip": "08030", "lat": 39.8782, "lon": -75.1185, "charter": false, "level": "", "enrollment": 279, "teachers_fte": 31.7999992370605}], "3402400": [{"ncessch": "340240000044", "school_name": "Buena Regional High School", "city": "BUENA", "state": "NJ", "zip": "08310", "lat": 39.5369000000001, "lon": -74.9191, "charter": false, "level": "", "enrollment": 496, "teachers_fte": 44.6399993896484}, {"ncessch": "340240000046", "school_name": "Buena Regional Middle School", "city": "BUENA", "state": "NJ", "zip": "08310", "lat": 39.5379990000001, "lon": -74.914147, "charter": false, "level": "", "enrollment": 341, "teachers_fte": 40.0299987792969}, {"ncessch": "340240000048", "school_name": "Collings Lakes Elementary School", "city": "WILLIAMSTOWN", "state": "NJ", "zip": "08094", "lat": 39.5877, "lon": -74.8806999989999, "charter": false, "level": "", "enrollment": 208, "teachers_fte": 15.1599998474121}, {"ncessch": "340240000052", "school_name": "John C. Milanesi Elementary School", "city": "BUENA", "state": "NJ", "zip": "08310", "lat": 39.5064, "lon": -74.9107, "charter": false, "level": "", "enrollment": 202, "teachers_fte": 18.1599998474121}, {"ncessch": "340240003221", "school_name": "Dr. J.P. Cleary Elementary School", "city": "MINOTOLA", "state": "NJ", "zip": "08341", "lat": 39.5135000000001, "lon": -74.947700001, "charter": false, "level": "", "enrollment": 311, "teachers_fte": 22.0100002288818}], "3402430": [{"ncessch": "340243000966", "school_name": "Burlington City High School", "city": "BURLINGTON", "state": "NJ", "zip": "08016", "lat": 40.0703, "lon": -74.8516, "charter": false, "level": "", "enrollment": 813, "teachers_fte": 75.8000030517578}, {"ncessch": "340243000968", "school_name": "Captain James Lawrence Elementary School", "city": "BURLINGTON", "state": "NJ", "zip": "08016", "lat": 40.079100001, "lon": -74.8531, "charter": false, "level": "", "enrollment": 256, "teachers_fte": 22.2000007629395}, {"ncessch": "340243000974", "school_name": "Samuel Smith Elementary School", "city": "BURLINGTON", "state": "NJ", "zip": "08016", "lat": 40.0677000000001, "lon": -74.8613, "charter": false, "level": "", "enrollment": 302, "teachers_fte": 31.2000007629395}, {"ncessch": "340243000976", "school_name": "Wilbur Watts Intermediate School", "city": "BURLINGTON", "state": "NJ", "zip": "08016", "lat": 40.0735, "lon": -74.8579999999999, "charter": false, "level": "", "enrollment": 449, "teachers_fte": 42.2000007629395}], "3402440": [{"ncessch": "340244000121", "school_name": "Lumberton Campus", "city": "LUMBERTON", "state": "NJ", "zip": "08048", "lat": 39.932600001, "lon": -74.8522, "charter": false, "level": "", "enrollment": 41, "teachers_fte": 11.0}, {"ncessch": "340244000982", "school_name": "Westampton Campus", "city": "WESTAMPTON", "state": "NJ", "zip": "08060", "lat": 40.0163000000001, "lon": -74.8147999999999, "charter": false, "level": "", "enrollment": 396, "teachers_fte": 88.0}, {"ncessch": "340244003303", "school_name": "Burlington County Alternative High School", "city": "Mt. Laurel", "state": "NJ", "zip": "08054", "lat": 39.97182, "lon": -74.8992709999999, "charter": false, "level": "", "enrollment": 61, "teachers_fte": null}], "3402460": [{"ncessch": "340246000260", "school_name": "Fountain Woods Elementary School", "city": "BURLINGTON", "state": "NJ", "zip": "08016", "lat": 40.065616, "lon": -74.839017, "charter": false, "level": "", "enrollment": 969, "teachers_fte": 83.9000015258789}, {"ncessch": "340246001004", "school_name": "Burlington Township High School", "city": "BURLINGTON", "state": "NJ", "zip": "08016", "lat": 40.0641380000001, "lon": -74.835367, "charter": false, "level": "", "enrollment": 1187, "teachers_fte": 102.150001525879}, {"ncessch": "340246001010", "school_name": "B. Bernice Young Elementary School", "city": "BURLINGTON", "state": "NJ", "zip": "08016", "lat": 40.0774210010001, "lon": -74.8162580009999, "charter": false, "level": "", "enrollment": 577, "teachers_fte": 67.0}, {"ncessch": "340246002939", "school_name": "Burlington Township Middle School at Springside", "city": "BURLINGTON", "state": "NJ", "zip": "08016", "lat": 40.0565100000001, "lon": -74.841715, "charter": false, "level": "", "enrollment": 822, "teachers_fte": 79.6999969482422}], "3402490": [{"ncessch": "340249000996", "school_name": "Burlington County Institute of Technology - Westampton", "city": "Westampton", "state": "NJ", "zip": "08060", "lat": 40.019053, "lon": -74.8228559999999, "charter": false, "level": "", "enrollment": 1215, "teachers_fte": 83.75}, {"ncessch": "340249000998", "school_name": "Burlington County Institute of Technology - Medford", "city": "Medford", "state": "NJ", "zip": "08055", "lat": 39.8940000000001, "lon": -74.8038, "charter": false, "level": "", "enrollment": 821, "teachers_fte": 66.5}], "3402520": [{"ncessch": "340252004166", "school_name": "Butler High School", "city": "BUTLER", "state": "NJ", "zip": "07405", "lat": 40.998206, "lon": -74.3395189999999, "charter": false, "level": "", "enrollment": 480, "teachers_fte": 41.2999992370605}, {"ncessch": "340252004168", "school_name": "Aaron Decker School", "city": "BUTLER", "state": "NJ", "zip": "07405", "lat": 41.006600001, "lon": -74.3570999999999, "charter": false, "level": "", "enrollment": 366, "teachers_fte": 37.9000015258789}, {"ncessch": "340252004170", "school_name": "Richard Butler School", "city": "BUTLER", "state": "NJ", "zip": "07405", "lat": 40.996, "lon": -74.3382, "charter": false, "level": "", "enrollment": 298, "teachers_fte": 32.4799995422363}], "3402550": [{"ncessch": "340255000728", "school_name": "Byram Lakes Elementary School", "city": "STANHOPE", "state": "NJ", "zip": "07874", "lat": 40.9344, "lon": -74.703400001, "charter": false, "level": "", "enrollment": 453, "teachers_fte": 38.0}, {"ncessch": "340255005334", "school_name": "Byram Intermediate School", "city": "STANHOPE", "state": "NJ", "zip": "07874", "lat": 40.9354000000001, "lon": -74.7049, "charter": false, "level": "", "enrollment": 380, "teachers_fte": 35.0}], "3402580": [{"ncessch": "340258002008", "school_name": "James Caldwell High School", "city": "WEST CALDWELL", "state": "NJ", "zip": "07006", "lat": 40.841975, "lon": -74.2955699999999, "charter": false, "level": "", "enrollment": 789, "teachers_fte": 76.0}, {"ncessch": "340258002010", "school_name": "Grover Cleveland Middle School", "city": "CALDWELL", "state": "NJ", "zip": "07006", "lat": 40.8427840000001, "lon": -74.2838600009999, "charter": false, "level": "", "enrollment": 586, "teachers_fte": 50.0}, {"ncessch": "340258002014", "school_name": "Jefferson Elementary School", "city": "WEST CALDWELL", "state": "NJ", "zip": "07006", "lat": 40.8405410010001, "lon": -74.28894, "charter": false, "level": "", "enrollment": 272, "teachers_fte": 25.0}, {"ncessch": "340258002016", "school_name": "Lincoln Elementary School", "city": "CALDWELL", "state": "NJ", "zip": "07006", "lat": 40.836639, "lon": -74.269899, "charter": false, "level": "", "enrollment": 259, "teachers_fte": 21.0}, {"ncessch": "340258002020", "school_name": "Washington Elementary School", "city": "WEST CALDWELL", "state": "NJ", "zip": "07006", "lat": 40.853255, "lon": -74.2770149999999, "charter": false, "level": "", "enrollment": 391, "teachers_fte": 28.5}, {"ncessch": "340258002022", "school_name": "Wilson Elementary School", "city": "WEST CALDWELL", "state": "NJ", "zip": "07006", "lat": 40.8365660010001, "lon": -74.302972, "charter": false, "level": "", "enrollment": 233, "teachers_fte": 22.8999996185303}, {"ncessch": "340258003425", "school_name": "Harrison School", "city": "West Caldwell", "state": "NJ", "zip": "07006", "lat": 40.8498750000001, "lon": -74.285565, "charter": false, "level": "", "enrollment": 30, "teachers_fte": null}], "3402610": [{"ncessch": "340261002962", "school_name": "Califon Public School", "city": "CALIFON", "state": "NJ", "zip": "07830", "lat": 40.7247840000001, "lon": -74.839364, "charter": false, "level": "", "enrollment": 86, "teachers_fte": 14.3999996185303}], "3402640": [{"ncessch": "340264000087", "school_name": "Dr. Charles E. Brimm Medical Arts High School", "city": "CAMDEN", "state": "NJ", "zip": "08103", "lat": 39.936045, "lon": -75.0976929999999, "charter": false, "level": "", "enrollment": 194, "teachers_fte": 22.0}, {"ncessch": "340264000579", "school_name": "Camden Big Picture Learning Academy", "city": "CAMDEN", "state": "NJ", "zip": "08103", "lat": 39.936045, "lon": -75.0976929999999, "charter": false, "level": "", "enrollment": 169, "teachers_fte": 23.0}, {"ncessch": "340264000793", "school_name": "Octavio V. Catto Community Family School", "city": "CAMDEN", "state": "NJ", "zip": "08105", "lat": 39.948689001, "lon": -75.0806200009999, "charter": false, "level": "", "enrollment": 584, "teachers_fte": 56.0}, {"ncessch": "340264001344", "school_name": "Early Childhood Development Center", "city": "CAMDEN", "state": "NJ", "zip": "08103", "lat": 39.937580999, "lon": -75.100787, "charter": false, "level": "", "enrollment": 280, "teachers_fte": 47.0}, {"ncessch": "340264001346", "school_name": "Camden High School", "city": "CAMDEN", "state": "NJ", "zip": "08103", "lat": 39.936045, "lon": -75.0976929999999, "charter": false, "level": "", "enrollment": 421, "teachers_fte": 24.0}, {"ncessch": "340264001348", "school_name": "East Side High School", "city": "CAMDEN", "state": "NJ", "zip": "08105", "lat": 39.94676, "lon": -75.0774269999999, "charter": false, "level": "", "enrollment": 514, "teachers_fte": 64.0}, {"ncessch": "340264001354", "school_name": "Veterans Memorial Family School", "city": "CAMDEN", "state": "NJ", "zip": "08105", "lat": 39.953333, "lon": -75.0935509999999, "charter": false, "level": "", "enrollment": 358, "teachers_fte": 49.5}, {"ncessch": "340264001364", "school_name": "Cooper's Poynt Family School", "city": "CAMDEN", "state": "NJ", "zip": "08102", "lat": 39.9540220000001, "lon": -75.121883, "charter": false, "level": "", "enrollment": 400, "teachers_fte": 60.0}, {"ncessch": "340264001368", "school_name": "Dr. Henry H. Davis Elementary School", "city": "CAMDEN", "state": "NJ", "zip": "08105", "lat": 39.9528260010001, "lon": -75.076719001, "charter": false, "level": "", "enrollment": 507, "teachers_fte": 60.0}, {"ncessch": "340264001374", "school_name": "Forest Hill School", "city": "CAMDEN", "state": "NJ", "zip": "08103", "lat": 39.9369560010001, "lon": -75.098995999, "charter": false, "level": "", "enrollment": 365, "teachers_fte": 37.0}, {"ncessch": "340264001384", "school_name": "Creative Arts High School", "city": "CAMDEN", "state": "NJ", "zip": "08103", "lat": 39.936045, "lon": -75.0976929999999, "charter": false, "level": "", "enrollment": 202, "teachers_fte": 40.0}, {"ncessch": "340264001406", "school_name": "Henry B. Wilson Family School", "city": "CAMDEN", "state": "NJ", "zip": "08104", "lat": 39.9165350000001, "lon": -75.111767001, "charter": false, "level": "", "enrollment": 448, "teachers_fte": 44.0}, {"ncessch": "340264001408", "school_name": "Yorkship Elementary School", "city": "CAMDEN", "state": "NJ", "zip": "08104", "lat": 39.9046950000001, "lon": -75.1051039989999, "charter": false, "level": "", "enrollment": 320, "teachers_fte": 40.0}, {"ncessch": "340264003065", "school_name": "Thomas H. Dudley Family School", "city": "Camden", "state": "NJ", "zip": "08105", "lat": 39.94435, "lon": -75.09336, "charter": false, "level": "", "enrollment": 591, "teachers_fte": 60.0}, {"ncessch": "340264003527", "school_name": "Morgan Village Middle School", "city": "Camden", "state": "NJ", "zip": "08104", "lat": 39.9133850000001, "lon": -75.1100359989999, "charter": false, "level": "", "enrollment": 244, "teachers_fte": 13.0},