{"0500001": [{"ncessch": "050000100216", "school_name": "DEWITT HIGH SCHOOL", "city": "DEWITT", "state": "AR", "zip": "72042", "lat": 34.2771750000001, "lon": -91.349475, "charter": false, "level": "", "enrollment": 354, "teachers_fte": 37.0800018310547}, {"ncessch": "050000100217", "school_name": "DEWITT MIDDLE SCHOOL", "city": "DEWITT", "state": "AR", "zip": "72042", "lat": 34.2778030000001, "lon": -91.348212, "charter": false, "level": "", "enrollment": 267, "teachers_fte": 24.7800006866455}, {"ncessch": "050000100218", "school_name": "DEWITT ELEMENTARY SCHOOL", "city": "DEWITT", "state": "AR", "zip": "72042", "lat": 34.2755730000001, "lon": -91.349274, "charter": false, "level": "", "enrollment": 530, "teachers_fte": 37.9300003051758}], "0500002": [{"ncessch": "050000200594", "school_name": "SAU TECH CAREER CENTER", "city": "CAMDEN", "state": "AR", "zip": "71701", "lat": 33.632214, "lon": -92.7182519999999, "charter": false, "level": "", "enrollment": 0, "teachers_fte": 0.0}], "0500006": [{"ncessch": "050000601129", "school_name": "EASTSIDE ELEMENTARY SCHOOL", "city": "WARREN", "state": "AR", "zip": "71671", "lat": 33.6207400000001, "lon": -92.0566229999999, "charter": false, "level": "", "enrollment": 388, "teachers_fte": 26.3199996948242}, {"ncessch": "050000601334", "school_name": "WARREN MIDDLE SCHOOL", "city": "WARREN", "state": "AR", "zip": "71671", "lat": 33.6274100000001, "lon": -92.067595, "charter": true, "level": "", "enrollment": 359, "teachers_fte": 27.5599994659424}, {"ncessch": "050000601570", "school_name": "THOMAS C BRUNSON ELEMENTARY  SCHOOL", "city": "WARREN", "state": "AR", "zip": "71671", "lat": 33.627413, "lon": -92.068655, "charter": false, "level": "", "enrollment": 209, "teachers_fte": 17.3099994659424}, {"ncessch": "050000601695", "school_name": "WARREN HIGH SCHOOL", "city": "Warren", "state": "AR", "zip": "71671", "lat": 33.62618, "lon": -92.0660189989999, "charter": false, "level": "", "enrollment": 468, "teachers_fte": 39.3199996948242}, {"ncessch": "050000601722", "school_name": "SEACBEC (WARREN)", "city": "WARREN", "state": "AR", "zip": "71671", "lat": 33.6252040000001, "lon": -92.0653379999999, "charter": false, "level": "", "enrollment": 0, "teachers_fte": 0.0}], "0500009": [{"ncessch": "050000900191", "school_name": "CORNING HIGH SCHOOL", "city": "CORNING", "state": "AR", "zip": "72422", "lat": 36.419184, "lon": -90.580056, "charter": false, "level": "", "enrollment": 228, "teachers_fte": 45.7999992370605}, {"ncessch": "050000900192", "school_name": "PARK ELEMENTARY SCHOOL", "city": "CORNING", "state": "AR", "zip": "72422", "lat": 36.4093330000001, "lon": -90.593195, "charter": false, "level": "", "enrollment": 349, "teachers_fte": 19.3400001525879}, {"ncessch": "050000901671", "school_name": "CORNING MIDDLE SCHOOL", "city": "CORNING", "state": "AR", "zip": "72422", "lat": 36.419184, "lon": -90.580056, "charter": false, "level": "", "enrollment": 255, "teachers_fte": 18.8600006103516}], "0500012": [{"ncessch": "050001201285", "school_name": "RIVERSIDE EAST ELEM. SCHOOL", "city": "CARAWAY", "state": "AR", "zip": "72419", "lat": 35.758136, "lon": -90.344619, "charter": false, "level": "", "enrollment": 147, "teachers_fte": 12.5}, {"ncessch": "050001201287", "school_name": "RIVERSIDE WEST ELEM. SCHOOL", "city": "LAKE CITY", "state": "AR", "zip": "72437", "lat": 35.819196, "lon": -90.452545001, "charter": false, "level": "", "enrollment": 296, "teachers_fte": 20.5499992370605}, {"ncessch": "050001201538", "school_name": "RIVERSIDE HIGH SCHOOL", "city": "LAKE CITY", "state": "AR", "zip": "72437", "lat": 35.820023, "lon": -90.4541809999999, "charter": false, "level": "", "enrollment": 331, "teachers_fte": 35.9900016784668}], "0500015": [{"ncessch": "050001500097", "school_name": "SHERIDAN INTERMEDIATE SCHOOL", "city": "SHERIDAN", "state": "AR", "zip": "72150", "lat": 34.314037999, "lon": -92.4108639999999, "charter": false, "level": "", "enrollment": 546, "teachers_fte": 30.1800003051758}, {"ncessch": "050001500275", "school_name": "EAST END INTERMEDIATE SCHOOL", "city": "LITTLE ROCK", "state": "AR", "zip": "72206", "lat": 34.5561440000001, "lon": -92.3423799989999, "charter": false, "level": "", "enrollment": 399, "teachers_fte": 23.4500007629395}, {"ncessch": "050001500995", "school_name": "EAST END ELEMENTARY SCHOOL", "city": "LITTLE ROCK", "state": "AR", "zip": "72206", "lat": 34.5521570000001, "lon": -92.3400599999999, "charter": false, "level": "", "enrollment": 480, "teachers_fte": 26.8299999237061}, {"ncessch": "050001500996", "school_name": "SHERIDAN ELEMENTARY SCHOOL", "city": "SHERIDAN", "state": "AR", "zip": "72150", "lat": 34.3138920000001, "lon": -92.412607, "charter": false, "level": "", "enrollment": 596, "teachers_fte": 34.5900001525879}, {"ncessch": "050001500997", "school_name": "SHERIDAN HIGH SCHOOL", "city": "SHERIDAN", "state": "AR", "zip": "72150", "lat": 34.3118910000001, "lon": -92.407831, "charter": false, "level": "", "enrollment": 1271, "teachers_fte": 117.589996337891}, {"ncessch": "050001500998", "school_name": "SHERIDAN MIDDLE SCHOOL", "city": "SHERIDAN", "state": "AR", "zip": "72150", "lat": 34.31098, "lon": -92.398112999, "charter": false, "level": "", "enrollment": 609, "teachers_fte": 36.560001373291}, {"ncessch": "050001501677", "school_name": "EAST END MIDDLE SCHOOL", "city": "HENSLEY", "state": "AR", "zip": "72065", "lat": 34.5284799990001, "lon": -92.3353539999999, "charter": false, "level": "", "enrollment": 424, "teachers_fte": 27.9799995422363}], "0500016": [{"ncessch": "050001600690", "school_name": "MARMADUKE ELEMENTARY SCHOOL", "city": "MARMADUKE", "state": "AR", "zip": "72443", "lat": 36.193379001, "lon": -90.395173999, "charter": false, "level": "", "enrollment": 418, "teachers_fte": 24.9300003051758}, {"ncessch": "050001600691", "school_name": "MARMADUKE HIGH SCHOOL", "city": "MARMADUKE", "state": "AR", "zip": "72443", "lat": 36.193398001, "lon": -90.393772, "charter": false, "level": "", "enrollment": 299, "teachers_fte": 67.120002746582}], "0500017": [{"ncessch": "050001700395", "school_name": "PARAGOULD JUNIOR HIGH", "city": "PARAGOULD", "state": "AR", "zip": "72450", "lat": 36.0575420000001, "lon": -90.5098419999999, "charter": false, "level": "", "enrollment": 481, "teachers_fte": 36.439998626709}, {"ncessch": "050001701289", "school_name": "BALDWIN ELEMENTARY SCHOOL", "city": "PARAGOULD", "state": "AR", "zip": "72450", "lat": 36.047087999, "lon": -90.494061, "charter": false, "level": "", "enrollment": 203, "teachers_fte": 14.4200000762939}, {"ncessch": "050001701292", "school_name": "WOODROW WILSON ELEM. SCHOOL", "city": "PARAGOULD", "state": "AR", "zip": "72450", "lat": 36.0547030000001, "lon": -90.498037, "charter": false, "level": "", "enrollment": 240, "teachers_fte": 16.5499992370605}, {"ncessch": "050001701295", "school_name": "PARAGOULD HIGH SCHOOL", "city": "PARAGOULD", "state": "AR", "zip": "72450", "lat": 36.05719, "lon": -90.5086209999999, "charter": false, "level": "", "enrollment": 870, "teachers_fte": 82.3600006103516}, {"ncessch": "050001701296", "school_name": "OAK GROVE MIDDLE SCHOOL", "city": "PARAGOULD", "state": "AR", "zip": "72450", "lat": 36.120504, "lon": -90.5126759999999, "charter": false, "level": "", "enrollment": 512, "teachers_fte": 29.7099990844727}, {"ncessch": "050001701497", "school_name": "OAK GROVE ELEMENTARY SCHOOL", "city": "PARAGOULD", "state": "AR", "zip": "72450", "lat": 36.118913999, "lon": -90.511839, "charter": false, "level": "", "enrollment": 249, "teachers_fte": 13.8000001907349}, {"ncessch": "050001701576", "school_name": "PARAGOULD PRIMARY SCHOOL", "city": "PARAGOULD", "state": "AR", "zip": "72450", "lat": 36.06919, "lon": -90.506119999, "charter": false, "level": "", "enrollment": 662, "teachers_fte": 43.9000015258789}], "0500019": [{"ncessch": "050001900042", "school_name": "BATESVILLE JUNIOR HIGH SCHOOL CHARTER", "city": "BATESVILLE", "state": "AR", "zip": "72501", "lat": 35.7549000000001, "lon": -91.6220299999999, "charter": true, "level": "", "enrollment": 772, "teachers_fte": 56.4099998474121}, {"ncessch": "050001900043", "school_name": "BATESVILLE HIGH SCHOOL", "city": "BATESVILLE", "state": "AR", "zip": "72501", "lat": 35.7545200000001, "lon": -91.624037, "charter": true, "level": "", "enrollment": 973, "teachers_fte": 101.830001831055}, {"ncessch": "050001900046", "school_name": "WEST MAGNET SCHOOL", "city": "BATESVILLE", "state": "AR", "zip": "72501", "lat": 35.7779770000001, "lon": -91.654729, "charter": false, "level": "", "enrollment": 549, "teachers_fte": 31.0300006866455}, {"ncessch": "050001900144", "school_name": "EAGLE MOUNTAIN MAGNET SCHOOL", "city": "BATESVILLE", "state": "AR", "zip": "72501", "lat": 35.758788001, "lon": -91.609842, "charter": false, "level": "", "enrollment": 903, "teachers_fte": 41.7200012207031}, {"ncessch": "050001901092", "school_name": "SULPHUR ROCK MAGNET SCHOOL", "city": "SULPHUR ROCK", "state": "AR", "zip": "72579", "lat": 35.7560500000001, "lon": -91.499961, "charter": false, "level": "", "enrollment": 272, "teachers_fte": 18.4200000762939}], "0500020": [{"ncessch": "050002001297", "school_name": "MIDLAND ELEMENTARY SCHOOL", "city": "FLORAL", "state": "AR", "zip": "72534", "lat": 35.588289, "lon": -91.759964, "charter": false, "level": "", "enrollment": 277, "teachers_fte": 22.2399997711182}, {"ncessch": "050002001298", "school_name": "MIDLAND HIGH SCHOOL", "city": "PLEASANT PLAINS", "state": "AR", "zip": "72568", "lat": 35.547101001, "lon": -91.6248860009999, "charter": false, "level": "", "enrollment": 234, "teachers_fte": 47.1199989318848}], "0500021": [{"ncessch": "050002101233", "school_name": "IZARD COUNTY CONS MIDDLE SCH", "city": "BROCKWELL", "state": "AR", "zip": "72517", "lat": 36.1548320000001, "lon": -91.923646, "charter": false, "level": "", "enrollment": 185, "teachers_fte": 15.4300003051758}, {"ncessch": "050002101299", "school_name": "IZARD CO. CONS. ELEM. SCHOOL", "city": "VIOLET HILL", "state": "AR", "zip": "72584", "lat": 36.156649999, "lon": -91.840789999, "charter": false, "level": "", "enrollment": 270, "teachers_fte": 18.0300006866455}, {"ncessch": "050002101300", "school_name": "IZARD CO. CONS. HIGH SCHOOL", "city": "BROCKWELL", "state": "AR", "zip": "72517", "lat": 36.1548320000001, "lon": -91.923646, "charter": false, "level": "", "enrollment": 193, "teachers_fte": 49.5400009155273}], "0500023": [{"ncessch": "050002300772", "school_name": "NEWPORT HIGH SCHOOL", "city": "NEWPORT", "state": "AR", "zip": "72112", "lat": 35.6014690000001, "lon": -91.272273, "charter": false, "level": "", "enrollment": 612, "teachers_fte": 75.0400009155273}, {"ncessch": "050002301517", "school_name": "NEWPORT ELEMENTARY SCHOOL", "city": "NEWPORT", "state": "AR", "zip": "72112", "lat": 35.620916999, "lon": -91.2327089999999, "charter": false, "level": "", "enrollment": 656, "teachers_fte": 50.0499992370605}], "0500026": [{"ncessch": "050002600251", "school_name": "MATTHEWS ELEMENTARY SCHOOL", "city": "PINE BLUFF", "state": "AR", "zip": "71602", "lat": 34.240164, "lon": -92.048954, "charter": false, "level": "", "enrollment": 436, "teachers_fte": 29.7999992370605}, {"ncessch": "050002600252", "school_name": "ROBERT F MOREHEAD MIDDLE SCHOOL", "city": "PINE BLUFF", "state": "AR", "zip": "71602", "lat": 34.2380440000001, "lon": -92.029827, "charter": false, "level": "", "enrollment": 195, "teachers_fte": 22.2299995422363}, {"ncessch": "050002600253", "school_name": "DOLLARWAY HIGH SCHOOL", "city": "PINE BLUFF", "state": "AR", "zip": "71601", "lat": 34.2380440000001, "lon": -92.029827, "charter": false, "level": "", "enrollment": 163, "teachers_fte": 20.0}, {"ncessch": "050002600857", "school_name": "BROADMOOR ELEMENTARY SCHOOL", "city": "PINE BLUFF", "state": "AR", "zip": "71601", "lat": 34.2186339990001, "lon": -91.98306, "charter": false, "level": "", "enrollment": 292, "teachers_fte": 19.0499992370605}, {"ncessch": "050002600867", "school_name": "PINE BLUFF HIGH SCHOOL", "city": "PINE BLUFF", "state": "AR", "zip": "71601", "lat": 34.219096, "lon": -92.010781, "charter": false, "level": "", "enrollment": 583, "teachers_fte": 56.5699996948242}, {"ncessch": "050002600872", "school_name": "THIRTY-FOURTH AVE. ELEM. SCH.", "city": "PINE BLUFF", "state": "AR", "zip": "71601", "lat": 34.195122, "lon": -91.994612, "charter": false, "level": "", "enrollment": 396, "teachers_fte": 27.7399997711182}, {"ncessch": "050002601338", "school_name": "JACK ROBEY JR. HIGH SCHOOL", "city": "PINE BLUFF", "state": "AR", "zip": "71603", "lat": 34.1889560000001, "lon": -92.0055629999999, "charter": false, "level": "", "enrollment": 594, "teachers_fte": 50.2200012207031}, {"ncessch": "050002601530", "school_name": "FORREST PARK PREP PRESCHOOL", "city": "PINE BLUFF", "state": "AR", "zip": "71603", "lat": 34.1953339990001, "lon": -92.0211849999999, "charter": false, "level": "", "enrollment": 208, "teachers_fte": 14.0200004577637}, {"ncessch": "050002601670", "school_name": "SOUTHWOOD ELEMENTARY SCHOOL", "city": "PINEBLUFF", "state": "AR", "zip": "71603", "lat": 34.1864100010001, "lon": -92.0297209999999, "charter": false, "level": "", "enrollment": 394, "teachers_fte": 26.0200004577637}], "0500028": [{"ncessch": "050002801041", "school_name": "STAR CITY JIMMY BROWN ELEMENTARY SCHOOL", "city": "STAR CITY", "state": "AR", "zip": "71667", "lat": 33.9459810000001, "lon": -91.8379249989999, "charter": false, "level": "", "enrollment": 647, "teachers_fte": 41.1100006103516}, {"ncessch": "050002801042", "school_name": "STAR CITY HIGH SCHOOL", "city": "STAR CITY", "state": "AR", "zip": "71667", "lat": 33.9420069990001, "lon": -91.8400589999999, "charter": false, "level": "", "enrollment": 444, "teachers_fte": 36.560001373291}, {"ncessch": "050002801043", "school_name": "STAR CITY MIDDLE SCHOOL", "city": "STAR CITY", "state": "AR", "zip": "71667", "lat": 33.9410720000001, "lon": -91.840762, "charter": false, "level": "", "enrollment": 341, "teachers_fte": 27.3899993896484}], "0500029": [{"ncessch": "050002901275", "school_name": "GOSNELL ELEMENTARY SCHOOL", "city": "GOSNELL", "state": "AR", "zip": "72315", "lat": 35.9610720000001, "lon": -89.965828, "charter": false, "level": "", "enrollment": 561, "teachers_fte": 40.2900009155273}, {"ncessch": "050002901277", "school_name": "GOSNELL HIGH SCHOOL", "city": "GOSNELL", "state": "AR", "zip": "72315", "lat": 35.9641720000001, "lon": -89.966709, "charter": false, "level": "", "enrollment": 612, "teachers_fte": 56.6300010681152}], "0500030": [{"ncessch": "050003001398", "school_name": "NEVADA ELEMENTARY SCHOOL", "city": "ROSSTON", "state": "AR", "zip": "71858", "lat": 33.591551, "lon": -93.295782, "charter": false, "level": "", "enrollment": 230, "teachers_fte": 17.6100006103516}, {"ncessch": "050003001405", "school_name": "NEVADA HIGH  SCHOOL", "city": "ROSSTON", "state": "AR", "zip": "71858", "lat": 33.591551, "lon": -93.295782, "charter": false, "level": "", "enrollment": 184, "teachers_fte": 30.5100002288818}], "0500032": [{"ncessch": "050003200052", "school_name": "BEARDEN ELEMENTARY SCHOOL", "city": "BEARDEN", "state": "AR", "zip": "71720", "lat": 33.7285820000001, "lon": -92.6206109999999, "charter": false, "level": "", "enrollment": 258, "teachers_fte": 19.0699996948242}, {"ncessch": "050003200053", "school_name": "BEARDEN HIGH SCHOOL", "city": "BEARDEN", "state": "AR", "zip": "71720", "lat": 33.7305480000001, "lon": -92.621291, "charter": false, "level": "", "enrollment": 218, "teachers_fte": 47.7400016784668}], "0500035": [{"ncessch": "050003501419", "school_name": "ARK. SCHOOL FOR THE BLIND ELEM", "city": "LITTLE ROCK", "state": "AR", "zip": "72203", "lat": 34.752798001, "lon": -92.303108, "charter": false, "level": "", "enrollment": 38, "teachers_fte": 11.7799997329712}, {"ncessch": "050003501420", "school_name": "ARK. SCHOOL FOR THE BLIND H.S.", "city": "LITTLE ROCK", "state": "AR", "zip": "72203", "lat": 34.752798001, "lon": -92.303108, "charter": false, "level": "", "enrollment": 35, "teachers_fte": 16.3799991607666}], "0500036": [{"ncessch": "050003601653", "school_name": "SCHOOL FOR THE DEAF SCHOOLS", "city": "LITTLE ROCK", "state": "AR", "zip": "72205", "lat": 34.751900001, "lon": -92.2986999999999, "charter": false, "level": "", "enrollment": 106, "teachers_fte": 33.8499984741211}], "0500041": [{"ncessch": "050004101312", "school_name": "WESTERN YELL CO. ELEM. SCHOOL", "city": "BELLEVILLE", "state": "AR", "zip": "72824", "lat": 35.093533999, "lon": -93.44587, "charter": false, "level": "", "enrollment": 180, "teachers_fte": 15.7299995422363}, {"ncessch": "050004101315", "school_name": "WESTERN YELL CO. HIGH SCHOOL", "city": "HAVANA", "state": "AR", "zip": "72842", "lat": 35.108888, "lon": -93.5242709999999, "charter": false, "level": "", "enrollment": 142, "teachers_fte": 41.5699996948242}], "0500042": [{"ncessch": "050004201280", "school_name": "HAMBURG MIDDLE SCHOOL", "city": "HAMBURG", "state": "AR", "zip": "71646", "lat": 33.208899999, "lon": -91.79403, "charter": false, "level": "", "enrollment": 388, "teachers_fte": 24.3099994659424}, {"ncessch": "050004201281", "school_name": "HAMBURG HIGH SCHOOL", "city": "HAMBURG", "state": "AR", "zip": "71646", "lat": 33.2079650000001, "lon": -91.7966969999999, "charter": false, "level": "", "enrollment": 498, "teachers_fte": 43.8699989318848}, {"ncessch": "050004201282", "school_name": "PORTLAND ELEMENTARY SCHOOL", "city": "PORTLAND", "state": "AR", "zip": "71663", "lat": 33.2367400000001, "lon": -91.503428, "charter": false, "level": "", "enrollment": 130, "teachers_fte": 8.61999988555908}, {"ncessch": "050004201540", "school_name": "NOBLE ELEMENTARY SCHOOL", "city": "HAMBURG", "state": "AR", "zip": "71646", "lat": 33.2249860000001, "lon": -91.790872, "charter": false, "level": "", "enrollment": 405, "teachers_fte": 25.4599990844727}, {"ncessch": "050004201675", "school_name": "ALLBRITTON ELEMENTARY SCHOOL", "city": "HAMBURG", "state": "AR", "zip": "71646", "lat": 33.2263480010001, "lon": -91.7910239999999, "charter": false, "level": "", "enrollment": 270, "teachers_fte": 19.5200004577637}], "0500043": [{"ncessch": "050004300676", "school_name": "MTN HOME HIGH CAREER ACADEMICS", "city": "MOUNTAIN HOME", "state": "AR", "zip": "72653", "lat": 36.3317000000001, "lon": -92.397822, "charter": true, "level": "", "enrollment": 1518, "teachers_fte": 124.610000610352}, {"ncessch": "050004300740", "school_name": "NELSON WILKS HERRON ELEMENTARY", "city": "MOUNTAIN HOME", "state": "AR", "zip": "72653", "lat": 36.348167, "lon": -92.381706, "charter": false, "level": "", "enrollment": 552, "teachers_fte": 33.6500015258789}, {"ncessch": "050004300742", "school_name": "PINKSTON MIDDLE SCHOOL", "city": "MOUNTAIN HOME", "state": "AR", "zip": "72653", "lat": 36.3244520000001, "lon": -92.379767, "charter": false, "level": "", "enrollment": 624, "teachers_fte": 39.5900001525879}, {"ncessch": "050004301236", "school_name": "MOUNTAIN HOME KINDERGARTEN", "city": "MOUNTAIN HOME", "state": "AR", "zip": "72653", "lat": 36.3243450000001, "lon": -92.377347, "charter": false, "level": "", "enrollment": 337, "teachers_fte": 16.0200004577637}, {"ncessch": "050004301522", "school_name": "HACKLER INTERMEDIATE SCHOOL", "city": "MOUNTAIN HOME", "state": "AR", "zip": "72653", "lat": 36.33563, "lon": -92.4012499999999, "charter": false, "level": "", "enrollment": 830, "teachers_fte": 47.2799987792969}, {"ncessch": "050004305129", "school_name": "GUY BERRY COLLEGE AND CAREER ACADEMY", "city": "MOUNTAIN HOME", "state": "AR", "zip": "72653", "lat": 36.3303930000001, "lon": -92.385488, "charter": true, "level": "", "enrollment": 53, "teachers_fte": 3.95000004768372}], "0500044": [{"ncessch": "050004400653", "school_name": "CENTRAL ELEMENTARY SCHOOL", "city": "MAGNOLIA", "state": "AR", "zip": "71753", "lat": 33.269578, "lon": -93.236080999, "charter": false, "level": "", "enrollment": 538, "teachers_fte": 33.810001373291}, {"ncessch": "050004400654", "school_name": "EAST SIDE ELEMENTARY SCHOOL", "city": "MAGNOLIA", "state": "AR", "zip": "71753", "lat": 33.2717909990001, "lon": -93.223241, "charter": false, "level": "", "enrollment": 629, "teachers_fte": 37.5699996948242}, {"ncessch": "050004400655", "school_name": "MAGNOLIA JR. HIGH SCHOOL", "city": "MAGNOLIA", "state": "AR", "zip": "71753", "lat": 33.2699260000001, "lon": -93.23429, "charter": false, "level": "", "enrollment": 595, "teachers_fte": 51.2000007629395}, {"ncessch": "050004400656", "school_name": "MAGNOLIA HIGH SCHOOL", "city": "MAGNOLIA", "state": "AR", "zip": "71753", "lat": 33.279214, "lon": -93.222572, "charter": false, "level": "", "enrollment": 780, "teachers_fte": 71.0500030517578}, {"ncessch": "050004401123", "school_name": "WALKER PRE-K CENTER", "city": "MAGNOLIA", "state": "AR", "zip": "71753", "lat": 33.225623001, "lon": -93.224239, "charter": false, "level": "", "enrollment": 120, "teachers_fte": 0.0}], "0500045": [{"ncessch": "050004501204", "school_name": "ACADEMIES AT RIVERCREST HIGH SCHOOL", "city": "WILSON", "state": "AR", "zip": "72395", "lat": 35.612581, "lon": -90.106985, "charter": true, "level": "", "enrollment": 314, "teachers_fte": 60.7599983215332}, {"ncessch": "050004501600", "school_name": "RIVERCREST ELEMENTARY SCHOOL", "city": "WILSON", "state": "AR", "zip": "72395", "lat": 35.6132160000001, "lon": -90.104417, "charter": false, "level": "", "enrollment": 609, "teachers_fte": 38.6599998474121}, {"ncessch": "050004501735", "school_name": "RIVERCREST JUNIOR HIGH", "city": "WILSON", "state": "AR", "zip": "72395", "lat": 35.6136490000001, "lon": -90.107254999, "charter": false, "level": "", "enrollment": 193, "teachers_fte": 14.039999961853}], "0500046": [{"ncessch": "050004600667", "school_name": "MANILA ELEMENTARY SCHOOL", "city": "MANILA", "state": "AR", "zip": "72442", "lat": 35.878925, "lon": -90.1590899999999, "charter": false, "level": "", "enrollment": 610, "teachers_fte": 38.3199996948242}, {"ncessch": "050004600668", "school_name": "MANILA HIGH SCHOOL", "city": "MANILA", "state": "AR", "zip": "72442", "lat": 35.8793120010001, "lon": -90.1564499999999, "charter": false, "level": "", "enrollment": 466, "teachers_fte": 41.2900009155273}], "0500047": [{"ncessch": "050004701079", "school_name": "TRUMANN HIGH SCHOOL", "city": "TRUMANN", "state": "AR", "zip": "72472", "lat": 35.6726190000001, "lon": -90.532367, "charter": false, "level": "", "enrollment": 457, "teachers_fte": 34.7299995422363}, {"ncessch": "050004701081", "school_name": "CEDAR PARK ELEMENTARY SCHOOL", "city": "TRUMANN", "state": "AR", "zip": "72472", "lat": 35.6750430000001, "lon": -90.526394, "charter": false, "level": "", "enrollment": 722, "teachers_fte": 41.0400009155273}, {"ncessch": "050004701506", "school_name": "TRUMANN INTERMEDIATE SCHOOL7-8", "city": "TRUMANN", "state": "AR", "zip": "72472", "lat": 35.6731609990001, "lon": -90.5185999999999, "charter": false, "level": "", "enrollment": 300, "teachers_fte": 22.4699993133545}, {"ncessch": "050004701736", "school_name": "TRUMANN PREK AND PARENT CENTER", "city": "TRUMANN", "state": "AR", "zip": "72472", "lat": 35.674683999, "lon": -90.5241349999999, "charter": false, "level": "", "enrollment": 94, "teachers_fte": 6.0}], "0500048": [{"ncessch": "050004801345", "school_name": "LEPANTO ELEMENTARY", "city": "LEPANTO", "state": "AR", "zip": "72354", "lat": 35.610311999, "lon": -90.341965, "charter": false, "level": "", "enrollment": 164, "teachers_fte": 11.1999998092651}, {"ncessch": "050004801346", "school_name": "TYRONZA ELEMENTARY", "city": "TYRONZA", "state": "AR", "zip": "72386", "lat": 35.4834060000001, "lon": -90.3583189999999, "charter": false, "level": "", "enrollment": 181, "teachers_fte": 12.710000038147}, {"ncessch": "050004801348", "school_name": "EAST POINSETT CO. HIGH SCHOOL", "city": "LEPANTO", "state": "AR", "zip": "72354", "lat": 35.609971, "lon": -90.340744, "charter": false, "level": "", "enrollment": 276, "teachers_fte": 27.6000003814697}], "0500049": [{"ncessch": "050004900234", "school_name": "DEQUEEN ELEMENTARY SCHOOL", "city": "DEQUEEN", "state": "AR", "zip": "71832", "lat": 34.028576, "lon": -94.361147, "charter": false, "level": "", "enrollment": 523, "teachers_fte": 36.9700012207031}, {"ncessch": "050004900235", "school_name": "DEQUEEN HIGH SCHOOL", "city": "DEQUEEN", "state": "AR", "zip": "71832", "lat": 34.0298450000001, "lon": -94.358751, "charter": false, "level": "", "enrollment": 481, "teachers_fte": 55.5800018310547}, {"ncessch": "050004900236", "school_name": "DEQUEEN MIDDLE SCHOOL", "city": "DEQUEEN", "state": "AR", "zip": "71832", "lat": 34.0298450000001, "lon": -94.358751, "charter": false, "level": "", "enrollment": 343, "teachers_fte": 26.1399993896484}, {"ncessch": "050004900853", "school_name": "DEQUEEN PRIMARY", "city": "DEQUEEN", "state": "AR", "zip": "71832", "lat": 34.0274870000001, "lon": -94.360605, "charter": false, "level": "", "enrollment": 576, "teachers_fte": 39.0699996948242}, {"ncessch": "050004901503", "school_name": "DEQUEEN JUNIOR HIGH SCHOOL", "city": "DEQUEEN", "state": "AR", "zip": "71832", "lat": 34.0298450000001, "lon": -94.358751, "charter": false, "level": "", "enrollment": 397, "teachers_fte": 31.6900005340576}], "0500051": [{"ncessch": "050005100832", "school_name": "PALESTINE-WHEATLEY ELEM. SCH.", "city": "PALESTINE", "state": "AR", "zip": "72372", "lat": 34.9716310000001, "lon": -90.9023769999999, "charter": false, "level": "", "enrollment": 426, "teachers_fte": 25.7000007629395}, {"ncessch": "050005100833", "school_name": "PALESTINE-WHEATLEY SENIOR HIGH", "city": "PALESTINE", "state": "AR", "zip": "72372", "lat": 34.969504, "lon": -90.904465, "charter": false, "level": "", "enrollment": 349, "teachers_fte": 61.3499984741211}], "0500052": [{"ncessch": "050005200646", "school_name": "SOUTH ARKANSAS COMMUNITY COLLEGE TECHNICAL CENTER", "city": "EL DORADO", "state": "AR", "zip": "71730", "lat": 33.2185460000001, "lon": -92.614431, "charter": false, "level": "", "enrollment": 0, "teachers_fte": 0.0}], "0500053": [{"ncessch": "050005300626", "school_name": "WESTERN ARKANSAS TECHNICAL CENTER", "city": "FORT SMITH", "state": "AR", "zip": "72913", "lat": 35.381359, "lon": -94.3747060009999, "charter": false, "level": "", "enrollment": 0, "teachers_fte": 0.0}], "0500054": [{"ncessch": "050005400583", "school_name": "ASU THREE RIVERS CAREER CENTER", "city": "MALVERN", "state": "AR", "zip": "72104", "lat": 34.378661999, "lon": -92.821864999, "charter": false, "level": "", "enrollment": 0, "teachers_fte": 0.0}], "0500055": [{"ncessch": "050005500513", "school_name": "ARKANSAS ARTS ACADEMY ELEMENTARY/MIDDLE SCHOOL", "city": "ROGERS", "state": "AR", "zip": "72758", "lat": 36.3077730000001, "lon": -94.132867, "charter": true, "level": "", "enrollment": 550, "teachers_fte": 35.9799995422363}, {"ncessch": "050005501508", "school_name": "ARKANSAS ARTS ACADEMY HIGH SCHOOL", "city": "ROGERS", "state": "AR", "zip": "72756", "lat": 36.3311160000001, "lon": -94.1220979989999, "charter": true, "level": "", "enrollment": 540, "teachers_fte": 46.7999992370605}], "0500056": [{"ncessch": "050005600657", "school_name": "ASU BEEBE REGIONAL CAREER CENTER - SEARCY", "city": "SEARCY", "state": "AR", "zip": "72143", "lat": 35.255923001, "lon": -91.714752999, "charter": false, "level": "", "enrollment": 0, "teachers_fte": 0.0}], "0500057": [{"ncessch": "050005700579", "school_name": "NATIONAL PARK TECHNOLOGY CENTER", "city": "HOT SPRINGS", "state": "AR", "zip": "71913", "lat": 34.511801, "lon": -93.1191029989999, "charter": false, "level": "", "enrollment": 0, "teachers_fte": 0.0}], "0500058": [{"ncessch": "050005800615", "school_name": "UA-PTC TECHNICAL CENTER", "city": "Benton", "state": "AR", "zip": "72019", "lat": 34.575767, "lon": -92.58791, "charter": false, "level": "", "enrollment": 0, "teachers_fte": 0.0}], "0500059": [{"ncessch": "050005900603", "school_name": "MAUMELLE CHARTER ELEMENTARY SCHOOL", "city": "MAUMELLE", "state": "AR", "zip": "72113", "lat": 34.8654970000001, "lon": -92.403858, "charter": true, "level": "", "enrollment": 584, "teachers_fte": 28.8500003814697}, {"ncessch": "050005900741", "school_name": "MAUMELLE CHARTER HIGH SCHOOL", "city": "MAUMELLE", "state": "AR", "zip": "72113", "lat": 34.8646860000001, "lon": -92.404396, "charter": true, "level": "", "enrollment": 454, "teachers_fte": 26.3999996185303}, {"ncessch": "050005901619", "school_name": "SCOTT CHARTER SCHOOL", "city": "SCOTT", "state": "AR", "zip": "72142", "lat": 34.7012700000001, "lon": -92.098211001, "charter": true, "level": "", "enrollment": 216, "teachers_fte": 18.4400005340576}, {"ncessch": "050005905141", "school_name": "MAUMELLE CHARTER MIDDLE SCHOOL", "city": "MAUMELLE", "state": "AR", "zip": "72113", "lat": 34.865458, "lon": -92.40378, "charter": true, "level": "", "enrollment": 571, "teachers_fte": 29.1399993896484}], "0500060": [{"ncessch": "050006000542", "school_name": "NORTH ARK TECHNICAL CENTER", "city": "HARRISON", "state": "AR", "zip": "72601", "lat": 36.247827, "lon": -93.110169, "charter": false, "level": "", "enrollment": 0, "teachers_fte": 0.0}], "0500061": [{"ncessch": "050006100658", "school_name": "IMBODEN AREA CHARTER SCHOOL", "city": "IMBODEN", "state": "AR", "zip": "72434", "lat": 36.2043360000001, "lon": -91.180089, "charter": true, "level": "", "enrollment": 63, "teachers_fte": 5.15000009536743}], "0500062": [{"ncessch": "050006200659", "school_name": "KIPP DELTA COLLEGE PREPARATORY SCHOOL", "city": "HELENA", "state": "AR", "zip": "72342", "lat": 34.5230060010001, "lon": -90.589891, "charter": true, "level": "", "enrollment": 182, "teachers_fte": 13.6899995803833}, {"ncessch": "050006201451", "school_name": "KIPP DELTA COLLEGIATE HIGH SCHOOL", "city": "HELENA", "state": "AR", "zip": "72342", "lat": 34.524187, "lon": -90.586464, "charter": true, "level": "", "enrollment": 199, "teachers_fte": 38.3600006103516}, {"ncessch": "050006201513", "school_name": "KIPP DELTA ELEMENTARY LITERACY ACADEMY", "city": "HELENA", "state": "AR", "zip": "72342", "lat": 34.544861, "lon": -90.633185, "charter": true, "level": "", "enrollment": 451, "teachers_fte": 29.9699993133545}, {"ncessch": "050006201526", "school_name": "KIPP BLYTHEVILLE COLLEGE PREPARATORY SCHOOL", "city": "BLYTHEVILLE", "state": "AR", "zip": "72315", "lat": 35.937345001, "lon": -89.918075, "charter": true, "level": "", "enrollment": 258, "teachers_fte": 15.960000038147}, {"ncessch": "050006201595", "school_name": "KIPP BLYTHEVILLE COLLEGIATE HIGH SCHOOL", "city": "BLYTHEVILLE", "state": "AR", "zip": "72315", "lat": 35.9080960000001, "lon": -89.920062, "charter": true, "level": "", "enrollment": 134, "teachers_fte": 10.8699998855591}], "0500065": [{"ncessch": "050006500719", "school_name": "LAFAYETTE COUNTY ELEMENTARY", "city": "LEWISVILLE", "state": "AR", "zip": "71845", "lat": 33.3613040000001, "lon": -93.578986, "charter": false, "level": "", "enrollment": 264, "teachers_fte": 19.9699993133545}, {"ncessch": "050006500727", "school_name": "LAFAYETTE COUNTY HIGH SCHOOL", "city": "STAMPS", "state": "AR", "zip": "71860", "lat": 33.369897, "lon": -93.481056, "charter": false, "level": "", "enrollment": 252, "teachers_fte": 55.0400009155273}], "0500066": [{"ncessch": "050006600781", "school_name": "PHILLIPS COMMUNITY CAREER AND TECHNICAL CENTER", "city": "STUTTGART", "state": "AR", "zip": "72160", "lat": 34.473034, "lon": -91.539749, "charter": false, "level": "", "enrollment": 0, "teachers_fte": 0.0}], "0500067": [{"ncessch": "050006700950", "school_name": "RISON ELEMENTARY SCHOOL", "city": "RISON", "state": "AR", "zip": "71665", "lat": 33.954667, "lon": -92.1875959989999, "charter": false, "level": "", "enrollment": 377, "teachers_fte": 34.2700004577637}, {"ncessch": "050006700951", "school_name": "RISON HIGH SCHOOL", "city": "RISON", "state": "AR", "zip": "71665", "lat": 33.954667, "lon": -92.1875959989999, "charter": false, "level": "", "enrollment": 362, "teachers_fte": 34.4700012207031}], "0500068": [{"ncessch": "050006800108", "school_name": "BRADLEY ELEMENTARY SCHOOL", "city": "BRADLEY", "state": "AR", "zip": "71826", "lat": 33.101456, "lon": -93.66056, "charter": false, "level": "", "enrollment": 147, "teachers_fte": 10.9399995803833}, {"ncessch": "050006800109", "school_name": "BRADLEY HIGH SCHOOL", "city": "BRADLEY", "state": "AR", "zip": "71826", "lat": 33.101456, "lon": -93.66056, "charter": false, "level": "", "enrollment": 151, "teachers_fte": 22.9799995422363}, {"ncessch": "050006800291", "school_name": "EMERSON ELEMENTARY SCHOOL", "city": "EMERSON", "state": "AR", "zip": "71740", "lat": 33.0978670000001, "lon": -93.199624999, "charter": false, "level": "", "enrollment": 159, "teachers_fte": 13.789999961853}, {"ncessch": "050006800292", "school_name": "EMERSON HIGH SCHOOL", "city": "EMERSON", "state": "AR", "zip": "71740", "lat": 33.099003, "lon": -93.1968679999999, "charter": false, "level": "", "enrollment": 156, "teachers_fte": 20.4400005340576}, {"ncessch": "050006801062", "school_name": "TAYLOR ELEMENTARY SCHOOL", "city": "TAYLOR", "state": "AR", "zip": "71861", "lat": 33.099025999, "lon": -93.4583289999999, "charter": false, "level": "", "enrollment": 322, "teachers_fte": 20.0599994659424}, {"ncessch": "050006801063", "school_name": "TAYLOR HIGH SCHOOL", "city": "TAYLOR", "state": "AR", "zip": "71861", "lat": 33.099025999, "lon": -93.4583289999999, "charter": false, "level": "", "enrollment": 236, "teachers_fte": 26.9300003051758}], "0500070": [{"ncessch": "050007000767", "school_name": "NEWARK ELEMENTARY SCHOOL", "city": "NEWARK", "state": "AR", "zip": "72562", "lat": 35.717029, "lon": -91.440524, "charter": false, "level": "", "enrollment": 273, "teachers_fte": 23.2000007629395}, {"ncessch": "050007000768", "school_name": "CEDAR RIDGE HIGH SCHOOL", "city": "NEWARK", "state": "AR", "zip": "72562", "lat": 35.7203040000001, "lon": -91.4454959989999, "charter": false, "level": "", "enrollment": 368, "teachers_fte": 66.8300018310547}], "0500071": [{"ncessch": "050007100647", "school_name": "HILLCREST ELEMENTARY SCHOOL", "city": "LYNN", "state": "AR", "zip": "72440", "lat": 36.0097710000001, "lon": -91.252327001, "charter": false, "level": "", "enrollment": 253, "teachers_fte": 20.7700004577637}, {"ncessch": "050007101010", "school_name": "HILLCREST HIGH SCHOOL", "city": "STRAWBERRY", "state": "AR", "zip": "72469", "lat": 35.9651890000001, "lon": -91.322402, "charter": false, "level": "", "enrollment": 181, "teachers_fte": 44.3499984741211}], "0500072": [{"ncessch": "050007201621", "school_name": "DEER K-12 SCHOOL", "city": "DEER", "state": "AR", "zip": "72628", "lat": 35.8258269990001, "lon": -93.208043, "charter": false, "level": "", "enrollment": 172, "teachers_fte": 73.4100036621094}, {"ncessch": "050007201630", "school_name": "MT. JUDEA K-12 SCHOOL", "city": "MT. JUDEA", "state": "AR", "zip": "72655", "lat": 35.921299999, "lon": -93.059383, "charter": false, "level": "", "enrollment": 184, "teachers_fte": 67.5999984741211}], "0500073": [{"ncessch": "050007300001", "school_name": "ACORN ELEMENTARY SCHOOL", "city": "MENA", "state": "AR", "zip": "71953", "lat": 34.638112, "lon": -94.2084149999999, "charter": false, "level": "", "enrollment": 342, "teachers_fte": 25.6299991607666}, {"ncessch": "050007300002", "school_name": "ACORN HIGH SCHOOL", "city": "MENA", "state": "AR", "zip": "71953", "lat": 34.637079, "lon": -94.206826, "charter": false, "level": "", "enrollment": 293, "teachers_fte": 49.8899993896484}, {"ncessch": "050007301642", "school_name": "ODEN SCHOOLS", "city": "ODEN", "state": "AR", "zip": "71961", "lat": 34.620104, "lon": -93.780154, "charter": false, "level": "", "enrollment": 164, "teachers_fte": 24.5400009155273}], "0500074": [{"ncessch": "050007401030", "school_name": "LISA ACADEMY", "city": "LITTLE ROCK", "state": "AR", "zip": "72205", "lat": 34.751402, "lon": -92.38821, "charter": true, "level": "", "enrollment": 503, "teachers_fte": 38.7999992370605}, {"ncessch": "050007401107", "school_name": "LISA ACADEMY HIGH", "city": "LITTLE ROCK", "state": "AR", "zip": "72205", "lat": 34.7514640000001, "lon": -92.3494899999999, "charter": true, "level": "", "enrollment": 412, "teachers_fte": 44.2299995422363}, {"ncessch": "050007401473", "school_name": "LISA ACADEMY NORTH MIDDLE SCHOOL", "city": "SHERWOOD", "state": "AR", "zip": "72117", "lat": 34.8005200000001, "lon": -92.212971, "charter": true, "level": "", "enrollment": 336, "teachers_fte": 29.4699993133545}, {"ncessch": "050007401485", "school_name": "LISA ACADEMY NORTH ELEMENTARY SCHOOL", "city": "SHERWOOD", "state": "AR", "zip": "72117", "lat": 34.8005200000001, "lon": -92.212971, "charter": true, "level": "", "enrollment": 694, "teachers_fte": 39.4599990844727}, {"ncessch": "050007401501", "school_name": "LISA ACADEMY NORTH HIGH SCHOOL", "city": "SHERWOOD", "state": "AR", "zip": "72117", "lat": 34.8005200000001, "lon": -92.212971, "charter": true, "level": "", "enrollment": 299, "teachers_fte": 31.1599998474121}, {"ncessch": "050007401624", "school_name": "LISA ACADEMY CHENAL", "city": "LITTLE ROCK", "state": "AR", "zip": "72211", "lat": 34.7516010000001, "lon": -92.409413001, "charter": true, "level": "", "enrollment": 626, "teachers_fte": 38.1100006103516}, {"ncessch": "050007401672", "school_name": "LISA ACADEMY SPRINGDALE", "city": "SPRINGDALE", "state": "AR", "zip": "72764", "lat": 36.183435, "lon": -94.131004999, "charter": true, "level": "", "enrollment": 362, "teachers_fte": 24.5400009155273}, {"ncessch": "050007401739", "school_name": "LISA ACADEMY ARKANSAS HYBRID SCHOOL", "city": "LITTLE ROCK", "state": "AR", "zip": "72205", "lat": 34.7508540000001, "lon": -92.3874079999999, "charter": true, "level": "", "enrollment": 222, "teachers_fte": 12.6300001144409}, {"ncessch": "050007405142", "school_name": "LISA ACADEMY ROGERS-BENTONVILLE ELEMENTARY SCHOOL", "city": "ROGERS", "state": "AR", "zip": "72758", "lat": 36.3292970000001, "lon": -94.190032001, "charter": true, "level": "", "enrollment": 277, "teachers_fte": 24.6599998474121}, {"ncessch": "050007405143", "school_name": "LISA ACADEMY ROGERS-BENTONVILLE MIDDLE SCHOOL", "city": "ROGERS", "state": "AR", "zip": "72758", "lat": 36.3292970000001, "lon": -94.190032001, "charter": true, "level": "", "enrollment": 38, "teachers_fte": 3.14000010490417}], "0500075": [{"ncessch": "050007501031", "school_name": "EAST ARKANSAS SECONDARY CAREER CENTER", "city": "FORRECT CITY", "state": "AR", "zip": "72335", "lat": 35.041617, "lon": -90.767771, "charter": false, "level": "", "enrollment": 0, "teachers_fte": 0.0}], "0500076": [{"ncessch": "050007601643", "school_name": "ST. JOE K-12 SCHOOL", "city": "ST. JOE", "state": "AR", "zip": "72675", "lat": 36.028463, "lon": -92.7984759989999, "charter": false, "level": "", "enrollment": 172, "teachers_fte": 38.0099983215332}, {"ncessch": "050007601645", "school_name": "BRUNO-PYATT K-12 SCHOOL", "city": "EVERTON", "state": "AR", "zip": "72633", "lat": 36.1809200000001, "lon": -92.849778, "charter": false, "level": "", "enrollment": 158, "teachers_fte": 39.4900016784668}, {"ncessch": "050007601646", "school_name": "WESTERN GROVE K-12 SCHOOL", "city": "WESTERN GROVE", "state": "AR", "zip": "72685", "lat": 36.0987299990001, "lon": -92.955471, "charter": false, "level": "", "enrollment": 241, "teachers_fte": 43.060001373291}], "0500078": [{"ncessch": "050007801078", "school_name": "HAAS HALL ACADEMY", "city": "FAYETTEVILLE", "state": "AR", "zip": "72703", "lat": 36.121926, "lon": -94.143291, "charter": true, "level": "", "enrollment": 433, "teachers_fte": 32.7700004577637}, {"ncessch": "050007801639", "school_name": "HAAS HALL ACADEMY AT THE LANE", "city": "ROGERS", "state": "AR", "zip": "72756", "lat": 36.331289999, "lon": -94.117241, "charter": true, "level": "", "enrollment": 255, "teachers_fte": 20.7299995422363}, {"ncessch": "050007801640", "school_name": "HAAS HALL ACADEMY JONES CENTER", "city": "SPRINGDALE", "state": "AR", "zip": "72764", "lat": 36.1868880000001, "lon": -94.1194849999999, "charter": true, "level": "", "enrollment": 155, "teachers_fte": 16.0200004577637}, {"ncessch": "050007801718", "school_name": "HAAS HALL BENTONVILLE", "city": "Bentonville", "state": "AR", "zip": "72712", "lat": 36.344437, "lon": -94.198006, "charter": true, "level": "", "enrollment": 405, "teachers_fte": 25.0499992370605}], "0500079": [{"ncessch": "050007900818", "school_name": "OLA ELEMENTARY SCHOOL", "city": "OLA", "state": "AR", "zip": "72853", "lat": 35.0357450000001, "lon": -93.2250930009999, "charter": false, "level": "", "enrollment": 313, "teachers_fte": 26.6100006103516}, {"ncessch": "050007901521", "school_name": "TWO RIVERS HIGH SCHOOL", "city": "OLA", "state": "AR", "zip": "72853", "lat": 35.01082, "lon": -93.273200001, "charter": false, "level": "", "enrollment": 470, "teachers_fte": 59.1399993896484}], "0500080": [{"ncessch": "050008001098", "school_name": "ARKANSAS NORTHEASTERN COLLEGE TECHNICAL CENTER", "city": "BURDETTE", "state": "AR", "zip": "72321", "lat": 35.8164009990001, "lon": -89.967366, "charter": false, "level": "", "enrollment": 0, "teachers_fte": 0.0}], "0500081": [{"ncessch": "050008100320", "school_name": "NORTHWEST TECHICAL INSTITUTE SECONDARY CAREER CENTER", "city": "FAYETTEVILLE", "state": "AR", "zip": "72701", "lat": 36.0566670000001, "lon": -94.192727, "charter": false, "level": "", "enrollment": 0, "teachers_fte": 0.0}], "0500082": [{"ncessch": "050008201186", "school_name": "WALNUT RIDGE ELEMENTARY SCHOOL", "city": "WALNUT RIDGE", "state": "AR", "zip": "72476", "lat": 36.062893, "lon": -90.955259, "charter": false, "level": "", "enrollment": 580, "teachers_fte": 39.2200012207031}, {"ncessch": "050008201216", "school_name": "WALNUT RIDGE HIGH SCHOOL", "city": "WALNUT RIDGE", "state": "AR", "zip": "72476", "lat": 36.062143, "lon": -90.957295, "charter": false, "level": "", "enrollment": 462, "teachers_fte": 53.9700012207031}], "0500390": [{"ncessch": "050039001561", "school_name": "ARK CONSOLIDATED HIGH SCHOOL", "city": "LITTLE ROCK", "state": "AR", "zip": "72203", "lat": 34.74183, "lon": -92.271921, "charter": false, "level": "", "enrollment": 104, "teachers_fte": 12.7399997711182}, {"ncessch": "050039001575", "school_name": "HARRISBURG JTC SCHOOL", "city": "HARRISBURG", "state": "AR", "zip": "72432", "lat": 35.5839130000001, "lon": -90.7187499999999, "charter": false, "level": "", "enrollment": 16, "teachers_fte": 4.57000017166138}, {"ncessch": "050039001577", "school_name": "MANSFIELD JTC SCHOOL", "city": "MANSFIELD", "state": "AR", "zip": "72944", "lat": 35.0112090000001, "lon": -94.253314001, "charter": false, "level": "", "enrollment": 27, "teachers_fte": 6.09000015258789}, {"ncessch": "050039001589", "school_name": "DERMOTT JTC SCHOOL", "city": "DERMOTT", "state": "AR", "zip": "71638", "lat": 33.514895999, "lon": -91.412383, "charter": false, "level": "", "enrollment": 8, "teachers_fte": 2.46000003814697}, {"ncessch": "050039001674", "school_name": "CSTP-CIVILIAN STUDENT TRAINING PROGRAM", "city": "NORTH LITTLE ROCK", "state": "AR", "zip": "72199", "lat": 34.824031, "lon": -92.279355, "charter": false, "level": "", "enrollment": 13, "teachers_fte": 3.63000011444092}], "0500394": [{"ncessch": "050039401447", "school_name": "ARKANSAS VIRTUAL ACADEMY JR", "city": "LITTLE ROCK", "state": "AR", "zip": "72211", "lat": 34.7397030000001, "lon": -92.395167, "charter": true, "level": "", "enrollment": 997, "teachers_fte": 47.310001373291}, {"ncessch": "050039401461", "school_name": "ARKANSAS VIRTUAL ACADEMY", "city": "LITTLE ROCK", "state": "AR", "zip": "72211", "lat": 34.7397030000001, "lon": -92.395167, "charter": true, "level": "", "enrollment": 1041, "teachers_fte": 36.9500007629395}, {"ncessch": "050039401604", "school_name": "ARKANSAS VIRTUAL ACADEMY HIGH SCHOOL", "city": "NORTH LITTLE ROCK", "state": "AR", "zip": "72116", "lat": 34.7966900000001, "lon": -92.2211609999999, "charter": true, "level": "", "enrollment": 1695, "teachers_fte": 205.820007324219}], "0500398": [{"ncessch": "050039801467", "school_name": "ESTEM MIDDLE SCHOOL", "city": "LITTLE ROCK", "state": "AR", "zip": "72201", "lat": 34.7460779990001, "lon": -92.271625, "charter": true, "level": "", "enrollment": 406, "teachers_fte": 32.8899993896484}, {"ncessch": "050039801468", "school_name": "ESTEM ELEMENTARY SCHOOL", "city": "LITTLE ROCK", "state": "AR", "zip": "72201", "lat": 34.746472, "lon": -92.271514, "charter": true, "level": "", "enrollment": 892, "teachers_fte": 57.8499984741211}, {"ncessch": "050039801470", "school_name": "ESTEM PUBLIC CHARTER HIGH SCHOOL", "city": "LITTLE ROCK", "state": "AR", "zip": "72201", "lat": 34.7209569990001, "lon": -92.34106, "charter": true, "level": "", "enrollment": 528, "teachers_fte": 35.25}, {"ncessch": "050039801658", "school_name": "ESTEM EAST VILLAGE JUNIOR HIGH PUBLIC CHARTER SCHOOL", "city": "LITTLE ROCK", "state": "AR", "zip": "72202", "lat": 34.743170999, "lon": -92.257008, "charter": true, "level": "", "enrollment": 292, "teachers_fte": 28.7399997711182}, {"ncessch": "050039801666", "school_name": "ESTEM EAST VILLAGE ELEMENTARY PUBLIC CHARTER SCHOOL", "city": "LITTLE ROCK", "state": "AR", "zip": "72202", "lat": 34.7429310000001, "lon": -92.257978, "charter": true, "level": "", "enrollment": 772, "teachers_fte": 52.3400001525879}], "0500402": [{"ncessch": "050040201504", "school_name": "JACKSONVILLE LIGHTHOUSE ELEMENTARY ACADEMY", "city": "JACKSONVILLE", "state": "AR", "zip": "72076", "lat": 34.8681549990001, "lon": -92.1088119999999, "charter": true, "level": "", "enrollment": 296, "teachers_fte": 20.1499996185303}, {"ncessch": "050040201531", "school_name": "FLIGHTLINE UPPER ACADEMY", "city": "LRAFB", "state": "AR", "zip": "72099", "lat": 34.8941970000001, "lon": -92.136893, "charter": true, "level": "", "enrollment": 155, "teachers_fte": 16.7099990844727}, {"ncessch": "050040201541", "school_name": "PINE BLUFF LIGHTHOUSE ELEMENTARY ACADEMY", "city": "PINE BLUFF", "state": "AR", "zip": "71601", "lat": 34.2282430000001, "lon": -92.010014, "charter": true, "level": "", "enrollment": 145, "teachers_fte": 11.7399997711182}, {"ncessch": "050040201551", "school_name": "PINE BLUFF LIGHTHOUSE MIDDLE SCHOOL ACADEMY", "city": "PINE BLUFF", "state": "AR", "zip": "71601", "lat": 34.2282430000001, "lon": -92.010014, "charter": true, "level": "", "enrollment": 63, "teachers_fte": 6.21999979019165}, {"ncessch": "050040201560", "school_name": "COLLEGE PREP ACADEMY", "city": "JACKSONVILLE", "state": "AR", "zip": "72076", "lat": 34.8681549990001, "lon": -92.1088119999999, "charter": true, "level": "", "enrollment": 179, "teachers_fte": null}, {"ncessch": "050040201613", "school_name": "CAPITAL CITY LIGHTHOUSE ELEMENTARY ACADEMY", "city": "NORTH LITTLE ROCK", "state": "AR", "zip": "72118", "lat": 34.7913060000001, "lon": -92.291749, "charter": true, "level": "", "enrollment": 124, "teachers_fte": 9.30000019073486}], "0500405": [{"ncessch": "050040501157", "school_name": "WICKES ELEMENTARY SCHOOL", "city": "WICKES", "state": "AR", "zip": "71973", "lat": 34.29803, "lon": -94.336508, "charter": false, "level": "", "enrollment": 242, "teachers_fte": 14.8599996566772}, {"ncessch": "050040501591", "school_name": "COSSATOT RIVER HIGH SCHOOL", "city": "COVE", "state": "AR", "zip": "71937", "lat": 34.383183, "lon": -94.386966, "charter": false, "level": "", "enrollment": 374, "teachers_fte": 34.7599983215332}, {"ncessch": "050040501620", "school_name": "UMPIRE K-12 SCHOOL", "city": "UMPIRE", "state": "AR", "zip": "71971", "lat": 34.27795, "lon": -94.052971, "charter": false, "level": "", "enrollment": 92, "teachers_fte": 17.8600006103516}, {"ncessch": "050040505140", "school_name": "COSSATOT RIVER PRIMARY SCHOOL", "city": "VANDERVOORT", "state": "AR", "zip": "71972", "lat": 34.3833750000001, "lon": -94.366969001, "charter": false, "level": "", "enrollment": 153, "teachers_fte": 10.1300001144409}], "0500407": [{"ncessch": "050040701539", "school_name": "SIATECH HIGH CHARTER", "city": "LITTLE ROCK", "state": "AR", "zip": "72209", "lat": 34.686004, "lon": -92.3213939999999, "charter": true, "level": "", "enrollment": 381, "teachers_fte": 5.90000009536743}], "0500408": [{"ncessch": "050040801579", "school_name": "PREMIER HIGH SCHOOL OF LITTLE ROCK", "city": "LITTLE ROCK", "state": "AR", "zip": "72206", "lat": 34.734998999, "lon": -92.289956, "charter": true, "level": "", "enrollment": 82, "teachers_fte": 12.0299997329712}, {"ncessch": "050040805144", "school_name": "PREMIER HIGH SCHOOL OF FORT SMITH", "city": "FORT SMITH", "state": "AR", "zip": "72903", "lat": 35.3716920000001, "lon": -94.393953, "charter": true, "level": "", "enrollment": 63, "teachers_fte": 11.2200002670288}, {"ncessch": "050040805145", "school_name": "PREMIER HIGH SCHOOL OF TEXARKANA", "city": "TEXARKANA", "state": "AR", "zip": "71854", "lat": 33.453557, "lon": -94.041862, "charter": true, "level": "", "enrollment": 37, "teachers_fte": 4.84000015258789}, {"ncessch": "050040805146", "school_name": "PREMIER HIGH SCHOOL ONLINE", "city": "LITTLE ROCK", "state": "AR", "zip": "72202", "lat": 34.7347350000001, "lon": -92.2891499999999, "charter": true, "level": "", "enrollment": 125, "teachers_fte": 4.69999980926514}], "0500409": [{"ncessch": "050040901574", "school_name": "NORTHWEST ARKANSAS CLASSICAL ACADEMY", "city": "BENTONVILLE", "state": "AR", "zip": "72712", "lat": 36.3619849990001, "lon": -94.2281189999999, "charter": true, "level": "", "enrollment": 637, "teachers_fte": 41.4599990844727}, {"ncessch": "050040901606", "school_name": "FOUNDERS CLASSICAL ACADEMIES OF ARKANSAS HIGH SCHOOL ROGERS", "city": "BENTONVILLE", "state": "AR", "zip": "72712", "lat": 36.3619849990001, "lon": -94.2281189999999, "charter": true, "level": "", "enrollment": 250, "teachers_fte": 25.9300003051758}, {"ncessch": "050040901685", "school_name": "FOUNDERS CLASSICAL ACADEMIES OF ARKANSAS WEST LITTLE ROCK", "city": "LITTLE ROCK", "state": "AR", "zip": "72212", "lat": 34.772613, "lon": -92.4465529999999, "charter": true, "level": "", "enrollment": 71, "teachers_fte": 12.0600004196167}, {"ncessch": "050040901727", "school_name": "FOUNDERS CLASSICAL ACADEMIES OF ARKANSAS WEST LITTLE ROCK EL", "city": "LITTLE ROCK", "state": "AR", "zip": "72212", "lat": 34.772613, "lon": -92.4465529999999, "charter": true, "level": "", "enrollment": 59, "teachers_fte": 4.98999977111816}, {"ncessch": "050040905131", "school_name": "FOUNDERS CLASSICAL ACADEMIES OF ARKANSAS ROGERS", "city": "ROGERS", "state": "AR", "zip": "72758", "lat": 36.325332001, "lon": -94.199605, "charter": true, "level": "", "enrollment": 514, "teachers_fte": 34.0}, {"ncessch": "050040905132", "school_name": "FOUNDERS CLASSICAL ACADEMY ELEMENTARY ONLINE", "city": "BENTONVILLE", "state": "AR", "zip": "72712", "lat": 36.3620680000001, "lon": -94.228158, "charter": true, "level": "", "enrollment": 4, "teachers_fte": 0.519999980926514}, {"ncessch": "050040905133", "school_name": "FOUNDERS CLASSICAL ACADEMY HIGH SCHOOL ONLINE", "city": "BENTONVILLE", "state": "AR", "zip": "72712", "lat": 36.3620680000001, "lon": -94.228158, "charter": true, "level": "", "enrollment": 16, "teachers_fte": 2.1800000667572}], "0500411": [{"ncessch": "050041101599", "school_name": "EXALT ACADEMY OF SOUTHWEST LITTLE ROCK", "city": "LITTLE ROCK", "state": "AR", "zip": "72209", "lat": 34.6740320010001, "lon": -92.345821001, "charter": true, "level": "", "enrollment": 638, "teachers_fte": 64.3399963378906}], "0500417": [{"ncessch": "050041701632", "school_name": "ARKANSAS CONNECTIONS ACADEMY HIGH", "city": "BENTONVILLE", "state": "AR", "zip": "72712", "lat": 36.383173001, "lon": -94.1706159999999, "charter": true, "level": "", "enrollment": 3231, "teachers_fte": 77.0199966430664}], "0500418": [{"ncessch": "050041801627", "school_name": "FURTURE SCHOOL OF FORT SMITH", "city": "FORT SMITH", "state": "AR", "zip": "72917", "lat": 35.3914970010001, "lon": -94.419365, "charter": true, "level": "", "enrollment": 241, "teachers_fte": 39.189998626709}], "0500419": [{"ncessch": "050041900901", "school_name": "ADKINS PRE-K CENTER", "city": "JACKSONVILLE", "state": "AR", "zip": "72076", "lat": 34.839232999, "lon": -92.1372499999999, "charter": false, "level": "", "enrollment": 211, "teachers_fte": 13.0}, {"ncessch": "050041900905", "school_name": "BAYOU METO ELEMENTARY SCHOOL", "city": "JACKSONVILLE", "state": "AR", "zip": "72076", "lat": 34.950993001, "lon": -92.157027, "charter": false, "level": "", "enrollment": 443, "teachers_fte": 27.3099994659424}, {"ncessch": "050041900919", "school_name": "JACKSONVILLE HIGH SCHOOL", "city": "JACKSONVILLE", "state": "AR", "zip": "72076", "lat": 34.8653190000001, "lon": -92.1245299999999, "charter": false, "level": "", "enrollment": 1168, "teachers_fte": 83.1900024414062}, {"ncessch": "050041901256", "school_name": "MURRELL TAYLOR ELEM. SCHOOL", "city": "JACKSONVILLE", "state": "AR", "zip": "72076", "lat": 34.8551200000001, "lon": -92.087100999, "charter": false, "level": "", "enrollment": 350, "teachers_fte": 25.4300003051758}, {"ncessch": "050041901510", "school_name": "JACKSONVILLE MIDDLE SCHOOL", "city": "JACSKONVILLE", "state": "AR", "zip": "72076", "lat": 34.8842700000001, "lon": -92.1586809999999, "charter": false, "level": "", "enrollment": 966, "teachers_fte": 72.9300003051758}, {"ncessch": "050041901655", "school_name": "BOBBY G LESTER ELEMENTARY SCHOOL", "city": "JACKSONVILLE", "state": "AR", "zip": "72076", "lat": 34.879892999, "lon": -92.1571759999999, "charter": false, "level": "", "enrollment": 587, "teachers_fte": 36.560001373291}, {"ncessch": "050041901738", "school_name": "JACKSONVILLE ELEMENTARY SCHOOL", "city": "JACKSONVILLE", "state": "AR", "zip": "72076", "lat": 34.887869999, "lon": -92.10249, "charter": false, "level": "", "enrollment": 792, "teachers_fte": 47.1100006103516}], "0500420": [{"ncessch": "050042001638", "school_name": "THE EXCEL CENTER", "city": "LITTLE ROCK", "state": "AR", "zip": "72209", "lat": 34.68375, "lon": -92.323315, "charter": true, "level": "", "enrollment": 99, "teachers_fte": 11.7299995422363}], "0500421": [{"ncessch": "050042101656", "school_name": "IVY HILL ACADEMY OF SCHOLARSHIP", "city": "LITTLE ROCK", "state": "AR", "zip": "72206", "lat": 34.7260010000001, "lon": -92.2948, "charter": true, "level": "", "enrollment": 163, "teachers_fte": 16.5100002288818}, {"ncessch": "050042101669", "school_name": "NICHOLS INTERMEDIATE ACADEMY", "city": "LITTLE ROCK", "state": "AR", "zip": "72206", "lat": 34.7260010000001, "lon": -92.2948, "charter": true, "level": "", "enrollment": 140, "teachers_fte": 9.38000011444092}, {"ncessch": "050042101712", "school_name": "PRODIGY PREPARATORY ACADEMY OF SERVICE", "city": "Little Rock", "state": "AR", "zip": "72206", "lat": 34.7260010000001, "lon": -92.2948, "charter": true, "level": "", "enrollment": 91, "teachers_fte": 10.2799997329712}], "0500423": [{"ncessch": "050042301657", "school_name": "FRIENDSHIP ASPIRE ACADEMY", "city": "PINE BLUFF", "state": "AR", "zip": "71603", "lat": 34.1895630000001, "lon": -92.0229169999999, "charter": true, "level": "", "enrollment": 373, "teachers_fte": 20.5300006866455}, {"ncessch": "050042301681", "school_name": "FRIENDSHIP ACADEMY LITTLE ROCK ELEMENTARY", "city": "LITTLE ROCK", "state": "AR", "zip": "72202", "lat": 34.7289180000001, "lon": -92.3145499999999, "charter": true, "level": "", "enrollment": 241, "teachers_fte": 14.8400001525879}, {"ncessch": "050042301683", "school_name": "FRIENDSHIP ASPIRE ACADEMY LITTLE ROCK MIDDLE SCHOOL", "city": "LITTLE ROCK", "state": "AR", "zip": "72202", "lat": 34.7289180000001, "lon": -92.3145499999999, "charter": true, "level": "", "enrollment": 67, "teachers_fte": 4.51999998092651}, {"ncessch": "050042301707", "school_name": "FRIENDSHIP ASPIRE ACADEMY SOUTHEAST PINE BLUFF", "city": "PINE BLUFF", "state": "AR", "zip": "71603", "lat": 34.1516970000001, "lon": -92.0176519999999, "charter": true, "level": "", "enrollment": 75, "teachers_fte": 18.6900005340576}, {"ncessch": "050042305134", "school_name": "FRIENDSHIP ASPIRE ACADEMY DOWNTOWN PINE BLUFF", "city": "PINE BLUFF", "state": "AR", "zip": "71601", "lat": 34.222611999, "lon": -92.003749, "charter": true, "level": "", "enrollment": 157, "teachers_fte": 10.2600002288818}], "0500425": [{"ncessch": "050042501686", "school_name": "PREMIER HIGH SCHOOL OF NORTH LITTLE ROCK", "city": "NORTH LITTLE ROCK", "state": "AR", "zip": "72114", "lat": 34.781136001, "lon": -92.274917, "charter": true, "level": "", "enrollment": 135, "teachers_fte": 6.51000022888184}], "0500426": [{"ncessch": "050042601693", "school_name": "HOPE ACADEMY OF NWA ELEMENTARY", "city": "Bentonville", "state": "AR", "zip": "72713", "lat": 36.3172999990001, "lon": -94.344193001, "charter": true, "level": "", "enrollment": 50, "teachers_fte": 9.0600004196167}], "0500428": [{"ncessch": "050042801690", "school_name": "ARKANSAS STATE UNIVERSITY-MOUNTAIN HOME CAREER CENTER", "city": "MOUNTAIN HOME", "state": "AR", "zip": "72653", "lat": 36.320456, "lon": -92.388594999, "charter": false, "level": "", "enrollment": 0, "teachers_fte": 0.0}], "0500429": [{"ncessch": "050042901696", "school_name": "UACCM TECHNICAL CENTER", "city": "MORRILTON", "state": "AR", "zip": "72210", "lat": 35.172021, "lon": -92.729549, "charter": false, "level": "", "enrollment": 0, "teachers_fte": 0.0}], "0500430": [{"ncessch": "050043001701", "school_name": "UA HOPE TEXARKANA TECHNICAL CENTER", "city": "Hope", "state": "AR", "zip": "71801", "lat": 33.6410300000001, "lon": -93.5964129989999, "charter": false, "level": "", "enrollment": 0, "teachers_fte": 0.0}], "0500431": [{"ncessch": "050043101703", "school_name": "UACCB TECHNICAL CENTER", "city": "Batesville", "state": "AR", "zip": "72501", "lat": 35.7934099990001, "lon": -91.616638, "charter": false, "level": "", "enrollment": 0, "teachers_fte": 0.0}], "0500432": [{"ncessch": "050043201704", "school_name": "OZARKA COLLEGE TECHNICAL CENTER", "city": "MELBOURNE", "state": "AR", "zip": "72556", "lat": 36.0532000010001, "lon": -91.8963429999999, "charter": false, "level": "", "enrollment": 0, "teachers_fte": 0.0}], "0500433": [{"ncessch": "050043301705", "school_name": "ASU NEWPORT SEC CAREER CENTER (IGNITE)", "city": "NEWPORT", "state": "AR", "zip": "72112", "lat": 35.6405040000001, "lon": -91.190576, "charter": false, "level": "", "enrollment": 0, "teachers_fte": 0.0}], "0500434": [{"ncessch": "050043401706", "school_name": "SOUTHEAST ARK COLLEGE CAREET CENTER", "city": "PINE BLUFF", "state": "AR", "zip": "71601", "lat": 34.2115830010001, "lon": -92.028375999, "charter": false, "level": "", "enrollment": 0, "teachers_fte": 0.0}], "0500435": [{"ncessch": "050043501710", "school_name": "UA RICH MOUNTAIN TECHNICAL CENTER", "city": "Mena", "state": "AR", "zip": "71953", "lat": 34.59119, "lon": -94.220161, "charter": false, "level": "", "enrollment": 0, "teachers_fte": 0.0}], "0500436": [{"ncessch": "050043601721", "school_name": "ARK TECH UNIVERISTY CAREER CENTER", "city": "RUSSELLVILLE", "state": "AR", "zip": "72801", "lat": 35.25782, "lon": -93.116734, "charter": false, "level": "", "enrollment": 0, "teachers_fte": 0.0}], "0500437": [{"ncessch": "050043701713", "school_name": "BLACK RIVER TECHNICAL COLLEGE CAREER CENTER (TOPPS)", "city": "POCAHONTAS", "state": "AR", "zip": "72455", "lat": 36.2398390000001, "lon": -90.951158001, "charter": false, "level": "", "enrollment": 0, "teachers_fte": 0.0}], "0500438": [{"ncessch": "050043801715", "school_name": "COSSATOT COMMUNITY COLLEGE OF THE UA", "city": "Dequeen", "state": "AR", "zip": "71832", "lat": 34.043368001, "lon": -94.36724, "charter": false, "level": "", "enrollment": 0, "teachers_fte": 0.0}], "0500439": [{"ncessch": "050043901723", "school_name": "ARKANSAS STATE UNIVERSITY?MIDSOUTH TECHNICAL CENTER", "city": "WEST MEMPHIS", "state": "AR", "zip": "72301", "lat": 35.145384001, "lon": -90.222865, "charter": false, "level": "", "enrollment": 0, "teachers_fte": 0.0}], "0500440": [{"ncessch": "050044001740", "school_name": "WESTWIND SCHOOL FOR PERFORMING ARTS SCHOOL", "city": "NORTH LITTLE ROCK", "state": "AR", "zip": "72113", "lat": 34.8230340000001, "lon": -92.3471509999999, "charter": true, "level": "", "enrollment": 83, "teachers_fte": 8.97999954223633}], "0500441": [{"ncessch": "050044101742", "school_name": "RESPONSIVE ED SOLUTIONS PREMIER HIGH SCHOOL OF SPRINGDALE", "city": "SPRINGDALE", "state": "AR", "zip": "72762", "lat": 36.1915520000001, "lon": -94.164674, "charter": true, "level": "", "enrollment": 94, "teachers_fte": 4.78999996185303}], "0502250": [{"ncessch": "050225000003", "school_name": "ALMA INTERMEDIATE SCHOOL", "city": "ALMA", "state": "AR", "zip": "72921", "lat": 35.493566, "lon": -94.240537, "charter": false, "level": "", "enrollment": 723, "teachers_fte": 36.5900001525879}, {"ncessch": "050225000004", "school_name": "ALMA HIGH SCHOOL", "city": "ALMA", "state": "AR", "zip": "72921", "lat": 35.4753610000001, "lon": -94.21939, "charter": false, "level": "", "enrollment": 1003, "teachers_fte": 109.720001220703}, {"ncessch": "050225000005", "school_name": "ALMA MIDDLE SCHOOL", "city": "ALMA", "state": "AR", "zip": "72921", "lat": 35.489001, "lon": -94.215007, "charter": false, "level": "", "enrollment": 716, "teachers_fte": 60.9799995422363}, {"ncessch": "050225001350", "school_name": "ALMA PRIMARY SCHOOL", "city": "ALMA", "state": "AR", "zip": "72921", "lat": 35.489453, "lon": -94.200688, "charter": false, "level": "", "enrollment": 701, "teachers_fte": 36.0}], "0502280": [{"ncessch": "050228000006", "school_name": "ALPENA ELEMENTARY SCHOOL", "city": "ALPENA", "state": "AR", "zip": "72611", "lat": 36.291456001, "lon": -93.294979, "charter": false, "level": "", "enrollment": 235, "teachers_fte": 17.9799995422363}, {"ncessch": "050228000007", "school_name": "ALPENA HIGH SCHOOL", "city": "ALPENA", "state": "AR", "zip": "72611", "lat": 36.291456001, "lon": -93.294979, "charter": false, "level": "", "enrollment": 235, "teachers_fte": 64.1399993896484}], "0502430": [{"ncessch": "050243000018", "school_name": "ARKADELPHIA HIGH SCHOOL", "city": "ARKADELPHIA", "state": "AR", "zip": "71923", "lat": 34.12249, "lon": -93.09836, "charter": false, "level": "", "enrollment": 586, "teachers_fte": 63.4700012207031}, {"ncessch": "050243000020", "school_name": "GOZA MIDDLE SCHOOL", "city": "ARKADELPHIA", "state": "AR", "zip": "71923", "lat": 34.1224490010001, "lon": -93.095203, "charter": false, "level": "", "enrollment": 418, "teachers_fte": 29.4799995422363}, {"ncessch": "050243000021", "school_name": "PEAKE ELEMENTARY SCHOOL", "city": "ARKADELPHIA", "state": "AR", "zip": "71923", "lat": 34.1207330010001, "lon": -93.062739, "charter": false, "level": "", "enrollment": 407, "teachers_fte": 28.2900009155273}, {"ncessch": "050243000022", "school_name": "LOUISA PERRITT PRIMARY", "city": "ARKADELPHIA", "state": "AR", "zip": "71923", "lat": 34.1129740000001, "lon": -93.073908, "charter": false, "level": "", "enrollment": 502, "teachers_fte": 26.9300003051758}], "0502550": [{"ncessch": "050255000026", "school_name": "ARMOREL ELEMENTARY SCHOOL", "city": "ARMOREL", "state": "AR", "zip": "72310", "lat": 35.9162000000001, "lon": -89.799483, "charter": false, "level": "", "enrollment": 224, "teachers_fte": 18.5}, {"ncessch": "050255000027", "school_name": "ARMOREL HIGH SCHOOL", "city": "ARMOREL", "state": "AR", "zip": "72310", "lat": 35.9171880000001, "lon": -89.799526, "charter": false, "level": "", "enrollment": 192, "teachers_fte": 34.7099990844727}], "0502580": [{"ncessch": "050258000028", "school_name": "ASHDOWN HIGH SCHOOL", "city": "ASHDOWN", "state": "AR", "zip": "71822", "lat": 33.6704809990001, "lon": -94.120236001, "charter": false, "level": "", "enrollment": 398, "teachers_fte": 47.1500015258789}, {"ncessch": "050258000031", "school_name": "ASHDOWN JUNIOR HIGH SCHOOL", "city": "ASHDOWN", "state": "AR", "zip": "71822", "lat": 33.6654160000001, "lon": -94.113994001, "charter": false, "level": "", "enrollment": 283, "teachers_fte": 24.0900001525879}, {"ncessch": "050258001708", "school_name": "ASHDOWN ELEMENTARY SCHOOL", "city": "Ashdown", "state": "AR", "zip": "71822", "lat": 33.6707939990001, "lon": -94.14661, "charter": false, "level": "", "enrollment": 627, "teachers_fte": 38.9900016784668}], "0502610": [{"ncessch": "050261000032", "school_name": "ATKINS ELEMENTARY SCHOOL", "city": "ATKINS", "state": "AR", "zip": "72823", "lat": 35.245708, "lon": -92.94434, "charter": false, "level": "", "enrollment": 370, "teachers_fte": 26.6000003814697}, {"ncessch": "050261000033", "school_name": "ATKINS HIGH SCHOOL", "city": "ATKINS", "state": "AR", "zip": "72823", "lat": 35.245217, "lon": -92.941764, "charter": false, "level": "", "enrollment": 328, "teachers_fte": 66.5999984741211}, {"ncessch": "050261000438", "school_name": "ATKINS MIDDLE SCHOOL", "city": "ATKINS", "state": "AR", "zip": "72823", "lat": 35.245708, "lon": -92.94434, "charter": false, "level": "", "enrollment": 291, "teachers_fte": 28.1599998474121}], "0502670": [{"ncessch": "050267000034", "school_name": "AUGUSTA HIGH SCHOOL", "city": "AUGUSTA", "state": "AR", "zip": "72006", "lat": 35.283558, "lon": -91.355574, "charter": false, "level": "", "enrollment": 186, "teachers_fte": 35.2099990844727}, {"ncessch": "050267000036", "school_name": "AUGUSTA ELEMENTARY SCHOOL", "city": "AUGUSTA", "state": "AR", "zip": "72006", "lat": 35.284590001, "lon": -91.35587, "charter": false, "level": "", "enrollment": 185, "teachers_fte": 20.7700004577637}], "0502700": [{"ncessch": "050270000037", "school_name": "H.L. LUBKER ELEMENTARY SCHOOL", "city": "BALD KNOB", "state": "AR", "zip": "72010", "lat": 35.314149, "lon": -91.572872, "charter": false, "level": "", "enrollment": 482, "teachers_fte": 32.9599990844727}, {"ncessch": "050270000038", "school_name": "BALD KNOB HIGH SCHOOL", "city": "BALD KNOB", "state": "AR", "zip": "72010", "lat": 35.3167780000001, "lon": -91.5720469999999, "charter": false, "level": "", "enrollment": 366, "teachers_fte": 62.6500015258789}, {"ncessch": "050270000128", "school_name": "BALD KNOB MIDDLE SCHOOL", "city": "BALD KNOB", "state": "AR", "zip": "72010", "lat": 35.315839, "lon": -91.5713509999999, "charter": false, "level": "", "enrollment": 258, "teachers_fte": 24.1599998474121}], "0502730": [{"ncessch": "050273000039", "school_name": "BARTON ELEMENTARY SCHOOL", "city": "BARTON", "state": "AR", "zip": "72312", "lat": 34.5523030000001, "lon": -90.76741, "charter": false, "level": "", "enrollment": 351, "teachers_fte": 28.6000003814697}, {"ncessch": "050273000040", "school_name": "BARTON HIGH SCHOOL", "city": "BARTON", "state": "AR", "zip": "72312", "lat": 34.5523030000001, "lon": -90.76741, "charter": false, "level": "", "enrollment": 323, "teachers_fte": 26.9599990844727}], "0502790": [{"ncessch": "050279000047", "school_name": "BAUXITE HIGH SCHOOL", "city": "BAUXITE", "state": "AR", "zip": "72011", "lat": 34.553522, "lon": -92.510829999, "charter": false, "level": "", "enrollment": 492, "teachers_fte": 70.870002746582}, {"ncessch": "050279000048", "school_name": "PINE HAVEN ELEMENTARY SCHOOL", "city": "BAUXITE", "state": "AR", "zip": "72011", "lat": 34.564759, "lon": -92.504534, "charter": false, "level": "", "enrollment": 750, "teachers_fte": 42.4700012207031}, {"ncessch": "050279001536", "school_name": "BAUXITE MIDDLE SCHOOL", "city": "BAUXITE", "state": "AR", "zip": "72011", "lat": 34.5546420000001, "lon": -92.511457, "charter": false, "level": "", "enrollment": 369, "teachers_fte": 22.1599998474121}, {"ncessch": "050279001590", "school_name": "MINER ACADEMY", "city": "BAUXITE", "state": "AR", "zip": "72011", "lat": 34.553522, "lon": -92.510829999, "charter": true, "level": "", "enrollment": 48, "teachers_fte": 5.25}], "0502820": [{"ncessch": "050282000050", "school_name": "BAY ELEMENTARY SCHOOL", "city": "BAY", "state": "AR", "zip": "72411", "lat": 35.7477500000001, "lon": -90.566336, "charter": false, "level": "", "enrollment": 321, "teachers_fte": 26.1700000762939}, {"ncessch": "050282000051", "school_name": "BAY HIGH SCHOOL", "city": "BAY", "state": "AR", "zip": "72411", "lat": 35.7477500000001, "lon": -90.566336, "charter": false, "level": "", "enrollment": 241, "teachers_fte": 19.4099998474121}], "0502880": [{"ncessch": "050288000054", "school_name": "BEEBE ELEMENTARY SCHOOL", "city": "BEEBE", "state": "AR", "zip": "72012", "lat": 35.066376, "lon": -91.895838, "charter": false, "level": "", "enrollment": 871, "teachers_fte": 47.5499992370605}, {"ncessch": "050288000055", "school_name": "BEEBE JUNIOR HIGH SCHOOL", "city": "BEEBE", "state": "AR", "zip": "72012", "lat": 35.0636640000001, "lon": -91.894537, "charter": false, "level": "", "enrollment": 519, "teachers_fte": 38.4700012207031}, {"ncessch": "050288000057", "school_name": "BEEBE HIGH SCHOOL", "city": "BEEBE", "state": "AR", "zip": "72012", "lat": 35.064282, "lon": -91.892826, "charter": false, "level": "", "enrollment": 1031, "teachers_fte": 132.25}, {"ncessch": "050288000474", "school_name": "BEEBE MIDDLE SCHOOL", "city": "BEEBE", "state": "AR", "zip": "72012", "lat": 35.065462, "lon": -91.89338, "charter": false, "level": "", "enrollment": 487, "teachers_fte": 30.4599990844727}, {"ncessch": "050288001498", "school_name": "BEEBE EARLY CHILDHOOD", "city": "BEEBE", "state": "AR", "zip": "72012", "lat": 35.066111, "lon": -91.8883069999999, "charter": false, "level": "", "enrollment": 486, "teachers_fte": 31.1599998474121}], "0502960": [{"ncessch": "050296000062", "school_name": "ANGIE GRANT ELEMENTARY SCHOOL", "city": "BENTON", "state": "AR", "zip": "72015", "lat": 34.561757001, "lon": -92.5737589999999, "charter": false, "level": "", "enrollment": 527, "teachers_fte": 28.1100006103516}, {"ncessch": "050296000063", "school_name": "BENTON HIGH SCHOOL", "city": "BENTON", "state": "AR", "zip": "72015", "lat": 34.5643640000001, "lon": -92.5743590009999, "charter": false, "level": "", "enrollment": 1319, "teachers_fte": 116.410003662109}, {"ncessch": "050296000064", "school_name": "CALDWELL ELEMENTARY SCHOOL", "city": "BENTON", "state": "AR", "zip": "72015", "lat": 34.5665010000001, "lon": -92.606948001, "charter": false, "level": "", "enrollment": 581, "teachers_fte": 30.3999996185303}, {"ncessch": "050296000065", "school_name": "BENTON JUNIOR HIGH SCHOOL", "city": "BENTON", "state": "AR", "zip": "72015", "lat": 34.567074, "lon": -92.573540001, "charter": false, "level": "", "enrollment": 943, "teachers_fte": 62.189998626709}, {"ncessch": "050296000066", "school_name": "PERRIN ELEMENTARY SCHOOL", "city": "BENTON", "state": "AR", "zip": "72015", "lat": 34.5762350000001, "lon": -92.5689659989999, "charter": false, "level": "", "enrollment": 597, "teachers_fte": 34.4300003051758}, {"ncessch": "050296000067", "school_name": "RINGGOLD ELEMENTARY SCHOOL", "city": "BENTON", "state": "AR", "zip": "72015", "lat": 34.5592470010001, "lon": -92.592208999, "charter": false, "level": "", "enrollment": 570, "teachers_fte": 27.1399993896484}, {"ncessch": "050296000068", "school_name": "BENTON MIDDLE SCHOOL", "city": "BENTON", "state": "AR", "zip": "72015", "lat": 34.565841, "lon": -92.571476999, "charter": false, "level": "", "enrollment": 1367, "teachers_fte": 75.8000030517578}], "0503030": [{"ncessch": "050303000071", "school_name": "PEA RIDGE INTERMEDIATE SCHOOL", "city": "PEA RIDGE", "state": "AR", "zip": "72751", "lat": 36.4546760000001, "lon": -94.113097, "charter": false, "level": "", "enrollment": 374, "teachers_fte": 21.2600002288818}, {"ncessch": "050303000072", "school_name": "PEA RIDGE HIGH SCHOOL", "city": "PEA RIDGE", "state": "AR", "zip": "72751", "lat": 36.4540940000001, "lon": -94.135078, "charter": false, "level": "", "enrollment": 566, "teachers_fte": 36.9700012207031}, {"ncessch": "050303000169", "school_name": "PEA RIDGE MIDDLE SCHOOL", "city": "PEA RIDGE", "state": "AR", "zip": "72751", "lat": 36.4540210000001, "lon": -94.1232689999999, "charter": false, "level": "", "enrollment": 395, "teachers_fte": 22.7399997711182}, {"ncessch": "050303001505", "school_name": "PEA RIDGE PRIMARY SCHOOL", "city": "PEA RIDGE", "state": "AR", "zip": "72751", "lat": 36.4533230000001, "lon": -94.126114, "charter": false, "level": "", "enrollment": 575, "teachers_fte": 33.0}, {"ncessch": "050303001692", "school_name": "PEA RIDGE JUNIOR HIGH SCHOOL", "city": "Pea Ridge", "state": "AR", "zip": "72751", "lat": 36.4559980000001, "lon": -94.124048, "charter": false, "level": "", "enrollment": 584, "teachers_fte": 35.0999984741211}], "0503060": [{"ncessch": "050306000073", "school_name": "BENTONVILLE HIGH SCHOOL", "city": "BENTONVILLE", "state": "AR", "zip": "72712", "lat": 36.3506310000001, "lon": -94.1952200009999, "charter": false, "level": "", "enrollment": 3322, "teachers_fte": 257.359985351562}, {"ncessch": "050306000074", "school_name": "WASHINGTON JUNIOR HIGH SCHOOL", "city": "BENTONVILLE", "state": "AR", "zip": "72712", "lat": 36.3734900000001, "lon": -94.1914419999999, "charter": false, "level": "", "enrollment": 693, "teachers_fte": 49.1699981689453}, {"ncessch": "050306000075", "school_name": "R.E. BAKER ELEMENTARY SCHOOL", "city": "BENTONVILLE", "state": "AR", "zip": "72712", "lat": 36.374779, "lon": -94.211415, "charter": false, "level": "", "enrollment": 410, "teachers_fte": 23.9200000762939}, {"ncessch": "050306000076", "school_name": "THOMAS JEFFERSON ELEM. SCHOOL", "city": "BENTONVILLE", "state": "AR", "zip": "72712", "lat": 36.382554, "lon": -94.216406999, "charter": false, "level": "", "enrollment": 425, "teachers_fte": 24.0599994659424}, {"ncessch": "050306000160", "school_name": "SPRING HILL MIDDLE SCHOOL", "city": "BENTONVILLE", "state": "AR", "zip": "72712", "lat": 36.3715530000001, "lon": -94.250702, "charter": false, "level": "", "enrollment": 593, "teachers_fte": 40.7299995422363}, {"ncessch": "050306000165", "school_name": "ELM TREE ELEMENTARY SCHOOL", "city": "BENTONVILLE", "state": "AR", "zip": "72712", "lat": 36.3723090010001, "lon": -94.249767, "charter": false, "level": "", "enrollment": 555, "teachers_fte": 36.9599990844727}, {"ncessch": "050306000789", "school_name": "LINCOLN JUNIOR HIGH SCHOOL", "city": "BENTONVILLE", "state": "AR", "zip": "72712", "lat": 36.3881900000001, "lon": -94.211639, "charter": false, "level": "", "enrollment": 632, "teachers_fte": 47.5299987792969}, {"ncessch": "050306000879", "school_name": "MARY MAE JONES ELEM. SCHOOL", "city": "BENTONVILLE", "state": "AR", "zip": "72712", "lat": 36.355867, "lon": -94.204313, "charter": false, "level": "", "enrollment": 471, "teachers_fte": 29.9500007629395}, {"ncessch": "050306001080", "school_name": "CENTRAL PARK AT MORNING STAR", "city": "BENTONVILLE", "state": "AR", "zip": "72712", "lat": 36.31769, "lon": -94.2301429999999, "charter": false, "level": "", "enrollment": 537, "teachers_fte": 31.0200004577637}, {"ncessch": "050306001139", "school_name": "RUTH BARKER MIDDLE SCHOOL", "city": "BENTONVILLE", "state": "AR", "zip": "72712", "lat": 36.351732, "lon": -94.2045669999999, "charter": false, "level": "", "enrollment": 494, "teachers_fte": 30.5499992370605}, {"ncessch": "050306001199", "school_name": "CENTERTON GAMBLE ELEMENTARY", "city": "CENTERTON", "state": "AR", "zip": "72719", "lat": 36.3812980000001, "lon": -94.291955, "charter": false, "level": "", "enrollment": 747, "teachers_fte": 36.0999984741211}, {"ncessch": "050306001229", "school_name": "OLD HIGH MIDDLE SCHOOL", "city": "BENTONVILLE", "state": "AR", "zip": "72712", "lat": 36.3739620000001, "lon": -94.213311, "charter": false, "level": "", "enrollment": 487, "teachers_fte": 31.2999992370605}, {"ncessch": "050306001423", "school_name": "SUGAR CREEK ELEMENTARY SCHOOL", "city": "BENTONVILLE", "state": "AR", "zip": "72712", "lat": 36.384219, "lon": -94.215670001, "charter": false, "level": "", "enrollment": 436, "teachers_fte": 28.0699996948242}, {"ncessch": "050306001424", "school_name": "APPLE GLEN ELEMENTARY SCHOOL", "city": "BENTONVILLE", "state": "AR", "zip": "72712", "lat": 36.3750629990001, "lon": -94.189383, "charter": false, "level": "", "enrollment": 484, "teachers_fte": 26.3700008392334}, {"ncessch": "050306001462", "school_name": "COOPER ELEMENTARY SCHOOL", "city": "BELLA VISTA", "state": "AR", "zip": "72714", "lat": 36.4372000000001, "lon": -94.230363999, "charter": false, "level": "", "enrollment": 656, "teachers_fte": 32.0299987792969}, {"ncessch": "050306001543", "school_name": "WILLOWBROOK ELEMENTARY SCHOOL", "city": "BENTONVILLE", "state": "AR", "zip": "72713", "lat": 36.32334, "lon": -94.234022, "charter": false, "level": "", "enrollment": 597, "teachers_fte": 46.0}, {"ncessch": "050306001544", "school_name": "BRIGHT FIELD MIDDLE SCHOOL", "city": "BENTONVILLE", "state": "AR", "zip": "72712", "lat": 36.3234990010001, "lon": -94.233778999, "charter": false, "level": "", "enrollment": 646, "teachers_fte": 39.7200012207031}, {"ncessch": "050306001571", "school_name": "J WILLIAM FULBRIGHT JUNIOR HIGH SCHOOL", "city": "BENTONVILLE", "state": "AR", "zip": "72712", "lat": 36.320415, "lon": -94.23515, "charter": false, "level": "", "enrollment": 666, "teachers_fte": 45.9599990844727}, {"ncessch": "050306001618", "school_name": "BENTONVILLE WEST HIGH SCHOOL", "city": "CENTERTON", "state": "AR", "zip": "72719", "lat": 36.3775860000001, "lon": -94.296552, "charter": false, "level": "", "enrollment": 2418, "teachers_fte": 191.789993286133}, {"ncessch": "050306001648", "school_name": "CREEKSIDE MIDDLE SCHOOL", "city": "BENTONVILLE", "state": "AR", "zip": "72712", "lat": 36.3419700000001, "lon": -94.2427479999999, "charter": false, "level": "", "enrollment": 674, "teachers_fte": 41.939998626709}, {"ncessch": "050306001649", "school_name": "OSAGE CREEK ELEMENTARY SCHOOL", "city": "BENTONVILLE", "state": "AR", "zip": "72712", "lat": 36.3419700000001, "lon": -94.2427479999999, "charter": false, "level": "", "enrollment": 561, "teachers_fte": 33.9000015258789}, {"ncessch": "050306001684", "school_name": "EVENING STAR ELEMENTARY SCHOOL", "city": "ROGERS", "state": "AR", "zip": "72756", "lat": 36.2915360000001, "lon": -94.243129, "charter": false, "level": "", "enrollment": 655, "teachers_fte": 33.0}, {"ncessch": "050306001691", "school_name": "GRIMSLEY JUNIOR HIGH SCHOOL", "city": "Centerton", "state": "AR", "zip": "72719", "lat": 36.346686, "lon": -94.301654001, "charter": false, "level": "", "enrollment": 887, "teachers_fte": 54.3400001525879}, {"ncessch": "050306005130", "school_name": "VAUGHN ELEMENTARY", "city": "BENTONVILLE", "state": "AR", "zip": "72713", "lat": 36.32158, "lon": -94.293108, "charter": false, "level": "", "enrollment": 628, "teachers_fte": 32.2400016784668}], "0503090": [{"ncessch": "050309000077", "school_name": "BERGMAN ELEMENTARY SCHOOL", "city": "HARRISON", "state": "AR", "zip": "72601", "lat": 36.3141330010001, "lon": -93.016648, "charter": false, "level": "", "enrollment": 515, "teachers_fte": 25.7600002288818}, {"ncessch": "050309000078", "school_name": "BERGMAN HIGH SCHOOL", "city": "HARRISON", "state": "AR", "zip": "72601", "lat": 36.3141680000001, "lon": -93.0177419999999, "charter": false, "level": "", "enrollment": 268, "teachers_fte": 49.5800018310547}, {"ncessch": "050309001089", "school_name": "BERGMAN MIDDLE SCHOOL", "city": "HARRISON", "state": "AR", "zip": "72601", "lat": 36.3133120000001, "lon": -93.021351, "charter": false, "level": "", "enrollment": 341, "teachers_fte": 28.0}], "0503150": [{"ncessch": "050315000079", "school_name": "BERRYVILLE ELEMENTARY SCHOOL", "city": "BERRYVILLE", "state": "AR", "zip": "72616", "lat": 36.3723570000001, "lon": -93.5840249999999, "charter": false, "level": "", "enrollment": 478, "teachers_fte": 32.3199996948242}, {"ncessch": "050315000080", "school_name": "BERRYVILLE HIGH SCHOOL", "city": "BERRYVILLE", "state": "AR", "zip": "72616", "lat": 36.3688720000001, "lon": -93.575161, "charter": false, "level": "", "enrollment": 545, "teachers_fte": 64.0400009155273}, {"ncessch": "050315000411", "school_name": "BERRYVILLE MIDDLE SCHOOL", "city": "BERRYVILLE", "state": "AR", "zip": "72616", "lat": 36.369626, "lon": -93.574987, "charter": false, "level": "", "enrollment": 428, "teachers_fte": 31.2099990844727}, {"ncessch": "050315001496", "school_name": "BERRYVILLE INTERMEDIATE SCH", "city": "BERRYVILLE", "state": "AR", "zip": "72616", "lat": 36.373747, "lon": -93.584575, "charter": false, "level": "", "enrollment": 412, "teachers_fte": 26.6399993896484}], "0503240": [{"ncessch": "050324000085", "school_name": "BISMARCK ELEMENTARY SCHOOL", "city": "BISMARCK", "state": "AR", "zip": "71929", "lat": 34.3155080000001, "lon": -93.174862999, "charter": false, "level": "", "enrollment": 391, "teachers_fte": 23.3199996948242}, {"ncessch": "050324000086", "school_name": "BISMARCK HIGH SCHOOL", "city": "BISMARCK", "state": "AR", "zip": "71929", "lat": 34.314132, "lon": -93.180025999, "charter": false, "level": "", "enrollment": 308, "teachers_fte": 60.9199981689453}, {"ncessch": "050324000336", "school_name": "BISMARCK MIDDLE SCHOOL", "city": "BISMARCK", "state": "AR", "zip": "71929", "lat": 34.3157220000001, "lon": -93.176879, "charter": false, "level": "", "enrollment": 321, "teachers_fte": 26.1200008392334}], "0503300": [{"ncessch": "050330000089", "school_name": "BLEVINS ELEMENTARY SCHOOL", "city": "BLEVINS", "state": "AR", "zip": "71825", "lat": 33.8755810000001, "lon": -93.571946, "charter": false, "level": "", "enrollment": 255, "teachers_fte": 19.7800006866455}, {"ncessch": "050330000090", "school_name": "BLEVINS HIGH SCHOOL", "city": "BLEVINS", "state": "AR", "zip": "71825", "lat": 33.8747530000001, "lon": -93.5725409999999, "charter": false, "level": "", "enrollment": 195, "teachers_fte": 18.2900009155273}], "0503320": [{"ncessch": "050332000093", "school_name": "BLYTHEVILLE ELEMENTARY SCHOOL", "city": "BLYTHEVILLE", "state": "AR", "zip": "72315", "lat": 35.936969, "lon": -89.899211, "charter": false, "level": "", "enrollment": 366, "teachers_fte": 19.6100006103516}, {"ncessch": "050332000096", "school_name": "BLYTHEVILLE PRIMARY SCHOOL", "city": "BLYTHEVILLE", "state": "AR", "zip": "72315", "lat": 35.9062259990001, "lon": -89.9141460009999, "charter": false, "level": "", "enrollment": 431, "teachers_fte": 23.2199993133545}, {"ncessch": "050332000099", "school_name": "BLYTHEVILLE MIDDLE SCHOOL", "city": "BLYTHEVILLE", "state": "AR", "zip": "72315", "lat": 35.9301630000001, "lon": -89.911009, "charter": false, "level": "", "enrollment": 324, "teachers_fte": 27.9500007629395}, {"ncessch": "050332001578", "school_name": "BLYTHEVILLE HIGH SCHOOL", "city": "BLYTHEVILLE", "state": "AR", "zip": "72315", "lat": 35.9336930000001, "lon": -89.9129349999999, "charter": false, "level": "", "enrollment": 460, "teachers_fte": 45.7200012207031}], "0503420": [{"ncessch": "050342000102", "school_name": "LEAD HILL ELEMENTARY SCHOOL", "city": "LEAD HILL", "state": "AR", "zip": "72644", "lat": 36.406871, "lon": -92.907469001, "charter": false, "level": "", "enrollment": 187, "teachers_fte": 12.4200000762939}, {"ncessch": "050342000103", "school_name": "LEAD HILL HIGH SCHOOL", "city": "LEAD HILL", "state": "AR", "zip": "72644", "lat": 36.406871, "lon": -92.907469001, "charter": false, "level": "", "enrollment": 190, "teachers_fte": 52.0299987792969}], "0503450": [{"ncessch": "050345000104", "school_name": "BOONEVILLE ELEMENTARY SCHOOL", "city": "BOONEVILLE", "state": "AR", "zip": "72927", "lat": 35.14397, "lon": -93.925396, "charter": false, "level": "", "enrollment": 766, "teachers_fte": 42.5400009155273}, {"ncessch": "050345000105", "school_name": "BOONEVILLE HIGH SCHOOL", "city": "BOONEVILLE", "state": "AR", "zip": "72927", "lat": 35.1471080000001, "lon": -93.909139, "charter": false, "level": "", "enrollment": 243, "teachers_fte": 36.939998626709}, {"ncessch": "050345000339", "school_name": "BOONEVILLE JR HIGH SCHOOL", "city": "BOONEVILLE", "state": "AR", "zip": "72927", "lat": 35.146212, "lon": -93.9105289999999, "charter": false, "level": "", "enrollment": 335, "teachers_fte": 26.1000003814697}], "0503480": [{"ncessch": "050348000106", "school_name": "BRADFORD ELEMENTARY SCHOOL", "city": "BRADFORD", "state": "AR", "zip": "72020", "lat": 35.425623, "lon": -91.459602, "charter": false, "level": "", "enrollment": 274, "teachers_fte": 17.4699993133545}, {"ncessch": "050348000107", "school_name": "BRADFORD HIGH SCHOOL", "city": "BRADFORD", "state": "AR", "zip": "72020", "lat": 35.425623, "lon": -91.459602, "charter": false, "level": "", "enrollment": 199, "teachers_fte": 21.4099998474121}], "0503630": [{"ncessch": "050363000112", "school_name": "BRINKLEY HIGH SCHOOL", "city": "BRINKLEY", "state": "AR", "zip": "72021", "lat": 34.8772310000001, "lon": -91.195255, "charter": false, "level": "", "enrollment": 192, "teachers_fte": 41.2599983215332}, {"ncessch": "050363000114", "school_name": "C.B. PARTEE ELEMENTARY SCHOOL", "city": "BRINKLEY", "state": "AR", "zip": "72021", "lat": 34.876738, "lon": -91.198211999, "charter": false, "level": "", "enrollment": 277, "teachers_fte": 20.8600006103516}], "0503640": [{"ncessch": "050364000115", "school_name": "BROOKLAND ELEMENTARY SCHOOL", "city": "BROOKLAND", "state": "AR", "zip": "72417", "lat": 35.9119710000001, "lon": -90.5849249999999, "charter": false, "level": "", "enrollment": 875, "teachers_fte": 52.2700004577637}, {"ncessch": "050364000116", "school_name": "BROOKLAND HIGH SCHOOL", "city": "BROOKLAND", "state": "AR", "zip": "72417", "lat": 35.9083580000001, "lon": -90.5798369999999, "charter": false, "level": "", "enrollment": 589, "teachers_fte": 37.1300010681152}, {"ncessch": "050364001458", "school_name": "BROOKLAND MIDDLE SCHOOL", "city": "BROOKLAND", "state": "AR", "zip": "72417", "lat": 35.91524, "lon": -90.583735, "charter": false, "level": "", "enrollment": 878, "teachers_fte": 47.3199996948242}, {"ncessch": "050364001534", "school_name": "BROOKLAND JUNIOR HIGH SCHOOL", "city": "BROOKLAND", "state": "AR", "zip": "72417", "lat": 35.9083580000001, "lon": -90.5798369999999, "charter": false, "level": "", "enrollment": 718, "teachers_fte": 53.8600006103516}], "0503690": [{"ncessch": "050369000118", "school_name": "BRYANT HIGH SCHOOL", "city": "BRYANT", "state": "AR", "zip": "72022", "lat": 34.6011330000001, "lon": -92.4919389999999, "charter": false, "level": "", "enrollment": 2199, "teachers_fte": 139.789993286133}, {"ncessch": "050369000120", "school_name": "BRYANT ELEMENTARY SCHOOL", "city": "BRYANT", "state": "AR", "zip": "72022", "lat": 34.606070001, "lon": -92.497259, "charter": false, "level": "", "enrollment": 771, "teachers_fte": 45.6300010681152}, {"ncessch": "050369000121", "school_name": "SALEM ELEMENTARY SCHOOL", "city": "BENTON", "state": "AR", "zip": "72015", "lat": 34.6235050000001, "lon": -92.551884, "charter": false, "level": "", "enrollment": 479, "teachers_fte": 31.4899997711182}, {"ncessch": "050369000178", "school_name": "COLLEGEVILLE ELEMENTARY SCHOOL", "city": "BRYANT", "state": "AR", "zip": "72022", "lat": 34.619671, "lon": -92.504924, "charter": false, "level": "", "enrollment": 481, "teachers_fte": 28.2399997711182}, {"ncessch": "050369001197", "school_name": "BETHEL MIDDLE SCHOOL", "city": "ALEXANDER", "state": "AR", "zip": "72002", "lat": 34.654662, "lon": -92.5463369999999, "charter": false, "level": "", "enrollment": 709, "teachers_fte": 46.25}, {"ncessch": "050369001407", "school_name": "ROBERT L. DAVIS ELEM. SCHOOL", "city": "ALEXANDER", "state": "AR", "zip": "72002", "lat": 34.6256030000001, "lon": -92.413887, "charter": false, "level": "", "enrollment": 491, "teachers_fte": 30.0}, {"ncessch": "050369001439", "school_name": "SPRINGHILL ELEMENTARY SCHOOL", "city": "ALEXANDER", "state": "AR", "zip": "72002", "lat": 34.652884, "lon": -92.5169339999999, "charter": false, "level": "", "enrollment": 559, "teachers_fte": 33.6599998474121}, {"ncessch": "050369001440", "school_name": "BRYANT MIDDLE SCHOOL", "city": "BRYANT", "state": "AR", "zip": "72022", "lat": 34.604921, "lon": -92.497314, "charter": false, "level": "", "enrollment": 786, "teachers_fte": 55.4799995422363}, {"ncessch": "050369001450", "school_name": "HURRICANE CREEK ELEMENTARY", "city": "BENTON", "state": "AR", "zip": "72015", "lat": 34.5899890000001, "lon": -92.5327859989999, "charter": false, "level": "", "enrollment": 459, "teachers_fte": 28.5900001525879}, {"ncessch": "050369001563", "school_name": "HILL FARM ELEMENTARY SCHOOL", "city": "BRYANT", "state": "AR", "zip": "72022", "lat": 34.5824840000001, "lon": -92.490958, "charter": false, "level": "", "enrollment": 594, "teachers_fte": 34.9799995422363}, {"ncessch": "050369001661", "school_name": "PARKWAY ELEMENTARY SCHOOL", "city": "LITTLE ROCK", "state": "AR", "zip": "72015", "lat": 34.642114, "lon": -92.4725999999999, "charter": false, "level": "", "enrollment": 604, "teachers_fte": 33.4500007629395}, {"ncessch": "050369001676", "school_name": "BRYANT JUNIOR HIGH SCHOOL", "city": "BRYANT", "state": "AR", "zip": "72022", "lat": 34.5789830000001, "lon": -92.4918269999999, "charter": false, "level": "", "enrollment": 1634, "teachers_fte": 95.5}], "0503710": [{"ncessch": "050371001269", "school_name": "BUFFALO IS. CENTRAL EAST ELEM.", "city": "LEACHVILLE", "state": "AR", "zip": "72438", "lat": 35.926161999, "lon": -90.25615, "charter": false, "level": "", "enrollment": 393, "teachers_fte": 31.0100002288818}, {"ncessch": "050371001271", "school_name": "BUFFALO IS. CENTRAL HS", "city": "MONETTE", "state": "AR", "zip": "72447", "lat": 35.888965, "lon": -90.3512279999999, "charter": false, "level": "", "enrollment": 338, "teachers_fte": 34.2200012207031}], "0503750": [{"ncessch": "050375000123", "school_name": "CABOT HIGH SCHOOL", "city": "CABOT", "state": "AR", "zip": "72023", "lat": 34.972423, "lon": -92.010992, "charter": false, "level": "", "enrollment": 2198, "teachers_fte": 131.880004882812}, {"ncessch": "050375000124", "school_name": "EASTSIDE ELEMENTARY SCHOOL", "city": "CABOT", "state": "AR", "zip": "72023", "lat": 34.968438, "lon": -92.005056, "charter": false, "level": "", "enrollment": 544, "teachers_fte": 33.2799987792969}, {"ncessch": "050375000125", "school_name": "MAGNESS CREEK ELEMENTARY", "city": "CABOT", "state": "AR", "zip": "72023", "lat": 35.033849, "lon": -92.069740999, "charter": false, "level": "", "enrollment": 355, "teachers_fte": 26.6499996185303}, {"ncessch": "050375000170", "school_name": "WARD CENTRAL ELEMENTARY", "city": "WARD", "state": "AR", "zip": "72176", "lat": 35.011622, "lon": -91.960432999, "charter": false, "level": "", "enrollment": 494, "teachers_fte": 32.3400001525879}, {"ncessch": "050375000173", "school_name": "CABOT MIDDLE SCHOOL SOUTH", "city": "CABOT", "state": "AR", "zip": "72023", "lat": 34.943992001, "lon": -92.019066, "charter": false, "level": "", "enrollment": 717, "teachers_fte": 45.2799987792969}, {"ncessch": "050375000399", "school_name": "CABOT JUNIOR HIGH NORTH", "city": "CABOT", "state": "AR", "zip": "72023", "lat": 34.976341, "lon": -92.0040279999999, "charter": false, "level": "", "enrollment": 888, "teachers_fte": 55.2900009155273}, {"ncessch": "050375000809", "school_name": "CABOT MIDDLE SCHOOL NORTH", "city": "CABOT", "state": "AR", "zip": "72023", "lat": 34.982939, "lon": -91.9970489999999, "charter": false, "level": "", "enrollment": 907, "teachers_fte": 53.1599998474121}, {"ncessch": "050375001019", "school_name": "CABOT PANTHER ACADEMY", "city": "CABOT", "state": "AR", "zip": "72023", "lat": 34.9407600000001, "lon": -92.026601, "charter": true, "level": "", "enrollment": 321, "teachers_fte": 23.9699993133545}, {"ncessch": "050375001181", "school_name": "WESTSIDE ELEMENTARY SCHOOL", "city": "CABOT", "state": "AR", "zip": "72023", "lat": 34.962228001, "lon": -92.031301, "charter": false, "level": "", "enrollment": 400, "teachers_fte": 28.3600006103516}, {"ncessch": "050375001182", "school_name": "CABOT JUNIOR HIGH SOUTH", "city": "CABOT", "state": "AR", "zip": "72023", "lat": 34.943744, "lon": -92.0128720009999, "charter": false, "level": "", "enrollment": 710, "teachers_fte": 47.75}, {"ncessch": "050375001351", "school_name": "SOUTHSIDE ELEMENTARY SCHOOL", "city": "CABOT", "state": "AR", "zip": "72023", "lat": 34.939243, "lon": -92.01021, "charter": false, "level": "", "enrollment": 521, "teachers_fte": 31.3600006103516}, {"ncessch": "050375001375", "school_name": "NORTHSIDE ELEMENTARY SCHOOL", "city": "CABOT", "state": "AR", "zip": "72023", "lat": 34.9808600000001, "lon": -92.022955999, "charter": false, "level": "", "enrollment": 423, "teachers_fte": 32.0699996948242}, {"ncessch": "050375001431", "school_name": "CENTRAL ELEMENTARY SCHOOL", "city": "CABOT", "state": "AR", "zip": "72023", "lat": 34.9615900000001, "lon": -92.013428, "charter": false, "level": "", "enrollment": 446, "teachers_fte": 29.6800003051758}, {"ncessch": "050375001445", "school_name": "STAGECOACH ELEMENTARY SCHOOL", "city": "CABOT", "state": "AR", "zip": "72023", "lat": 34.95514, "lon": -91.9850739999999, "charter": false, "level": "", "enrollment": 483, "teachers_fte": 30.8799991607666}, {"ncessch": "050375001518", "school_name": "MOUNTAIN SPRINGS ELEM SCHOOL", "city": "CABOT", "state": "AR", "zip": "72023", "lat": 35.009915, "lon": -92.06555, "charter": false, "level": "", "enrollment": 505, "teachers_fte": 31.1700000762939}, {"ncessch": "050375001553", "school_name": "CABOT FRESHMAN ACADEMY", "city": "CABOT", "state": "AR", "zip": "72023", "lat": 34.979006999, "lon": -92.0058089999999, "charter": false, "level": "", "enrollment": 784, "teachers_fte": 52.2299995422363}], "0503770": [{"ncessch": "050377000126", "school_name": "CADDO HILLS ELEMENTARY SCHOOL", "city": "NORMAN", "state": "AR", "zip": "71960", "lat": 34.4199570000001, "lon": -93.631235999, "charter": false, "level": "", "enrollment": 337, "teachers_fte": 25.2900009155273}, {"ncessch": "050377000127", "school_name": "CADDO HILLS HIGH SCHOOL", "city": "NORMAN", "state": "AR", "zip": "71960", "lat": 34.4199570000001, "lon": -93.631235999, "charter": true, "level": "", "enrollment": 252, "teachers_fte": 32.9599990844727}], "0503840": [{"ncessch": "050384000131", "school_name": "CALICO ROCK ELEMENTARY SCHOOL", "city": "CALICO ROCK", "state": "AR", "zip": "72519", "lat": 36.1175890000001, "lon": -92.136175, "charter": false, "level": "", "enrollment": 201, "teachers_fte": 17.1399993896484}, {"ncessch": "050384000132", "school_name": "CALICO ROCK HIGH SCHOOL", "city": "CALICO ROCK", "state": "AR", "zip": "72519", "lat": 36.122576, "lon": -92.126312, "charter": false, "level": "", "enrollment": 184, "teachers_fte": 28.2999992370605}], "0503960": [{"ncessch": "050396000139", "school_name": "CARLISLE ELEMENTARY SCHOOL", "city": "CARLISLE", "state": "AR", "zip": "72024", "lat": 34.7860910000001, "lon": -91.7393499999999, "charter": false, "level": "", "enrollment": 382, "teachers_fte": 30.1499996185303}, {"ncessch": "050396000140", "school_name": "CARLISLE HIGH SCHOOL", "city": "CARLISLE", "state": "AR", "zip": "72024", "lat": 34.779476001, "lon": -91.732382999, "charter": false, "level": "", "enrollment": 295, "teachers_fte": 27.5100002288818}], "0504020": [{"ncessch": "050402000146", "school_name": "WESTSIDE HIGH SCHOOL", "city": "JONESBORO", "state": "AR", "zip": "72404", "lat": 35.8563320000001, "lon": -90.8028889999999, "charter": false, "level": "", "enrollment": 674, "teachers_fte": 52.3699989318848}, {"ncessch": "050402000269", "school_name": "WESTSIDE MIDDLE SCHOOL", "city": "JONESBORO", "state": "AR", "zip": "72404", "lat": 35.8569350000001, "lon": -90.805875, "charter": false, "level": "", "enrollment": 391, "teachers_fte": 31.9899997711182}, {"ncessch": "050402001353", "school_name": "WESTSIDE ELEMENTARY SCHOOL", "city": "JONESBORO", "state": "AR", "zip": "72404", "lat": 35.8556320010001, "lon": -90.807439, "charter": false, "level": "", "enrollment": 759, "teachers_fte": 41.939998626709}], "0504050": [{"ncessch": "050405000147", "school_name": "CAVE CITY ELEMENTARY SCHOOL", "city": "CAVE CITY", "state": "AR", "zip": "72521", "lat": 35.952388, "lon": -91.550629, "charter": false, "level": "", "enrollment": 576, "teachers_fte": 37.75}, {"ncessch": "050405000148", "school_name": "CAVE CITY HIGH CAREER & COLLEGIATE PREPARATORY SCHOOL", "city": "CAVE CITY", "state": "AR", "zip": "72521", "lat": 35.9500140000001, "lon": -91.5463169989999, "charter": true, "level": "", "enrollment": 371, "teachers_fte": 62.2700004577637}, {"ncessch": "050405001457", "school_name": "CAVE CITY MIDDLE SCHOOL CAREER AND COLLEGIATE PREPARATORY", "city": "CAVE CITY", "state": "AR", "zip": "72521", "lat": 35.951159999, "lon": -91.550139999, "charter": true, "level": "", "enrollment": 288, "teachers_fte": 28.2399997711182}], "0504080": [{"ncessch": "050408000149", "school_name": "CEDARVILLE ELEMENTARY SCHOOL", "city": "CEDARVILLE", "state": "AR", "zip": "72932", "lat": 35.5727370000001, "lon": -94.366947001, "charter": false, "level": "", "enrollment": 270, "teachers_fte": 17.2399997711182}, {"ncessch": "050408000150", "school_name": "CEDARVILLE HIGH SCHOOL", "city": "CEDARVILLE", "state": "AR", "zip": "72932", "lat": 35.576443, "lon": -94.368783, "charter": false, "level": "", "enrollment": 241, "teachers_fte": 25.3099994659424}, {"ncessch": "050408000332", "school_name": "CEDARVILLE MIDDLE SCHOOL", "city": "CEDARVILLE", "state": "AR", "zip": "72932", "lat": 35.577635, "lon": -94.369326001, "charter": false, "level": "", "enrollment": 210, "teachers_fte": 17.3799991607666}], "0504110": [{"ncessch": "050411000151", "school_name": "GENOA CENTRAL ELEM. SCHOOL", "city": "TEXARKANA", "state": "AR", "zip": "71854", "lat": 33.3766570000001, "lon": -93.880031, "charter": false, "level": "", "enrollment": 371, "teachers_fte": 23.4599990844727}, {"ncessch": "050411000152", "school_name": "GENOA CENTRAL HIGH SCHOOL", "city": "TEXARKANA", "state": "AR", "zip": "71854", "lat": 33.3734260000001, "lon": -93.874308, "charter": false, "level": "", "enrollment": 289, "teachers_fte": 36.689998626709}, {"ncessch": "050411000286", "school_name": "GARY E. COBB MIDDLE SCHOOL", "city": "TEXARKANA", "state": "AR", "zip": "71854", "lat": 33.376739, "lon": -93.8815900009999, "charter": false, "level": "", "enrollment": 257, "teachers_fte": 18.2099990844727}, {"ncessch": "050411005137", "school_name": "GENOA CENTRAL JUNIOR HIGH", "city": "TEXARKANA", "state": "AR", "zip": "71854", "lat": 33.373544, "lon": -93.874355001, "charter": false, "level": "", "enrollment": 266, "teachers_fte": 19.8999996185303}], "0504170": [{"ncessch": "050417000155", "school_name": "WHITE CO. CENTRAL ELEM. SCHOOL", "city": "JUDSONIA", "state": "AR", "zip": "72081", "lat": 35.3577210010001, "lon": -91.677760999, "charter": false, "level": "", "enrollment": 554, "teachers_fte": 36.9700012207031}, {"ncessch": "050417000156", "school_name": "WHITE CO. CENTRAL HIGH SCHOOL", "city": "JUDSONIA", "state": "AR", "zip": "72081", "lat": 35.3577210010001, "lon": -91.677760999, "charter": false, "level": "", "enrollment": 345, "teachers_fte": 35.689998626709}], "0504200": [{"ncessch": "050420000157", "school_name": "CHARLESTON ELEMENTARY SCHOOL", "city": "CHARLESTON", "state": "AR", "zip": "72933", "lat": 35.2964390000001, "lon": -94.046766, "charter": false, "level": "", "enrollment": 454, "teachers_fte": 33.1500015258789}, {"ncessch": "050420000158", "school_name": "CHARLESTON HIGH SCHOOL", "city": "CHARLESTON", "state": "AR", "zip": "72933", "lat": 35.2941500000001, "lon": -94.046329999, "charter": false, "level": "", "enrollment": 435, "teachers_fte": 52.3600006103516}], "0504350": [{"ncessch": "050435000163", "school_name": "CLARENDON ELEMENTARY SCHOOL", "city": "CLARENDON", "state": "AR", "zip": "72029", "lat": 34.6914580000001, "lon": -91.300699999, "charter": false, "level": "", "enrollment": 259, "teachers_fte": 24.25},