{"5300001": [{"ncessch": "530000100376", "school_name": "Black Diamond Elementary", "city": "Black Diamond", "state": "WA", "zip": "98010", "lat": 47.310069001, "lon": -122.005162, "charter": false, "level": "", "enrollment": 397, "teachers_fte": 24.5}, {"ncessch": "530000100377", "school_name": "Byron Kibler Elementary School", "city": "Enumclaw", "state": "WA", "zip": "98022", "lat": 47.210695, "lon": -121.996245, "charter": false, "level": "", "enrollment": 434, "teachers_fte": 26.2999992370605}, {"ncessch": "530000100379", "school_name": "Enumclaw Sr High School", "city": "Enumclaw", "state": "WA", "zip": "98022", "lat": 47.1904000000001, "lon": -122.0068, "charter": false, "level": "", "enrollment": 1339, "teachers_fte": 64.8000030517578}, {"ncessch": "530000100382", "school_name": "Southwood Elementary School", "city": "Enumclaw", "state": "WA", "zip": "98022", "lat": 47.1875000000001, "lon": -122.0117, "charter": false, "level": "", "enrollment": 345, "teachers_fte": 21.7199993133545}, {"ncessch": "530000100383", "school_name": "Westwood Elementary School", "city": "Enumclaw", "state": "WA", "zip": "98022", "lat": 47.2291000010001, "lon": -122.0577, "charter": false, "level": "", "enrollment": 400, "teachers_fte": 24.1900005340576}, {"ncessch": "530000100478", "school_name": "Sunrise Elementary", "city": "Enumclaw", "state": "WA", "zip": "98022", "lat": 47.1854999990001, "lon": -122.0149, "charter": false, "level": "", "enrollment": 408, "teachers_fte": 25.7999992370605}, {"ncessch": "530000102054", "school_name": "Enumclaw Middle School", "city": "Enumclaw", "state": "WA", "zip": "98022", "lat": 47.1870000000001, "lon": -122.008100001, "charter": false, "level": "", "enrollment": 509, "teachers_fte": 24.7000007629395}, {"ncessch": "530000102795", "school_name": "Thunder Mountain Middle School", "city": "Enumclaw", "state": "WA", "zip": "98022", "lat": 47.2230999990001, "lon": -121.9876, "charter": false, "level": "", "enrollment": 454, "teachers_fte": 22.7099990844727}, {"ncessch": "530000103038", "school_name": "Special Ed School", "city": "Enumclaw", "state": "WA", "zip": "98022", "lat": 47.1882000000001, "lon": -122.0066, "charter": false, "level": "", "enrollment": 27, "teachers_fte": 0.0}, {"ncessch": "530000103598", "school_name": "JJ Smith Elementary", "city": "Enumclaw", "state": "WA", "zip": "98022", "lat": 47.20664, "lon": -121.993781, "charter": false, "level": "", "enrollment": 123, "teachers_fte": 6.0}], "5300002": [{"ncessch": "530000200568", "school_name": "Inchelium High School", "city": "Inchelium", "state": "WA", "zip": "99138", "lat": 48.301363, "lon": -118.198168001, "charter": false, "level": "", "enrollment": 63, "teachers_fte": 6.34000015258789}, {"ncessch": "530000202870", "school_name": "Inchelium Middle School", "city": "Inchelium", "state": "WA", "zip": "99138", "lat": 48.301363, "lon": -118.198168001, "charter": false, "level": "", "enrollment": 48, "teachers_fte": 4.65999984741211}, {"ncessch": "530000202871", "school_name": "Inchelium Elementary School", "city": "Inchelium", "state": "WA", "zip": "99138", "lat": 48.301363, "lon": -118.198168001, "charter": false, "level": "", "enrollment": 90, "teachers_fte": 7.19999980926514}], "5300003": [{"ncessch": "530000300167", "school_name": "Carrolls Elementary", "city": "Kelso", "state": "WA", "zip": "98626", "lat": 46.0702000000001, "lon": -122.8662, "charter": false, "level": "", "enrollment": 107, "teachers_fte": 7.67000007629395}, {"ncessch": "530000300587", "school_name": "Barnes Elementary", "city": "Kelso", "state": "WA", "zip": "98626", "lat": 46.1597, "lon": -122.9079, "charter": false, "level": "", "enrollment": 357, "teachers_fte": 22.5799999237061}, {"ncessch": "530000300589", "school_name": "Butler Acres Elementary", "city": "Kelso", "state": "WA", "zip": "98626", "lat": 46.1513, "lon": -122.8939, "charter": false, "level": "", "enrollment": 406, "teachers_fte": 26.0}, {"ncessch": "530000300591", "school_name": "Coweeman Middle School", "city": "Kelso", "state": "WA", "zip": "98626", "lat": 46.1439, "lon": -122.888600001, "charter": false, "level": "", "enrollment": 570, "teachers_fte": 26.6000003814697}, {"ncessch": "530000300592", "school_name": "Huntington Middle School", "city": "Kelso", "state": "WA", "zip": "98626", "lat": 46.1543, "lon": -122.9046, "charter": false, "level": "", "enrollment": 539, "teachers_fte": 27.1800003051758}, {"ncessch": "530000300593", "school_name": "Kelso High School", "city": "Kelso", "state": "WA", "zip": "98626", "lat": 46.1436, "lon": -122.8921, "charter": false, "level": "", "enrollment": 1424, "teachers_fte": 73.9000015258789}, {"ncessch": "530000300594", "school_name": "Rose Valley Elementary", "city": "Kelso", "state": "WA", "zip": "98626", "lat": 46.098300001, "lon": -122.8265, "charter": false, "level": "", "enrollment": 163, "teachers_fte": 12.4799995422363}, {"ncessch": "530000300596", "school_name": "Wallace Elementary", "city": "Kelso", "state": "WA", "zip": "98626", "lat": 46.1341630000001, "lon": -122.912531, "charter": false, "level": "", "enrollment": 342, "teachers_fte": 23.7000007629395}, {"ncessch": "530000303076", "school_name": "Special Education", "city": "Kelso", "state": "WA", "zip": "98626", "lat": 46.147476, "lon": -122.905933, "charter": false, "level": "", "enrollment": 25, "teachers_fte": 0.0}, {"ncessch": "530000303109", "school_name": "Loowit High School", "city": "Kelso", "state": "WA", "zip": "98626", "lat": 46.145383, "lon": -122.890211, "charter": false, "level": "", "enrollment": 8, "teachers_fte": 0.5}, {"ncessch": "530000303314", "school_name": "Kelso Virtual Academy", "city": "Longview", "state": "WA", "zip": "98632", "lat": 46.1803150000001, "lon": -122.925884, "charter": false, "level": "", "enrollment": 178, "teachers_fte": 11.4099998474121}, {"ncessch": "530000303667", "school_name": "Kelso Goal Oriented Learning Design", "city": "Longview", "state": "WA", "zip": "98632", "lat": 46.1332110000001, "lon": -122.93834, "charter": false, "level": "", "enrollment": 23, "teachers_fte": 0.0}, {"ncessch": "530000303796", "school_name": "Lexington Elementary", "city": "Kelso", "state": "WA", "zip": "98626", "lat": 46.188231, "lon": -122.915164, "charter": false, "level": "", "enrollment": 798, "teachers_fte": 50.4000015258789}], "5300005": [{"ncessch": "530000502917", "school_name": "Cowlitz County Youth Services Center", "city": "Longview", "state": "WA", "zip": "98632", "lat": 46.14054, "lon": -122.919451001, "charter": false, "level": "", "enrollment": 17, "teachers_fte": 0.0}, {"ncessch": "530000503407", "school_name": "Clark County Juvenile Detention School", "city": "Vancouver", "state": "WA", "zip": "98660", "lat": 45.6300000000001, "lon": -122.6765, "charter": false, "level": "", "enrollment": 11, "teachers_fte": 0.0}, {"ncessch": "530000503538", "school_name": "ESD 112 Open Doors Reengagement", "city": "Vancouver", "state": "WA", "zip": "98661", "lat": 45.638878, "lon": -122.605932999, "charter": false, "level": "", "enrollment": 29, "teachers_fte": 0.0}], "5300006": [{"ncessch": "530000603748", "school_name": "Dropout Prevention and Reengagement Academy", "city": "Renton", "state": "WA", "zip": "98057", "lat": 47.4725800000001, "lon": -122.234511, "charter": false, "level": "", "enrollment": 0, "teachers_fte": 0.0}], "5300007": [{"ncessch": "530000702914", "school_name": "Clallam Co Juvenile Detention", "city": "PORT ANGELES", "state": "WA", "zip": "98363", "lat": 48.1187350000001, "lon": -123.483597, "charter": false, "level": "", "enrollment": 12, "teachers_fte": 0.0}, {"ncessch": "530000702927", "school_name": "Kitsap Co Detention Ctr", "city": "PORT ORCHARD", "state": "WA", "zip": "98366", "lat": 47.5205999990001, "lon": -122.665700001, "charter": false, "level": "", "enrollment": 2, "teachers_fte": 0.0}], "5300008": [{"ncessch": "530000802095", "school_name": "Snohomish Detention Center", "city": "Everett", "state": "WA", "zip": "98201", "lat": 48.0047999990001, "lon": -122.1935, "charter": false, "level": "", "enrollment": 9, "teachers_fte": 0.0}, {"ncessch": "530000802755", "school_name": "Pass Program", "city": "Everett", "state": "WA", "zip": "98201", "lat": 48.0045000000001, "lon": -122.1942, "charter": false, "level": "", "enrollment": 0, "teachers_fte": 0.0}, {"ncessch": "530000802921", "school_name": "Skagit County Detention Center", "city": "MOUNT VERNON", "state": "WA", "zip": "98273", "lat": 48.4183, "lon": -122.335799999, "charter": false, "level": "", "enrollment": 2, "teachers_fte": 0.0}, {"ncessch": "530000802923", "school_name": "Whatcom Co Detention Center", "city": "BELLINGHAM", "state": "WA", "zip": "98225", "lat": 48.7543000000001, "lon": -122.48, "charter": false, "level": "", "enrollment": 5, "teachers_fte": 0.0}, {"ncessch": "530000803609", "school_name": "Open Doors - Youth Reengagement Program", "city": "Anacortes", "state": "WA", "zip": "98221", "lat": 48.50946, "lon": -122.607401, "charter": false, "level": "", "enrollment": 5, "teachers_fte": 0.0}], "5300010": [{"ncessch": "530001002919", "school_name": "Martin Hall Detention Ctr", "city": "Medical Lake", "state": "WA", "zip": "99022", "lat": 47.570865, "lon": -117.696081001, "charter": false, "level": "", "enrollment": 14, "teachers_fte": 0.0}, {"ncessch": "530001002929", "school_name": "Structural Alt Confinement School", "city": "Spokane", "state": "WA", "zip": "99205", "lat": 47.6656, "lon": -117.4306, "charter": false, "level": "", "enrollment": 12, "teachers_fte": 0.0}, {"ncessch": "530001002930", "school_name": "Spokane Juvenile Detention School", "city": "Spokane", "state": "WA", "zip": "99205", "lat": 47.6656, "lon": -117.4306, "charter": false, "level": "", "enrollment": 10, "teachers_fte": 0.0}, {"ncessch": "530001003583", "school_name": "NEWESD 101 Open Doors", "city": "Spokane", "state": "WA", "zip": "99202", "lat": 47.654970001, "lon": -117.396531, "charter": false, "level": "", "enrollment": 106, "teachers_fte": 0.0}], "5300011": [{"ncessch": "530001103422", "school_name": "ESD 113 Consortium Reengagement Program", "city": "Tumwater", "state": "WA", "zip": "98512", "lat": 46.9946, "lon": -122.9166, "charter": false, "level": "", "enrollment": 268, "teachers_fte": 0.0}], "5300012": [{"ncessch": "530001203521", "school_name": "Ugrad ESD123 Re-Engagement Program", "city": "Pasco", "state": "WA", "zip": "99301", "lat": 46.2412340000001, "lon": -119.142656, "charter": false, "level": "", "enrollment": 214, "teachers_fte": 0.0}], "5300013": [{"ncessch": "530001303670", "school_name": "ESD 105 Open Doors", "city": "Yakima", "state": "WA", "zip": "98908", "lat": 46.6002340000001, "lon": -120.510353, "charter": false, "level": "", "enrollment": 86, "teachers_fte": 0.0}], "5300014": [{"ncessch": "530001403082", "school_name": "Bates Technical High School", "city": "Tacoma", "state": "WA", "zip": "98405", "lat": 47.2522000000001, "lon": -122.4469, "charter": false, "level": "", "enrollment": 0, "teachers_fte": 0.0}, {"ncessch": "530001403585", "school_name": "Bates Technical College - Open Doors", "city": "Tacoma", "state": "WA", "zip": "98405", "lat": 47.2522000000001, "lon": -122.4469, "charter": false, "level": "", "enrollment": 0, "teachers_fte": 0.0}], "5300015": [{"ncessch": "530001501016", "school_name": "Washington State School for the Deaf", "city": "Vancouver", "state": "WA", "zip": "98661", "lat": 45.625343, "lon": -122.639837, "charter": false, "level": "", "enrollment": 107, "teachers_fte": 0.0}], "5300016": [{"ncessch": "530001603208", "school_name": "Garrett Heyns High School", "city": "Shelton", "state": "WA", "zip": "98584", "lat": 47.238433, "lon": -123.194599, "charter": false, "level": "", "enrollment": 0, "teachers_fte": 0.0}], "5300017": [{"ncessch": "530001703209", "school_name": "Northwest Career and Technical High School", "city": "Lakewood", "state": "WA", "zip": "98499", "lat": 47.1758, "lon": -122.4971, "charter": false, "level": "", "enrollment": 0, "teachers_fte": 0.0}], "5300030": [{"ncessch": "530003000001", "school_name": "A J West Elementary", "city": "Aberdeen", "state": "WA", "zip": "98520", "lat": 46.972, "lon": -123.8379, "charter": false, "level": "", "enrollment": 306, "teachers_fte": 22.5400009155273}, {"ncessch": "530003000002", "school_name": "Harbor Junior/Senior High School", "city": "Aberdeen", "state": "WA", "zip": "98520", "lat": 46.9725730000001, "lon": -123.831333999, "charter": false, "level": "", "enrollment": 124, "teachers_fte": 6.8600001335144}, {"ncessch": "530003000005", "school_name": "Central Park Elementary", "city": "Aberdeen", "state": "WA", "zip": "98520", "lat": 46.9675, "lon": -123.6974, "charter": false, "level": "", "enrollment": 128, "teachers_fte": 8.39000034332275}, {"ncessch": "530003000007", "school_name": "J M Weatherwax High School", "city": "Aberdeen", "state": "WA", "zip": "98520", "lat": 46.9797999990001, "lon": -123.817600001, "charter": false, "level": "", "enrollment": 916, "teachers_fte": 51.9700012207031}, {"ncessch": "530003000008", "school_name": "McDermoth Elementary", "city": "Aberdeen", "state": "WA", "zip": "98520", "lat": 46.9771000000001, "lon": -123.823499999, "charter": false, "level": "", "enrollment": 287, "teachers_fte": 19.5}, {"ncessch": "530003000009", "school_name": "Miller Junior High", "city": "Aberdeen", "state": "WA", "zip": "98520", "lat": 46.9636, "lon": -123.7922, "charter": false, "level": "", "enrollment": 718, "teachers_fte": 40.0}, {"ncessch": "530003000010", "school_name": "Robert Gray Elementary", "city": "Aberdeen", "state": "WA", "zip": "98520", "lat": 46.9865000010001, "lon": -123.8133, "charter": false, "level": "", "enrollment": 260, "teachers_fte": 19.1900005340576}, {"ncessch": "530003000011", "school_name": "Stevens Elementary School", "city": "Aberdeen", "state": "WA", "zip": "98520", "lat": 46.9669000000001, "lon": -123.7895, "charter": false, "level": "", "enrollment": 345, "teachers_fte": 24.4400005340576}, {"ncessch": "530003002055", "school_name": "Grays Harbor Juvenile Detention", "city": "Aberdeen", "state": "WA", "zip": "98520", "lat": 46.9778180000001, "lon": -123.779652, "charter": false, "level": "", "enrollment": 5, "teachers_fte": 5.3899998664856}, {"ncessch": "530003002271", "school_name": "Hopkins Elementary", "city": "Aberdeen", "state": "WA", "zip": "98520", "lat": 46.9729, "lon": -123.8314, "charter": false, "level": "", "enrollment": 107, "teachers_fte": 5.5}, {"ncessch": "530003003334", "school_name": "Twin Harbors A Branch of New Market Skills Center", "city": "Aberdeen", "state": "WA", "zip": "98520", "lat": 46.9801, "lon": -123.818, "charter": false, "level": "", "enrollment": 1, "teachers_fte": 0.0}, {"ncessch": "530003003633", "school_name": "Grays Harbor Academy", "city": "Aberdeen", "state": "WA", "zip": "98520", "lat": 46.9725730000001, "lon": -123.831333999, "charter": false, "level": "", "enrollment": 64, "teachers_fte": 0.0}, {"ncessch": "530003003784", "school_name": "Harbor Open Doors", "city": "Aberdeen", "state": "WA", "zip": "98520", "lat": 46.9725730000001, "lon": -123.831333999, "charter": false, "level": "", "enrollment": 43, "teachers_fte": 0.0}], "5300060": [{"ncessch": "530006000012", "school_name": "Adna Elementary School", "city": "Chehalis", "state": "WA", "zip": "98532", "lat": 46.6383999990001, "lon": -123.059400001, "charter": false, "level": "", "enrollment": 263, "teachers_fte": 16.3799991607666}, {"ncessch": "530006000013", "school_name": "Adna Middle/High School", "city": "Chehalis", "state": "WA", "zip": "98532", "lat": 46.6303, "lon": -123.0568, "charter": false, "level": "", "enrollment": 385, "teachers_fte": 20.4699993133545}], "5300090": [{"ncessch": "530009000179", "school_name": "Almira Elementary School", "city": "ALMIRA", "state": "WA", "zip": "99103", "lat": 47.7073000010001, "lon": -118.9412, "charter": false, "level": "", "enrollment": 144, "teachers_fte": 10.6800003051758}], "5300150": [{"ncessch": "530015000015", "school_name": "Anacortes Middle School", "city": "Anacortes", "state": "WA", "zip": "98221", "lat": 48.5036000000001, "lon": -122.618199999, "charter": false, "level": "", "enrollment": 574, "teachers_fte": 26.2800006866455}, {"ncessch": "530015000016", "school_name": "Anacortes High School", "city": "Anacortes", "state": "WA", "zip": "98221", "lat": 48.5074010000001, "lon": -122.622583001, "charter": false, "level": "", "enrollment": 794, "teachers_fte": 39.2599983215332}, {"ncessch": "530015000017", "school_name": "Fidalgo Elementary", "city": "Anacortes", "state": "WA", "zip": "98221", "lat": 48.4467000010001, "lon": -122.5827, "charter": false, "level": "", "enrollment": 347, "teachers_fte": 22.0}, {"ncessch": "530015000018", "school_name": "Island View Elementary", "city": "Anacortes", "state": "WA", "zip": "98221", "lat": 48.501699999, "lon": -122.621199999, "charter": false, "level": "", "enrollment": 438, "teachers_fte": 28.4300003051758}, {"ncessch": "530015000019", "school_name": "Mount Erie Elementary", "city": "Anacortes", "state": "WA", "zip": "98221", "lat": 48.4872, "lon": -122.6187, "charter": false, "level": "", "enrollment": 344, "teachers_fte": 22.0}, {"ncessch": "530015000021", "school_name": "Whitney Early Childhood Education Center", "city": "Anacortes", "state": "WA", "zip": "98221", "lat": 48.512099999, "lon": -122.6178, "charter": false, "level": "", "enrollment": 33, "teachers_fte": 1.13999998569489}, {"ncessch": "530015003303", "school_name": "Cap Sante High School", "city": "Anacortes", "state": "WA", "zip": "98221", "lat": 48.5074010000001, "lon": -122.622583001, "charter": false, "level": "", "enrollment": 62, "teachers_fte": 2.0}, {"ncessch": "530015003704", "school_name": "Open Doors", "city": "Anacortes", "state": "WA", "zip": "98221", "lat": 48.5074010000001, "lon": -122.622583001, "charter": false, "level": "", "enrollment": 14, "teachers_fte": 0.0}], "5300240": [{"ncessch": "530024000023", "school_name": "Arlington High School", "city": "Arlington", "state": "WA", "zip": "98223", "lat": 48.1662000000001, "lon": -122.115, "charter": false, "level": "", "enrollment": 1661, "teachers_fte": 79.1500015258789}, {"ncessch": "530024000024", "school_name": "Post Middle School", "city": "Arlington", "state": "WA", "zip": "98223", "lat": 48.196499999, "lon": -122.1114, "charter": false, "level": "", "enrollment": 643, "teachers_fte": 32.1100006103516}, {"ncessch": "530024001190", "school_name": "Kent Prairie Elementary", "city": "Arlington", "state": "WA", "zip": "98223", "lat": 48.1836000000001, "lon": -122.119500001, "charter": false, "level": "", "enrollment": 593, "teachers_fte": 40.7400016784668}, {"ncessch": "530024001815", "school_name": "Presidents Elementary", "city": "Arlington", "state": "WA", "zip": "98223", "lat": 48.1955, "lon": -122.1203, "charter": false, "level": "", "enrollment": 551, "teachers_fte": 36.5699996948242}, {"ncessch": "530024002074", "school_name": "Weston High School", "city": "Arlington", "state": "WA", "zip": "98223", "lat": 48.153106, "lon": -122.170172, "charter": false, "level": "", "enrollment": 124, "teachers_fte": 14.0100002288818}, {"ncessch": "530024002248", "school_name": "Eagle Creek Elementary", "city": "Arlington", "state": "WA", "zip": "98223", "lat": 48.1940000010001, "lon": -122.1123, "charter": false, "level": "", "enrollment": 660, "teachers_fte": 42.4799995422363}, {"ncessch": "530024002589", "school_name": "Stillaguamish Valley Learning Center", "city": "Arlington", "state": "WA", "zip": "98223", "lat": 48.1943200000001, "lon": -122.114263, "charter": false, "level": "", "enrollment": 146, "teachers_fte": 6.17000007629395}, {"ncessch": "530024002940", "school_name": "Pioneer Elementary", "city": "Arlington", "state": "WA", "zip": "98223", "lat": 48.1656, "lon": -122.1206, "charter": false, "level": "", "enrollment": 493, "teachers_fte": 34.1500015258789}, {"ncessch": "530024003008", "school_name": "Haller Middle School", "city": "Arlington", "state": "WA", "zip": "98223", "lat": 48.191600001, "lon": -122.121, "charter": false, "level": "", "enrollment": 589, "teachers_fte": 27.1299991607666}, {"ncessch": "530024003065", "school_name": "Arlington Special Educ School", "city": "Arlington", "state": "WA", "zip": "98223", "lat": 48.1957520010001, "lon": -122.122026, "charter": false, "level": "", "enrollment": 0, "teachers_fte": 0.0}, {"ncessch": "530024003594", "school_name": "Arlington Open Doors", "city": "Arlington", "state": "WA", "zip": "98223", "lat": 48.153106, "lon": -122.170172, "charter": false, "level": "", "enrollment": 46, "teachers_fte": 0.0}], "5300280": [{"ncessch": "530028000027", "school_name": "Asotin Elementary", "city": "ASOTIN", "state": "WA", "zip": "99402", "lat": 46.3405000000001, "lon": -117.0512, "charter": false, "level": "", "enrollment": 306, "teachers_fte": 20.0599994659424}, {"ncessch": "530028000028", "school_name": "Asotin Jr Sr High", "city": "ASOTIN", "state": "WA", "zip": "99402", "lat": 46.3402, "lon": -117.0518, "charter": false, "level": "", "enrollment": 308, "teachers_fte": 19.3400001525879}], "5300300": [{"ncessch": "530030000029", "school_name": "Alpac Elementary School", "city": "PACIFIC", "state": "WA", "zip": "98047", "lat": 47.2710000000001, "lon": -122.249, "charter": false, "level": "", "enrollment": 636, "teachers_fte": 38.4199981689453}, {"ncessch": "530030000031", "school_name": "West Auburn Senior High School", "city": "AUBURN", "state": "WA", "zip": "98001", "lat": 47.308226, "lon": -122.234815, "charter": false, "level": "", "enrollment": 190, "teachers_fte": 16.8700008392334}, {"ncessch": "530030000032", "school_name": "Auburn Senior High School", "city": "AUBURN", "state": "WA", "zip": "98002", "lat": 47.309284, "lon": -122.220159, "charter": false, "level": "", "enrollment": 1844, "teachers_fte": 95.7799987792969}, {"ncessch": "530030000033", "school_name": "Cascade Middle School", "city": "AUBURN", "state": "WA", "zip": "98002", "lat": 47.3293, "lon": -122.2148, "charter": false, "level": "", "enrollment": 899, "teachers_fte": 51.6199989318848}, {"ncessch": "530030000034", "school_name": "Chinook Elementary School", "city": "AUBURN", "state": "WA", "zip": "98002", "lat": 47.289675, "lon": -122.181151, "charter": false, "level": "", "enrollment": 562, "teachers_fte": 36.4900016784668}, {"ncessch": "530030000035", "school_name": "Evergreen Heights Elementary", "city": "AUBURN", "state": "WA", "zip": "98001", "lat": 47.3194, "lon": -122.2641, "charter": false, "level": "", "enrollment": 440, "teachers_fte": 29.3600006103516}, {"ncessch": "530030000036", "school_name": "Lea Hill Elementary School", "city": "AUBURN", "state": "WA", "zip": "98092", "lat": 47.325008, "lon": -122.175479, "charter": false, "level": "", "enrollment": 584, "teachers_fte": 35.4199981689453}, {"ncessch": "530030000037", "school_name": "Dick Scobee Elementary School", "city": "AUBURN", "state": "WA", "zip": "98002", "lat": 47.320904, "lon": -122.216253, "charter": false, "level": "", "enrollment": 825, "teachers_fte": 48.8300018310547}, {"ncessch": "530030000038", "school_name": "Olympic Middle School", "city": "AUBURN", "state": "WA", "zip": "98002", "lat": 47.2906540000001, "lon": -122.217443, "charter": false, "level": "", "enrollment": 900, "teachers_fte": 50.8300018310547}, {"ncessch": "530030000039", "school_name": "Pioneer Elementary School", "city": "AUBURN", "state": "WA", "zip": "98002", "lat": 47.288213999, "lon": -122.214053, "charter": false, "level": "", "enrollment": 651, "teachers_fte": 41.0099983215332}, {"ncessch": "530030000040", "school_name": "Gildo Rey Elementary School", "city": "AUBURN", "state": "WA", "zip": "98002", "lat": 47.2783000000001, "lon": -122.216, "charter": false, "level": "", "enrollment": 412, "teachers_fte": 27.8700008392334}, {"ncessch": "530030000041", "school_name": "Terminal Park Elementary School", "city": "AUBURN", "state": "WA", "zip": "98002", "lat": 47.2921180000001, "lon": -122.217794, "charter": false, "level": "", "enrollment": 345, "teachers_fte": 27.5}, {"ncessch": "530030000042", "school_name": "Washington Elementary School", "city": "AUBURN", "state": "WA", "zip": "98002", "lat": 47.3085, "lon": -122.2222, "charter": false, "level": "", "enrollment": 491, "teachers_fte": 35.2999992370605}, {"ncessch": "530030000698", "school_name": "Ilalko Elementary School", "city": "AUBURN", "state": "WA", "zip": "98092", "lat": 47.2640000000001, "lon": -122.2275, "charter": false, "level": "", "enrollment": 493, "teachers_fte": 28.0}, {"ncessch": "530030001443", "school_name": "Mt Baker Middle School", "city": "AUBURN", "state": "WA", "zip": "98002", "lat": 47.2746000000001, "lon": -122.2202, "charter": false, "level": "", "enrollment": 977, "teachers_fte": 54.5999984741211}, {"ncessch": "530030001744", "school_name": "Lake View Elementary School", "city": "AUBURN", "state": "WA", "zip": "98092", "lat": 47.3167, "lon": -122.1223, "charter": false, "level": "", "enrollment": 407, "teachers_fte": 26.0100002288818}, {"ncessch": "530030002277", "school_name": "Hazelwood Elementary School", "city": "AUBURN", "state": "WA", "zip": "98092", "lat": 47.3291, "lon": -122.1837, "charter": false, "level": "", "enrollment": 516, "teachers_fte": 32.7999992370605}, {"ncessch": "530030002434", "school_name": "Rainier Middle School", "city": "AUBURN", "state": "WA", "zip": "98092", "lat": 47.3274000000001, "lon": -122.1855, "charter": false, "level": "", "enrollment": 941, "teachers_fte": 53.3800010681152}, {"ncessch": "530030002445", "school_name": "Auburn Riverside High School", "city": "AUBURN", "state": "WA", "zip": "98092", "lat": 47.267799999, "lon": -122.2222, "charter": false, "level": "", "enrollment": 1909, "teachers_fte": 86.5999984741211}, {"ncessch": "530030002904", "school_name": "Special Ed School", "city": "AUBURN", "state": "WA", "zip": "98002", "lat": 47.310639999, "lon": -122.222671, "charter": false, "level": "", "enrollment": 19, "teachers_fte": 8.0}, {"ncessch": "530030002978", "school_name": "Auburn Mountainview High School", "city": "Auburn", "state": "WA", "zip": "98092", "lat": 47.341998, "lon": -122.171795, "charter": false, "level": "", "enrollment": 1581, "teachers_fte": 75.4899978637695}, {"ncessch": "530030003063", "school_name": "Lakeland Hills Elementary", "city": "AUBURN", "state": "WA", "zip": "98092", "lat": 47.254361999, "lon": -122.215547999, "charter": false, "level": "", "enrollment": 536, "teachers_fte": 35.2999992370605}, {"ncessch": "530030003174", "school_name": "Arthur Jacobsen Elementary", "city": "Auburn", "state": "WA", "zip": "98092", "lat": 47.34007, "lon": -122.167416, "charter": false, "level": "", "enrollment": 352, "teachers_fte": 27.2800006866455}, {"ncessch": "530030003668", "school_name": "Auburn Opportunity Project", "city": "Auburn", "state": "WA", "zip": "98001", "lat": 47.308226, "lon": -122.234815, "charter": false, "level": "", "enrollment": 81, "teachers_fte": 0.0}, {"ncessch": "530030003744", "school_name": "Bowman Creek Elementary", "city": "Auburn", "state": "WA", "zip": "98092", "lat": 47.2583290000001, "lon": -122.190078, "charter": false, "level": "", "enrollment": 443, "teachers_fte": 29.0699996948242}, {"ncessch": "530030003785", "school_name": "Auburn Online", "city": "Auburn", "state": "WA", "zip": "98092", "lat": 47.2583290000001, "lon": -122.190078, "charter": false, "level": "", "enrollment": 264, "teachers_fte": 26.5}, {"ncessch": "530030003886", "school_name": "Willow Crest Elementary", "city": "Auburn", "state": "WA", "zip": "98092", "lat": 47.330067, "lon": -122.167805, "charter": false, "level": "", "enrollment": 559, "teachers_fte": 32.9799995422363}], "5300313": [{"ncessch": "530031303265", "school_name": "Lake Washington Technical Academy", "city": "Kirkland", "state": "WA", "zip": "98034", "lat": 47.7050630000001, "lon": -122.166943, "charter": false, "level": "", "enrollment": 251, "teachers_fte": 0.0}, {"ncessch": "530031303403", "school_name": "Open Doors at LWIT", "city": "Kirkland", "state": "WA", "zip": "98034", "lat": 47.7050630000001, "lon": -122.166943, "charter": false, "level": "", "enrollment": 326, "teachers_fte": 0.0}], "5300318": [{"ncessch": "530031802385", "school_name": "Washington State School for the Blind", "city": "Vancouver", "state": "WA", "zip": "98661", "lat": 45.6307, "lon": -122.6476, "charter": false, "level": "", "enrollment": 58, "teachers_fte": 0.0}], "5300324": [{"ncessch": "530032403412", "school_name": "Washington Youth Academy", "city": "Bremerton", "state": "WA", "zip": "98312", "lat": 47.5533800000001, "lon": -122.681810999, "charter": false, "level": "", "enrollment": 144, "teachers_fte": 6.0}], "5300325": [{"ncessch": "530032503687", "school_name": "Ella Baker High School (Open Doors)", "city": "RENTON", "state": "WA", "zip": "98056", "lat": 47.4895960010001, "lon": -122.176367999, "charter": false, "level": "", "enrollment": 88, "teachers_fte": 0.0}, {"ncessch": "530032503695", "school_name": "Renton Technical High School", "city": "Renton", "state": "WA", "zip": "98056", "lat": 47.4895960010001, "lon": -122.176367999, "charter": false, "level": "", "enrollment": 5, "teachers_fte": 0.0}], "5300328": [{"ncessch": "530032803493", "school_name": "Chief Kitsap Academy", "city": "Poulsbo", "state": "WA", "zip": "98370", "lat": 47.706264, "lon": -122.579903, "charter": false, "level": "", "enrollment": 84, "teachers_fte": 14.25}], "5300330": [{"ncessch": "530033000043", "school_name": "Bainbridge High School", "city": "Bainbridge Island", "state": "WA", "zip": "98110", "lat": 47.6381000000001, "lon": -122.523, "charter": false, "level": "", "enrollment": 1232, "teachers_fte": 60.5}, {"ncessch": "530033000044", "school_name": "Capt. Charles Wilkes Elem School", "city": "Bainbridge Island", "state": "WA", "zip": "98110", "lat": 47.6782800010001, "lon": -122.523089, "charter": false, "level": "", "enrollment": 349, "teachers_fte": 23.5699996948242}, {"ncessch": "530033000045", "school_name": "Capt Johnston Blakely Elem Sch", "city": "Bainbridge Island", "state": "WA", "zip": "98110", "lat": 47.6057050000001, "lon": -122.534852, "charter": false, "level": "", "enrollment": 367, "teachers_fte": 22.7000007629395}, {"ncessch": "530033000047", "school_name": "Ordway Elementary", "city": "Bainbridge Island", "state": "WA", "zip": "98110", "lat": 47.640000001, "lon": -122.5221, "charter": false, "level": "", "enrollment": 364, "teachers_fte": 23.8299999237061}, {"ncessch": "530033002452", "school_name": "Woodward Middle School", "city": "Bainbridge Island", "state": "WA", "zip": "98110", "lat": 47.6452, "lon": -122.5292, "charter": false, "level": "", "enrollment": 488, "teachers_fte": 24.7000007629395}, {"ncessch": "530033002523", "school_name": "Odyssey Multiage Program", "city": "Bainbridge Island", "state": "WA", "zip": "98110", "lat": 47.6364, "lon": -122.522, "charter": false, "level": "", "enrollment": 200, "teachers_fte": 11.7299995422363}, {"ncessch": "530033002734", "school_name": "Sonoji Sakai Intermediate", "city": "Bainbridge Island", "state": "WA", "zip": "98110", "lat": 47.648400001, "lon": -122.5273, "charter": false, "level": "", "enrollment": 437, "teachers_fte": 25.5}, {"ncessch": "530033002802", "school_name": "Mosaic Home Education Partnership", "city": "Bainbridge Island", "state": "WA", "zip": "98110", "lat": 47.6362, "lon": -122.523800001, "charter": false, "level": "", "enrollment": 33, "teachers_fte": 2.5699999332428}, {"ncessch": "530033003110", "school_name": "Eagle Harbor High School", "city": "Bainbridge Island", "state": "WA", "zip": "98110", "lat": 47.6363000000001, "lon": -122.5219, "charter": false, "level": "", "enrollment": 95, "teachers_fte": 6.26000022888184}, {"ncessch": "530033003113", "school_name": "Bainbridge Special Education Services", "city": "Bainbridge Island", "state": "WA", "zip": "98110", "lat": 47.6387540000001, "lon": -122.521766, "charter": false, "level": "", "enrollment": 29, "teachers_fte": 0.0}], "5300333": [{"ncessch": "530033303541", "school_name": "Summit Public School: Olympus", "city": "Tacoma", "state": "WA", "zip": "98421", "lat": 47.2409740000001, "lon": -122.429176, "charter": true, "level": "", "enrollment": 156, "teachers_fte": 11.5200004577637}], "5300334": [{"ncessch": "530033403510", "school_name": "Summit Public School: Sierra", "city": "Seattle", "state": "WA", "zip": "98104", "lat": 47.5979199990001, "lon": -122.318401, "charter": true, "level": "", "enrollment": 235, "teachers_fte": 17.0}], "5300335": [{"ncessch": "530033503533", "school_name": "Rainier Prep", "city": "Seattle", "state": "WA", "zip": "98168", "lat": 47.51151, "lon": -122.318360999, "charter": true, "level": "", "enrollment": 330, "teachers_fte": 24.8999996185303}], "5300337": [{"ncessch": "530033703539", "school_name": "Spokane International Academy", "city": "Spokane", "state": "WA", "zip": "99208", "lat": 47.7386210000001, "lon": -117.39772, "charter": true, "level": "", "enrollment": 736, "teachers_fte": 51.0}], "5300339": [{"ncessch": "530033903495", "school_name": "PRIDE Prep School", "city": "Spokane", "state": "WA", "zip": "99202", "lat": 47.6576630010001, "lon": -117.398305, "charter": true, "level": "", "enrollment": 504, "teachers_fte": 32.0499992370605}], "5300340": [{"ncessch": "530034003593", "school_name": "ESA 112 Special Ed Co-Op", "city": "Vancouver", "state": "WA", "zip": "98661", "lat": 45.638878, "lon": -122.605932999, "charter": false, "level": "", "enrollment": 0, "teachers_fte": 0.0}], "5300342": [{"ncessch": "530034203602", "school_name": "Rainier Valley Leadership Academy", "city": "Seattle", "state": "WA", "zip": "98118", "lat": 47.5476400000001, "lon": -122.276311, "charter": true, "level": "", "enrollment": 145, "teachers_fte": 12.8900003433228}], "5300343": [{"ncessch": "530034303611", "school_name": "Summit Public School: Atlas", "city": "Seattle", "state": "WA", "zip": "98126", "lat": 47.5170900000001, "lon": -122.377971, "charter": true, "level": "", "enrollment": 458, "teachers_fte": 30.0}], "5300345": [{"ncessch": "530034503653", "school_name": "Impact Public Schools", "city": "Tukwila", "state": "WA", "zip": "98168", "lat": 47.4711, "lon": -122.288069001, "charter": true, "level": "", "enrollment": 596, "teachers_fte": 38.0999984741211}], "5300347": [{"ncessch": "530034703723", "school_name": "Catalyst Public Schools", "city": "Bremerton", "state": "WA", "zip": "98310", "lat": 47.572299, "lon": -122.612001, "charter": true, "level": "", "enrollment": 434, "teachers_fte": 27.8500003814697}], "5300348": [{"ncessch": "530034803749", "school_name": "Impact | Salish Sea Elementary", "city": "Tukwila", "state": "WA", "zip": "98168", "lat": 47.4711, "lon": -122.288069001, "charter": true, "level": "", "enrollment": 342, "teachers_fte": 28.0}], "5300349": [{"ncessch": "530034903783", "school_name": "Cascade Public Schools", "city": "Des Moines", "state": "WA", "zip": "98198", "lat": 47.4004800010001, "lon": -122.297927, "charter": true, "level": "", "enrollment": 146, "teachers_fte": 11.1000003814697}], "5300350": [{"ncessch": "530035003770", "school_name": "Lumen High School", "city": "Spokane", "state": "WA", "zip": "99218", "lat": 47.658286, "lon": -117.422936, "charter": true, "level": "", "enrollment": 36, "teachers_fte": 4.69999980926514}], "5300351": [{"ncessch": "530035103831", "school_name": "Intergenerational High School", "city": "Bellingham", "state": "WA", "zip": "98226", "lat": 48.7858410000001, "lon": -122.490864, "charter": true, "level": "", "enrollment": 69, "teachers_fte": 8.10000038146973}], "5300352": [{"ncessch": "530035203807", "school_name": "Pinnacles Prep Charter School", "city": "Wenatchee", "state": "WA", "zip": "98801", "lat": 47.4171029990001, "lon": -120.308942001, "charter": true, "level": "", "enrollment": 168, "teachers_fte": 10.5}], "5300354": [{"ncessch": "530035403782", "school_name": "Impact Public Schools", "city": "Tacoma", "state": "WA", "zip": "98404", "lat": 47.2328820000001, "lon": -122.413356, "charter": true, "level": "", "enrollment": 326, "teachers_fte": 29.0}], "5300355": [{"ncessch": "530035503780", "school_name": "Pullman Community Montessori", "city": "Pullman", "state": "WA", "zip": "99163", "lat": 46.7309880010001, "lon": -117.183173, "charter": true, "level": "", "enrollment": 97, "teachers_fte": 5.5}], "5300380": [{"ncessch": "530038000048", "school_name": "Amboy Middle School", "city": "AMBOY", "state": "WA", "zip": "98601", "lat": 45.9133, "lon": -122.443, "charter": false, "level": "", "enrollment": 549, "teachers_fte": 30.0499992370605}, {"ncessch": "530038000049", "school_name": "Battle Ground High School", "city": "BATTLE GROUND", "state": "WA", "zip": "98604", "lat": 45.7819000000001, "lon": -122.539999999, "charter": false, "level": "", "enrollment": 1798, "teachers_fte": 92.5100021362305}, {"ncessch": "530038000051", "school_name": "Glenwood Heights Primary", "city": "VANCOUVER", "state": "WA", "zip": "98662", "lat": 45.719055, "lon": -122.572016001, "charter": false, "level": "", "enrollment": 580, "teachers_fte": 36.7599983215332}, {"ncessch": "530038000052", "school_name": "Laurin Middle School", "city": "VANCOUVER", "state": "WA", "zip": "98662", "lat": 45.7212000000001, "lon": -122.5718, "charter": false, "level": "", "enrollment": 746, "teachers_fte": 40.0}, {"ncessch": "530038000054", "school_name": "Pleasant Valley Middle", "city": "VANCOUVER", "state": "WA", "zip": "98686", "lat": 45.7269000000001, "lon": -122.6217, "charter": false, "level": "", "enrollment": 396, "teachers_fte": 26.5}, {"ncessch": "530038000055", "school_name": "Pleasant Valley Primary", "city": "VANCOUVER", "state": "WA", "zip": "98686", "lat": 45.7263, "lon": -122.6232, "charter": false, "level": "", "enrollment": 556, "teachers_fte": 35.5}, {"ncessch": "530038000056", "school_name": "Yacolt Primary", "city": "YACOLT", "state": "WA", "zip": "98675", "lat": 45.8672, "lon": -122.411400001, "charter": false, "level": "", "enrollment": 734, "teachers_fte": 44.0499992370605}, {"ncessch": "530038001069", "school_name": "Summit View High School", "city": "Brush Prairie", "state": "WA", "zip": "98606", "lat": 45.7303020000001, "lon": -122.559316, "charter": false, "level": "", "enrollment": 271, "teachers_fte": 12.8000001907349}, {"ncessch": "530038001747", "school_name": "Prairie High School", "city": "BRUSH PRAIRIE", "state": "WA", "zip": "98662", "lat": 45.704844, "lon": -122.555444999, "charter": false, "level": "", "enrollment": 1603, "teachers_fte": 75.1999969482422}, {"ncessch": "530038002249", "school_name": "Preschool Infant Other", "city": "Brush Prairie", "state": "WA", "zip": "98606", "lat": 45.7303850000001, "lon": -122.560814, "charter": false, "level": "", "enrollment": 41, "teachers_fte": 1.0}, {"ncessch": "530038002278", "school_name": "Captain Strong", "city": "BATTLE GROUND", "state": "WA", "zip": "98604", "lat": 45.788399999, "lon": -122.5449, "charter": false, "level": "", "enrollment": 628, "teachers_fte": 38.1800003051758}, {"ncessch": "530038002782", "school_name": "CAM Academy", "city": "BATTLE GROUND", "state": "WA", "zip": "98604", "lat": 45.79096, "lon": -122.545821001, "charter": false, "level": "", "enrollment": 505, "teachers_fte": 18.25}, {"ncessch": "530038002857", "school_name": "Homelink River", "city": "BATTLE GROUND", "state": "WA", "zip": "98604", "lat": 45.7670630000001, "lon": -122.544664, "charter": false, "level": "", "enrollment": 973, "teachers_fte": 44.439998626709}, {"ncessch": "530038003176", "school_name": "Daybreak Middle", "city": "Battle Ground", "state": "WA", "zip": "98604", "lat": 45.7940399990001, "lon": -122.560011, "charter": false, "level": "", "enrollment": 424, "teachers_fte": 29.0}, {"ncessch": "530038003194", "school_name": "Daybreak Primary", "city": "Battle Ground", "state": "WA", "zip": "98604", "lat": 45.7940399990001, "lon": -122.560011, "charter": false, "level": "", "enrollment": 542, "teachers_fte": 36.0}, {"ncessch": "530038003214", "school_name": "Tukes Valley Middle School", "city": "Battle Ground", "state": "WA", "zip": "98604", "lat": 45.77304, "lon": -122.497679, "charter": false, "level": "", "enrollment": 455, "teachers_fte": 29.4899997711182}, {"ncessch": "530038003228", "school_name": "Tukes Valley Primary", "city": "Battle Ground", "state": "WA", "zip": "98604", "lat": 45.77304, "lon": -122.497679, "charter": false, "level": "", "enrollment": 515, "teachers_fte": 33.5}, {"ncessch": "530038003262", "school_name": "Chief Umtuch Middle", "city": "Battle Ground", "state": "WA", "zip": "98604", "lat": 45.7873089990001, "lon": -122.546095, "charter": false, "level": "", "enrollment": 553, "teachers_fte": 30.8999996185303}, {"ncessch": "530038003501", "school_name": "Open Doors Battle Ground", "city": "Brush Prairie", "state": "WA", "zip": "98606", "lat": 45.7303020000001, "lon": -122.559316, "charter": false, "level": "", "enrollment": 15, "teachers_fte": 0.0}, {"ncessch": "530038003601", "school_name": "Daybreak Youth Services", "city": "Brush Prairie", "state": "WA", "zip": "98606", "lat": 45.735348, "lon": -122.550452, "charter": false, "level": "", "enrollment": 12, "teachers_fte": 0.0}, {"ncessch": "530038003681", "school_name": "Maple Grove Primary", "city": "BATTLE GROUND", "state": "WA", "zip": "98604", "lat": 45.767858, "lon": -122.543814, "charter": false, "level": "", "enrollment": 497, "teachers_fte": 37.4900016784668}], "5300390": [{"ncessch": "530039000058", "school_name": "Ardmore Elementary School", "city": "Bellevue", "state": "WA", "zip": "98008", "lat": 47.6396, "lon": -122.1175, "charter": false, "level": "", "enrollment": 358, "teachers_fte": 22.2099990844727}, {"ncessch": "530039000060", "school_name": "Bellevue High School", "city": "Bellevue", "state": "WA", "zip": "98004", "lat": 47.603893, "lon": -122.197994001, "charter": false, "level": "", "enrollment": 1517, "teachers_fte": 69.120002746582}, {"ncessch": "530039000062", "school_name": "Bennett Elementary School", "city": "Bellevue", "state": "WA", "zip": "98008", "lat": 47.6250000000001, "lon": -122.101963, "charter": false, "level": "", "enrollment": 435, "teachers_fte": 23.3999996185303}, {"ncessch": "530039000063", "school_name": "Cherry Crest Elementary School", "city": "Bellevue", "state": "WA", "zip": "98005", "lat": 47.6404000000001, "lon": -122.1738, "charter": false, "level": "", "enrollment": 516, "teachers_fte": 23.7199993133545}, {"ncessch": "530039000064", "school_name": "Chinook Middle School", "city": "Bellevue", "state": "WA", "zip": "98004", "lat": 47.62814, "lon": -122.211081, "charter": false, "level": "", "enrollment": 814, "teachers_fte": 42.2200012207031}, {"ncessch": "530039000065", "school_name": "Clyde Hill Elementary", "city": "Bellevue", "state": "WA", "zip": "98004", "lat": 47.6308300000001, "lon": -122.211361, "charter": false, "level": "", "enrollment": 459, "teachers_fte": 21.4099998474121}, {"ncessch": "530039000066", "school_name": "Eastgate Elementary School", "city": "Bellevue", "state": "WA", "zip": "98006", "lat": 47.5701000000001, "lon": -122.137599999, "charter": false, "level": "", "enrollment": 316, "teachers_fte": 19.1299991607666}, {"ncessch": "530039000067", "school_name": "Enatai Elementary School", "city": "Bellevue", "state": "WA", "zip": "98004", "lat": 47.589144, "lon": -122.198366, "charter": false, "level": "", "enrollment": 433, "teachers_fte": 25.3899993896484}, {"ncessch": "530039000068", "school_name": "Highland Middle School", "city": "Bellevue", "state": "WA", "zip": "98007", "lat": 47.6261549990001, "lon": -122.140081, "charter": false, "level": "", "enrollment": 618, "teachers_fte": 40.2000007629395}, {"ncessch": "530039000072", "school_name": "Interlake Senior High School", "city": "Bellevue", "state": "WA", "zip": "98008", "lat": 47.6294, "lon": -122.1233, "charter": false, "level": "", "enrollment": 1543, "teachers_fte": 84.7699966430664}, {"ncessch": "530039000075", "school_name": "Lake Hills Elementary", "city": "Bellevue", "state": "WA", "zip": "98007", "lat": 47.601098, "lon": -122.148762, "charter": false, "level": "", "enrollment": 434, "teachers_fte": 31.8899993896484}, {"ncessch": "530039000076", "school_name": "Medina Elementary School", "city": "MEDINA", "state": "WA", "zip": "98039", "lat": 47.6167, "lon": -122.2338, "charter": false, "level": "", "enrollment": 449, "teachers_fte": 20.4799995422363}, {"ncessch": "530039000077", "school_name": "Newport Heights Elementary", "city": "Bellevue", "state": "WA", "zip": "98006", "lat": 47.55569, "lon": -122.18044, "charter": false, "level": "", "enrollment": 411, "teachers_fte": 24.0400009155273}, {"ncessch": "530039000078", "school_name": "Newport Senior High School", "city": "Bellevue", "state": "WA", "zip": "98006", "lat": 47.5675000000001, "lon": -122.171999999, "charter": false, "level": "", "enrollment": 1726, "teachers_fte": 87.8000030517578}, {"ncessch": "530039000079", "school_name": "Odle Middle School", "city": "Bellevue", "state": "WA", "zip": "98007", "lat": 47.6147560000001, "lon": -122.149267, "charter": false, "level": "", "enrollment": 873, "teachers_fte": 52.3300018310547}, {"ncessch": "530039000082", "school_name": "Phantom Lake Elementary", "city": "Bellevue", "state": "WA", "zip": "98008", "lat": 47.6003000000001, "lon": -122.1256, "charter": false, "level": "", "enrollment": 462, "teachers_fte": 23.9300003051758}, {"ncessch": "530039000085", "school_name": "Sammamish Senior High", "city": "Bellevue", "state": "WA", "zip": "98005", "lat": 47.6080000000001, "lon": -122.1523, "charter": false, "level": "", "enrollment": 1275, "teachers_fte": 66.5400009155273}, {"ncessch": "530039000086", "school_name": "Sherwood Forest Elementary", "city": "Bellevue", "state": "WA", "zip": "98008", "lat": 47.6309000000001, "lon": -122.120300001, "charter": false, "level": "", "enrollment": 375, "teachers_fte": 29.7800006866455}, {"ncessch": "530039000087", "school_name": "Somerset Elementary School", "city": "Bellevue", "state": "WA", "zip": "98006", "lat": 47.5632000000001, "lon": -122.1518, "charter": false, "level": "", "enrollment": 623, "teachers_fte": 31.8899993896484}, {"ncessch": "530039000088", "school_name": "Spiritridge Elementary School", "city": "Bellevue", "state": "WA", "zip": "98008", "lat": 47.5879, "lon": -122.1201, "charter": false, "level": "", "enrollment": 582, "teachers_fte": 31.5699996948242}, {"ncessch": "530039000089", "school_name": "Stevenson Elementary", "city": "Bellevue", "state": "WA", "zip": "98007", "lat": 47.6184870000001, "lon": -122.150454, "charter": false, "level": "", "enrollment": 532, "teachers_fte": 38.0999984741211}, {"ncessch": "530039000090", "school_name": "Puesta del Sol Elementary School", "city": "Bellevue", "state": "WA", "zip": "98006", "lat": 47.5759, "lon": -122.1638, "charter": false, "level": "", "enrollment": 450, "teachers_fte": 23.3600006103516}, {"ncessch": "530039000093", "school_name": "Tillicum Middle School", "city": "Bellevue", "state": "WA", "zip": "98008", "lat": 47.598939, "lon": -122.12534, "charter": false, "level": "", "enrollment": 684, "teachers_fte": 37.2999992370605}, {"ncessch": "530039000094", "school_name": "Tyee Middle School", "city": "Bellevue", "state": "WA", "zip": "98006", "lat": 47.5739, "lon": -122.1586, "charter": false, "level": "", "enrollment": 880, "teachers_fte": 46.7299995422363}, {"ncessch": "530039000096", "school_name": "Woodridge Elementary", "city": "Bellevue", "state": "WA", "zip": "98005", "lat": 47.592, "lon": -122.172899999, "charter": false, "level": "", "enrollment": 297, "teachers_fte": 19.9899997711182}, {"ncessch": "530039003149", "school_name": "International School", "city": "Bellevue", "state": "WA", "zip": "98005", "lat": 47.6041000000001, "lon": -122.1703, "charter": false, "level": "", "enrollment": 593, "teachers_fte": 30.7900009155273}, {"ncessch": "530039003354", "school_name": "Bellevue Big Picture School", "city": "Bellevue", "state": "WA", "zip": "98007", "lat": 47.5921000000001, "lon": -122.1418, "charter": false, "level": "", "enrollment": 385, "teachers_fte": 27.2000007629395}, {"ncessch": "530039003434", "school_name": "Central Educational Services", "city": "Bellevue", "state": "WA", "zip": "98005", "lat": 47.610579999, "lon": -122.178741, "charter": false, "level": "", "enrollment": 54, "teachers_fte": 2.82999992370605}, {"ncessch": "530039003455", "school_name": "Jing Mei Elementary School", "city": "Bellevue", "state": "WA", "zip": "98006", "lat": 47.55217, "lon": -122.170921, "charter": false, "level": "", "enrollment": 477, "teachers_fte": 20.8600006103516}, {"ncessch": "530039003462", "school_name": "Career Education Options Reengagement Program", "city": "BELLEVUE", "state": "WA", "zip": "98005", "lat": 47.610579999, "lon": -122.178741, "charter": false, "level": "", "enrollment": 25, "teachers_fte": 0.0}, {"ncessch": "530039003638", "school_name": "Wilburton Elementary School", "city": "Bellevue", "state": "WA", "zip": "98005", "lat": 47.6106780000001, "lon": -122.176425999, "charter": false, "level": "", "enrollment": 350, "teachers_fte": 21.8899993896484}, {"ncessch": "530039003883", "school_name": "Bellevue Digital Discovery", "city": "Bellevue", "state": "WA", "zip": "98005", "lat": 47.6106539990001, "lon": -122.179547, "charter": false, "level": "", "enrollment": 143, "teachers_fte": 0.0}], "5300420": [{"ncessch": "530042000098", "school_name": "Alderwood Elementary School", "city": "Bellingham", "state": "WA", "zip": "98225", "lat": 48.7787999990001, "lon": -122.5271, "charter": false, "level": "", "enrollment": 291, "teachers_fte": 23.7099990844727}, {"ncessch": "530042000099", "school_name": "Bellingham High School", "city": "Bellingham", "state": "WA", "zip": "98225", "lat": 48.756899999, "lon": -122.474099999, "charter": false, "level": "", "enrollment": 1218, "teachers_fte": 58.2999992370605}, {"ncessch": "530042000100", "school_name": "Birchwood Elementary School", "city": "Bellingham", "state": "WA", "zip": "98225", "lat": 48.7748, "lon": -122.506299999, "charter": false, "level": "", "enrollment": 369, "teachers_fte": 26.6299991607666}, {"ncessch": "530042000101", "school_name": "Carl Cozier Elementary School", "city": "Bellingham", "state": "WA", "zip": "98229", "lat": 48.746026, "lon": -122.461913, "charter": false, "level": "", "enrollment": 321, "teachers_fte": 23.8999996185303}, {"ncessch": "530042000103", "school_name": "Columbia Elementary School", "city": "Bellingham", "state": "WA", "zip": "98225", "lat": 48.7635000000001, "lon": -122.492399999, "charter": false, "level": "", "enrollment": 231, "teachers_fte": 16.2399997711182}, {"ncessch": "530042000104", "school_name": "Fairhaven Middle School", "city": "Bellingham", "state": "WA", "zip": "98225", "lat": 48.7146000000001, "lon": -122.503299999, "charter": false, "level": "", "enrollment": 597, "teachers_fte": 35.3199996948242}, {"ncessch": "530042000105", "school_name": "Geneva Elementary School", "city": "Bellingham", "state": "WA", "zip": "98229", "lat": 48.7482000000001, "lon": -122.4024, "charter": false, "level": "", "enrollment": 432, "teachers_fte": 26.1499996185303}, {"ncessch": "530042000106", "school_name": "Happy Valley Elementary School", "city": "Bellingham", "state": "WA", "zip": "98225", "lat": 48.7222620000001, "lon": -122.483734, "charter": false, "level": "", "enrollment": 456, "teachers_fte": 26.8099994659424}, {"ncessch": "530042000108", "school_name": "Lowell Elementary School", "city": "Bellingham", "state": "WA", "zip": "98225", "lat": 48.7244000000001, "lon": -122.4991, "charter": false, "level": "", "enrollment": 303, "teachers_fte": 20.2800006866455}, {"ncessch": "530042000110", "school_name": "Parkview Elementary School", "city": "Bellingham", "state": "WA", "zip": "98225", "lat": 48.770791, "lon": -122.478988, "charter": false, "level": "", "enrollment": 399, "teachers_fte": 24.8999996185303}, {"ncessch": "530042000112", "school_name": "Roosevelt Elementary School", "city": "Bellingham", "state": "WA", "zip": "98226", "lat": 48.7684, "lon": -122.4429, "charter": false, "level": "", "enrollment": 374, "teachers_fte": 27.2999992370605}, {"ncessch": "530042000113", "school_name": "Sehome High School", "city": "Bellingham", "state": "WA", "zip": "98225", "lat": 48.727268, "lon": -122.480112, "charter": false, "level": "", "enrollment": 1163, "teachers_fte": 54.5800018310547}, {"ncessch": "530042000114", "school_name": "Shuksan Middle School", "city": "Bellingham", "state": "WA", "zip": "98225", "lat": 48.778443, "lon": -122.501976, "charter": false, "level": "", "enrollment": 579, "teachers_fte": 36.4500007629395}, {"ncessch": "530042000115", "school_name": "Silver Beach Elementary School", "city": "Bellingham", "state": "WA", "zip": "98226", "lat": 48.7683000000001, "lon": -122.4168, "charter": false, "level": "", "enrollment": 349, "teachers_fte": 19.3999996185303}, {"ncessch": "530042000116", "school_name": "Sunnyland Elementary School", "city": "Bellingham", "state": "WA", "zip": "98225", "lat": 48.7673, "lon": -122.4644, "charter": false, "level": "", "enrollment": 316, "teachers_fte": 23.0}, {"ncessch": "530042000117", "school_name": "Whatcom Middle School", "city": "Bellingham", "state": "WA", "zip": "98225", "lat": 48.7590000000001, "lon": -122.480300001, "charter": false, "level": "", "enrollment": 600, "teachers_fte": 36.7400016784668}, {"ncessch": "530042001738", "school_name": "Options High School", "city": "Bellingham", "state": "WA", "zip": "98225", "lat": 48.7572450000001, "lon": -122.471079, "charter": false, "level": "", "enrollment": 188, "teachers_fte": 20.5}, {"ncessch": "530042001739", "school_name": "Kulshan Middle School", "city": "Bellingham", "state": "WA", "zip": "98229", "lat": 48.7454000000001, "lon": -122.4326, "charter": false, "level": "", "enrollment": 623, "teachers_fte": 37.25}, {"ncessch": "530042002693", "school_name": "Squalicum High School", "city": "Bellingham", "state": "WA", "zip": "98226", "lat": 48.7842000000001, "lon": -122.4228, "charter": false, "level": "", "enrollment": 1280, "teachers_fte": 64.870002746582}, {"ncessch": "530042002774", "school_name": "Visions (Seamar Youth Center)", "city": "Bellingham", "state": "WA", "zip": "98226", "lat": 48.7685000000001, "lon": -122.452900001, "charter": false, "level": "", "enrollment": 13, "teachers_fte": 0.0}, {"ncessch": "530042002939", "school_name": "Northern Heights Elementary Schl", "city": "Bellingham", "state": "WA", "zip": "98226", "lat": 48.7866000000001, "lon": -122.419, "charter": false, "level": "", "enrollment": 410, "teachers_fte": 26.3500003814697}, {"ncessch": "530042003225", "school_name": "Wade King Elementary School", "city": "Bellingham", "state": "WA", "zip": "98229", "lat": 48.7174000000001, "lon": -122.441800001, "charter": false, "level": "", "enrollment": 346, "teachers_fte": 24.5100002288818}, {"ncessch": "530042003358", "school_name": "Cordata Elementary School", "city": "Bellingham", "state": "WA", "zip": "98226", "lat": 48.801472001, "lon": -122.505468, "charter": false, "level": "", "enrollment": 393, "teachers_fte": 32.5099983215332}, {"ncessch": "530042003476", "school_name": "Bellingham Family Partnership Program", "city": "Bellingham", "state": "WA", "zip": "98225", "lat": 48.71896, "lon": -122.494111, "charter": false, "level": "", "enrollment": 266, "teachers_fte": 11.6000003814697}, {"ncessch": "530042003488", "school_name": "Bellingham Re-Engagement Program", "city": "Bellingham", "state": "WA", "zip": "98225", "lat": 48.7592700010001, "lon": -122.487030999, "charter": false, "level": "", "enrollment": 97, "teachers_fte": 0.0}], "5300450": [{"ncessch": "530045000118", "school_name": "Benge Elementary", "city": "BENGE", "state": "WA", "zip": "99105", "lat": 46.9107500010001, "lon": -118.099854, "charter": false, "level": "", "enrollment": 5, "teachers_fte": 2.0}], "5300480": [{"ncessch": "530048000119", "school_name": "Bethel High School", "city": "Spanaway", "state": "WA", "zip": "98387", "lat": 47.0545000000001, "lon": -122.3781, "charter": false, "level": "", "enrollment": 1739, "teachers_fte": 79.7200012207031}, {"ncessch": "530048000120", "school_name": "Bethel Middle School", "city": "Spanaway", "state": "WA", "zip": "98387", "lat": 47.0582000000001, "lon": -122.3786, "charter": false, "level": "", "enrollment": 697, "teachers_fte": 33.7999992370605}, {"ncessch": "530048000121", "school_name": "Chester H Thompson Elementary", "city": "TACOMA", "state": "WA", "zip": "98445", "lat": 47.1129040000001, "lon": -122.42625, "charter": false, "level": "", "enrollment": 624, "teachers_fte": 44.9199981689453}, {"ncessch": "530048000122", "school_name": "Clover Creek Elementary", "city": "Tacoma", "state": "WA", "zip": "98446", "lat": 47.1024619990001, "lon": -122.380267, "charter": false, "level": "", "enrollment": 630, "teachers_fte": 38.0999984741211}, {"ncessch": "530048000123", "school_name": "Elk Plain School of Choice", "city": "Spanaway", "state": "WA", "zip": "98397", "lat": 47.0564000000001, "lon": -122.3991, "charter": false, "level": "", "enrollment": 570, "teachers_fte": 36.8699989318848}, {"ncessch": "530048000124", "school_name": "Kapowsin Elementary", "city": "Graham", "state": "WA", "zip": "98338", "lat": 47.0155780010001, "lon": -122.292109001, "charter": false, "level": "", "enrollment": 336, "teachers_fte": 22.4400005340576}, {"ncessch": "530048000126", "school_name": "Roy Elementary", "city": "ROY", "state": "WA", "zip": "98580", "lat": 47.001499999, "lon": -122.5419, "charter": false, "level": "", "enrollment": 306, "teachers_fte": 20.1000003814697}, {"ncessch": "530048000127", "school_name": "Spanaway Elementary", "city": "Spanaway", "state": "WA", "zip": "98387", "lat": 47.107139999, "lon": -122.438301, "charter": false, "level": "", "enrollment": 364, "teachers_fte": 25.8299999237061}, {"ncessch": "530048000128", "school_name": "Spanaway Middle School", "city": "Tacoma", "state": "WA", "zip": "98445", "lat": 47.1155160000001, "lon": -122.427985, "charter": false, "level": "", "enrollment": 720, "teachers_fte": 34.7700004577637}, {"ncessch": "530048000595", "school_name": "Frontier Middle School", "city": "Graham", "state": "WA", "zip": "98338", "lat": 47.0556, "lon": -122.2881, "charter": false, "level": "", "enrollment": 647, "teachers_fte": 29.0799999237061}, {"ncessch": "530048001748", "school_name": "Evergreen Elementary", "city": "Spanaway", "state": "WA", "zip": "98387", "lat": 47.1015, "lon": -122.4117, "charter": false, "level": "", "enrollment": 539, "teachers_fte": 35.4700012207031}, {"ncessch": "530048001749", "school_name": "Naches Trail Elementary", "city": "Tacoma", "state": "WA", "zip": "98446", "lat": 47.1174999990001, "lon": -122.3881, "charter": false, "level": "", "enrollment": 447, "teachers_fte": 33.8699989318848}, {"ncessch": "530048001750", "school_name": "Shining Mountain Elementary", "city": "Spanaway", "state": "WA", "zip": "98387", "lat": 47.0601, "lon": -122.377600001, "charter": false, "level": "", "enrollment": 608, "teachers_fte": 38.75}, {"ncessch": "530048001819", "school_name": "Cedarcrest Middle School", "city": "Spanaway", "state": "WA", "zip": "98387", "lat": 47.0841, "lon": -122.4143, "charter": false, "level": "", "enrollment": 764, "teachers_fte": 36.7999992370605}, {"ncessch": "530048001821", "school_name": "Spanaway Lake High School", "city": "Spanaway", "state": "WA", "zip": "98387", "lat": 47.1056, "lon": -122.4124, "charter": false, "level": "", "enrollment": 1817, "teachers_fte": 76.6399993896484}, {"ncessch": "530048001925", "school_name": "Rocky Ridge Elementary", "city": "Graham", "state": "WA", "zip": "98338", "lat": 47.0198, "lon": -122.3455, "charter": false, "level": "", "enrollment": 411, "teachers_fte": 31.2199993133545}, {"ncessch": "530048002200", "school_name": "Challenger High School", "city": "Spanaway", "state": "WA", "zip": "98387", "lat": 47.0926519990001, "lon": -122.430969, "charter": false, "level": "", "enrollment": 271, "teachers_fte": 19.0}, {"ncessch": "530048002202", "school_name": "Camas Prairie Elementary", "city": "Spanaway", "state": "WA", "zip": "98387", "lat": 47.0963, "lon": -122.4274, "charter": false, "level": "", "enrollment": 527, "teachers_fte": 38.4000015258789}, {"ncessch": "530048002203", "school_name": "Graham Elementary", "city": "Graham", "state": "WA", "zip": "98338", "lat": 47.0703999990001, "lon": -122.2969, "charter": false, "level": "", "enrollment": 533, "teachers_fte": 33.9000015258789}, {"ncessch": "530048002250", "school_name": "Centennial Elementary", "city": "Graham", "state": "WA", "zip": "98338", "lat": 47.035784999, "lon": -122.355676, "charter": false, "level": "", "enrollment": 548, "teachers_fte": 35.8899993896484}, {"ncessch": "530048002430", "school_name": "Pioneer Valley Elementary", "city": "Spanaway", "state": "WA", "zip": "98387", "lat": 47.0709000000001, "lon": -122.3304, "charter": false, "level": "", "enrollment": 512, "teachers_fte": 32.6500015258789}, {"ncessch": "530048002747", "school_name": "North Star Elementary", "city": "Graham", "state": "WA", "zip": "98338", "lat": 47.0546000000001, "lon": -122.3283, "charter": false, "level": "", "enrollment": 469, "teachers_fte": 32.6399993896484}, {"ncessch": "530048003003", "school_name": "Graham Kapowsin High School", "city": "Graham", "state": "WA", "zip": "98338", "lat": 47.0574100000001, "lon": -122.286679, "charter": false, "level": "", "enrollment": 2011, "teachers_fte": 84.8099975585938}, {"ncessch": "530048003091", "school_name": "Thompson Preschool", "city": "Tacoma", "state": "WA", "zip": "98445", "lat": 47.114175, "lon": -122.426969, "charter": false, "level": "", "enrollment": 452, "teachers_fte": 0.0}, {"ncessch": "530048003158", "school_name": "Cougar Mountain Middle School", "city": "Graham", "state": "WA", "zip": "98338", "lat": 47.0192750000001, "lon": -122.362205, "charter": false, "level": "", "enrollment": 614, "teachers_fte": 30.0900001525879}, {"ncessch": "530048003272", "school_name": "Frederickson Elementary", "city": "PUYALLUP", "state": "WA", "zip": "98375", "lat": 47.099499999, "lon": -122.3313, "charter": false, "level": "", "enrollment": 516, "teachers_fte": 35.2999992370605}, {"ncessch": "530048003284", "school_name": "Pierce County Skills Center", "city": "Puyallup", "state": "WA", "zip": "98375", "lat": 47.1095510010001, "lon": -122.356678001, "charter": false, "level": "", "enrollment": 279, "teachers_fte": 11.0}, {"ncessch": "530048003288", "school_name": "Nelson Elementary School", "city": "Graham", "state": "WA", "zip": "98338", "lat": 47.0554000010001, "lon": -122.2859, "charter": false, "level": "", "enrollment": 707, "teachers_fte": 42.0200004577637}, {"ncessch": "530048003343", "school_name": "Liberty Middle School", "city": "Spanaway", "state": "WA", "zip": "98387", "lat": 47.0692860010001, "lon": -122.329564, "charter": false, "level": "", "enrollment": 936, "teachers_fte": 41.5099983215332}, {"ncessch": "530048003466", "school_name": "Acceleration Academy", "city": "Spanaway", "state": "WA", "zip": "98387", "lat": 47.1090510000001, "lon": -122.435396, "charter": false, "level": "", "enrollment": 343, "teachers_fte": 0.0}, {"ncessch": "530048003624", "school_name": "Bethel Elementary Learning Academy", "city": "Puyallup", "state": "WA", "zip": "98375", "lat": 47.109833999, "lon": -122.355494, "charter": false, "level": "", "enrollment": 20, "teachers_fte": 1.0}, {"ncessch": "530048003762", "school_name": "Bethel Virtual Academy", "city": "SPANAWAY", "state": "WA", "zip": "98387", "lat": 47.0692860010001, "lon": -122.329564, "charter": false, "level": "", "enrollment": 499, "teachers_fte": 25.1700000762939}, {"ncessch": "530048003778", "school_name": "Katherine G. Johnson Elementary School", "city": "Tacoma", "state": "WA", "zip": "98446", "lat": 47.1047300000001, "lon": -122.391407, "charter": false, "level": "", "enrollment": 559, "teachers_fte": 32.5299987792969}, {"ncessch": "530048003786", "school_name": "BETHEL HOPE EARLY LEARNING CENTER", "city": "Spanaway", "state": "WA", "zip": "98387", "lat": 47.1052780000001, "lon": -122.435931, "charter": false, "level": "", "enrollment": 141, "teachers_fte": 7.98000001907349}], "5300510": [{"ncessch": "530051000129", "school_name": "Bickleton Elementary & High Schl", "city": "Bickleton", "state": "WA", "zip": "99322", "lat": 45.9991680000001, "lon": -120.292293, "charter": false, "level": "", "enrollment": 104, "teachers_fte": 12.0}], "5300570": [{"ncessch": "530057000130", "school_name": "Blaine Elementary School", "city": "BLAINE", "state": "WA", "zip": "98230", "lat": 48.992599999, "lon": -122.741099999, "charter": false, "level": "", "enrollment": 463, "teachers_fte": 29.8600006103516}, {"ncessch": "530057000131", "school_name": "Blaine Middle School", "city": "BLAINE", "state": "WA", "zip": "98230", "lat": 48.9927000000001, "lon": -122.7383, "charter": false, "level": "", "enrollment": 459, "teachers_fte": 26.6000003814697}, {"ncessch": "530057000132", "school_name": "Blaine High School", "city": "BLAINE", "state": "WA", "zip": "98230", "lat": 48.9932000000001, "lon": -122.737, "charter": false, "level": "", "enrollment": 609, "teachers_fte": 37.0}, {"ncessch": "530057001740", "school_name": "Point Roberts Primary", "city": "POINT ROBERTS", "state": "WA", "zip": "98281", "lat": 48.9901789990001, "lon": -123.04239, "charter": false, "level": "", "enrollment": 10, "teachers_fte": 1.0}, {"ncessch": "530057001741", "school_name": "Blaine Primary School", "city": "BLAINE", "state": "WA", "zip": "98230", "lat": 48.9915, "lon": -122.740000001, "charter": false, "level": "", "enrollment": 463, "teachers_fte": 32.8699989318848}, {"ncessch": "530057003020", "school_name": "Blaine Home Connections", "city": "Blaine", "state": "WA", "zip": "98230", "lat": 48.9997000000001, "lon": -122.7446, "charter": false, "level": "", "enrollment": 64, "teachers_fte": 1.39999997615814}, {"ncessch": "530057003574", "school_name": "Blaine Re-Engagement", "city": "Bellingham", "state": "WA", "zip": "98225", "lat": 48.765703, "lon": -122.510531, "charter": false, "level": "", "enrollment": 13, "teachers_fte": 0.0}], "5300630": [{"ncessch": "530063000133", "school_name": "Boistfort Elem", "city": "Curtis", "state": "WA", "zip": "98538", "lat": 46.5501780000001, "lon": -123.133145, "charter": false, "level": "", "enrollment": 86, "teachers_fte": 4.44000005722046}], "5300660": [{"ncessch": "530066000135", "school_name": "Armin Jahr Elementary", "city": "Bremerton", "state": "WA", "zip": "98310", "lat": 47.5928250000001, "lon": -122.635621, "charter": false, "level": "", "enrollment": 380, "teachers_fte": 28.0}, {"ncessch": "530066000137", "school_name": "Crownhill Elementary School", "city": "Bremerton", "state": "WA", "zip": "98312", "lat": 47.5749180010001, "lon": -122.665253001, "charter": false, "level": "", "enrollment": 329, "teachers_fte": 25.0}, {"ncessch": "530066000139", "school_name": "Bremerton High School", "city": "Bremerton", "state": "WA", "zip": "98337", "lat": 47.57327, "lon": -122.63874, "charter": false, "level": "", "enrollment": 1221, "teachers_fte": 67.4300003051758}, {"ncessch": "530066000143", "school_name": "Naval Avenue Elementary School", "city": "Bremerton", "state": "WA", "zip": "98312", "lat": 47.5695880000001, "lon": -122.648484, "charter": false, "level": "", "enrollment": 334, "teachers_fte": 25.0}, {"ncessch": "530066000144", "school_name": "West Hills S.T.E.M. Academy", "city": "Bremerton", "state": "WA", "zip": "98312", "lat": 47.5572510010001, "lon": -122.666876, "charter": false, "level": "", "enrollment": 313, "teachers_fte": 26.0}, {"ncessch": "530066000146", "school_name": "View Ridge Elementary Arts Academy", "city": "Bremerton", "state": "WA", "zip": "98310", "lat": 47.593356999, "lon": -122.627272, "charter": false, "level": "", "enrollment": 398, "teachers_fte": 28.0}, {"ncessch": "530066000708", "school_name": "Kitsap Lake Elementary", "city": "Bremerton", "state": "WA", "zip": "98312", "lat": 47.571826, "lon": -122.693192, "charter": false, "level": "", "enrollment": 343, "teachers_fte": 24.0}, {"ncessch": "530066001144", "school_name": "Mountain View Middle School", "city": "Bremerton", "state": "WA", "zip": "98310", "lat": 47.58178, "lon": -122.61204, "charter": false, "level": "", "enrollment": 844, "teachers_fte": 47.8300018310547}, {"ncessch": "530066001751", "school_name": "Morgan Center School", "city": "Bremerton", "state": "WA", "zip": "98337", "lat": 47.57327, "lon": -122.63874, "charter": false, "level": "", "enrollment": 0, "teachers_fte": 0.0}, {"ncessch": "530066002081", "school_name": "West Sound Technical Skills Center", "city": "Bremerton", "state": "WA", "zip": "98312", "lat": 47.564941, "lon": -122.669376, "charter": false, "level": "", "enrollment": 40, "teachers_fte": 14.0}, {"ncessch": "530066002573", "school_name": "Renaissance Alternative High School", "city": "Bremerton", "state": "WA", "zip": "98312", "lat": 47.564379, "lon": -122.661367, "charter": false, "level": "", "enrollment": 107, "teachers_fte": 6.0}, {"ncessch": "530066002652", "school_name": "Bremerton Homelink Program", "city": "Bremerton", "state": "WA", "zip": "98312", "lat": 47.5749180010001, "lon": -122.665253001, "charter": false, "level": "", "enrollment": 61, "teachers_fte": 2.0}, {"ncessch": "530066003269", "school_name": "Special Services", "city": "Bremerton", "state": "WA", "zip": "98312", "lat": 47.5650850000001, "lon": -122.661846, "charter": false, "level": "", "enrollment": 13, "teachers_fte": 0.0}], "5300690": [{"ncessch": "530069000148", "school_name": "Brewster Elementary School", "city": "BREWSTER", "state": "WA", "zip": "98812", "lat": 48.094371999, "lon": -119.786029001, "charter": false, "level": "", "enrollment": 452, "teachers_fte": 30.8899993896484}, {"ncessch": "530069000149", "school_name": "Brewster High School", "city": "BREWSTER", "state": "WA", "zip": "98812", "lat": 48.093937, "lon": -119.787652999, "charter": false, "level": "", "enrollment": 300, "teachers_fte": 15.1000003814697}, {"ncessch": "530069002284", "school_name": "Brewster Middle School", "city": "BREWSTER", "state": "WA", "zip": "98812", "lat": 48.0939920000001, "lon": -119.785739001, "charter": false, "level": "", "enrollment": 243, "teachers_fte": 11.4099998474121}, {"ncessch": "530069003381", "school_name": "Brewster Alternative School", "city": "Brewster", "state": "WA", "zip": "98812", "lat": 48.099412, "lon": -119.783193, "charter": false, "level": "", "enrollment": 17, "teachers_fte": 0.629999995231628}], "5300720": [{"ncessch": "530072000150", "school_name": "Bridgeport Elementary", "city": "BRIDGEPORT", "state": "WA", "zip": "98813", "lat": 48.0055849990001, "lon": -119.675029001, "charter": false, "level": "", "enrollment": 329, "teachers_fte": 22.7399997711182}, {"ncessch": "530072000151", "school_name": "Bridgeport High School", "city": "BRIDGEPORT", "state": "WA", "zip": "98813", "lat": 48.0068000000001, "lon": -119.6759, "charter": false, "level": "", "enrollment": 236, "teachers_fte": 15.0}, {"ncessch": "530072001271", "school_name": "Bridgeport Middle School", "city": "Bridgeport", "state": "WA", "zip": "98813", "lat": 48.0075000000001, "lon": -119.6752, "charter": false, "level": "", "enrollment": 182, "teachers_fte": 12.0}, {"ncessch": "530072002890", "school_name": "Bridgeport Aurora High School", "city": "BRIDGEPORT", "state": "WA", "zip": "98813", "lat": 48.0055849990001, "lon": -119.675029001, "charter": false, "level": "", "enrollment": 29, "teachers_fte": 0.0}], "5300750": [{"ncessch": "530075000153", "school_name": "Brinnon Elementary", "city": "BRINNON", "state": "WA", "zip": "98320", "lat": 47.697279, "lon": -122.903119, "charter": false, "level": "", "enrollment": 74, "teachers_fte": 5.71000003814697}], "5300780": [{"ncessch": "530078000154", "school_name": "Allen Elementary", "city": "BOW", "state": "WA", "zip": "98232", "lat": 48.5093000000001, "lon": -122.3741, "charter": false, "level": "", "enrollment": 404, "teachers_fte": 27.9699993133545}, {"ncessch": "530078000155", "school_name": "Burlington Edison High School", "city": "BURLINGTON", "state": "WA", "zip": "98233", "lat": 48.4777779990001, "lon": -122.337499, "charter": false, "level": "", "enrollment": 1139, "teachers_fte": 59.9000015258789}, {"ncessch": "530078000156", "school_name": "Edison Elementary", "city": "EDISON", "state": "WA", "zip": "98232", "lat": 48.5614, "lon": -122.438199999, "charter": false, "level": "", "enrollment": 361, "teachers_fte": 25.75}, {"ncessch": "530078000157", "school_name": "Lucille Umbarger Elementary", "city": "BURLINGTON", "state": "WA", "zip": "98233", "lat": 48.4692000000001, "lon": -122.317500001, "charter": false, "level": "", "enrollment": 568, "teachers_fte": 42.0499992370605}, {"ncessch": "530078000159", "school_name": "West View Elementary", "city": "BURLINGTON", "state": "WA", "zip": "98233", "lat": 48.4773000000001, "lon": -122.3413, "charter": false, "level": "", "enrollment": 405, "teachers_fte": 25.4699993133545}, {"ncessch": "530078000689", "school_name": "Bay View Elementary", "city": "BURLINGTON", "state": "WA", "zip": "98233", "lat": 48.487943, "lon": -122.417395, "charter": false, "level": "", "enrollment": 409, "teachers_fte": 30.6299991607666}, {"ncessch": "530078001722", "school_name": "BECC", "city": "BURLINGTON", "state": "WA", "zip": "98233", "lat": 48.4757930000001, "lon": -122.322358, "charter": false, "level": "", "enrollment": 33, "teachers_fte": 4.0}, {"ncessch": "530078003103", "school_name": "Burlington-Edison Alternative School", "city": "Burlington", "state": "WA", "zip": "98233", "lat": 48.4777779990001, "lon": -122.337499, "charter": false, "level": "", "enrollment": 23, "teachers_fte": 2.0}, {"ncessch": "530078003639", "school_name": "Open Doors", "city": "Mt. Vernon", "state": "WA", "zip": "98273", "lat": 48.4373600000001, "lon": -122.310281001, "charter": false, "level": "", "enrollment": 9, "teachers_fte": 0.0}], "5300810": [{"ncessch": "530081000163", "school_name": "Lacamas Lake Elementary", "city": "Camas", "state": "WA", "zip": "98607", "lat": 45.630887999, "lon": -122.43109, "charter": false, "level": "", "enrollment": 360, "teachers_fte": 23.2000007629395}, {"ncessch": "530081001823", "school_name": "Dorothy Fox", "city": "Camas", "state": "WA", "zip": "98607", "lat": 45.5985000000001, "lon": -122.4304, "charter": false, "level": "", "enrollment": 506, "teachers_fte": 31.7000007629395}, {"ncessch": "530081002083", "school_name": "Helen Baller Elem", "city": "Camas", "state": "WA", "zip": "98607", "lat": 45.5943790000001, "lon": -122.402212, "charter": false, "level": "", "enrollment": 524, "teachers_fte": 32.5}, {"ncessch": "530081002512", "school_name": "Skyridge Middle School", "city": "Camas", "state": "WA", "zip": "98607", "lat": 45.6156549990001, "lon": -122.448344, "charter": false, "level": "", "enrollment": 734, "teachers_fte": 42.2999992370605}, {"ncessch": "530081002880", "school_name": "Prune Hill Elem", "city": "Camas", "state": "WA", "zip": "98607", "lat": 45.590804, "lon": -122.45536, "charter": false, "level": "", "enrollment": 449, "teachers_fte": 25.6299991607666}, {"ncessch": "530081003066", "school_name": "Liberty Middle School", "city": "Camas", "state": "WA", "zip": "98607", "lat": 45.5893380000001, "lon": -122.459775, "charter": false, "level": "", "enrollment": 681, "teachers_fte": 37.8699989318848}, {"ncessch": "530081003081", "school_name": "Papermaker Preschool", "city": "Camas", "state": "WA", "zip": "98607", "lat": 45.6123450000001, "lon": -122.398635, "charter": false, "level": "", "enrollment": 34, "teachers_fte": 1.0}, {"ncessch": "530081003152", "school_name": "Camas High School", "city": "Camas", "state": "WA", "zip": "98607", "lat": 45.6123000000001, "lon": -122.3986, "charter": false, "level": "", "enrollment": 1964, "teachers_fte": 94.0}, {"ncessch": "530081003200", "school_name": "Hayes Freedom High School", "city": "Camas", "state": "WA", "zip": "98607", "lat": 45.592653, "lon": -122.401196, "charter": false, "level": "", "enrollment": 143, "teachers_fte": 8.85999965667725}, {"ncessch": "530081003312", "school_name": "Grass Valley Elementary", "city": "Camas", "state": "WA", "zip": "98607", "lat": 45.6107590010001, "lon": -122.441068, "charter": false, "level": "", "enrollment": 463, "teachers_fte": 27.6000003814697}, {"ncessch": "530081003460", "school_name": "Woodburn Elementary", "city": "Camas", "state": "WA", "zip": "98607", "lat": 45.6033090000001, "lon": -122.385956, "charter": false, "level": "", "enrollment": 622, "teachers_fte": 36.75}, {"ncessch": "530081003646", "school_name": "Camas School District Open Doors", "city": "Camas", "state": "WA", "zip": "98607", "lat": 45.592653, "lon": -122.401196, "charter": false, "level": "", "enrollment": 6, "teachers_fte": 0.0}, {"ncessch": "530081003652", "school_name": "Odyssey Middle School", "city": "Camas", "state": "WA", "zip": "98607", "lat": 45.5932770000001, "lon": -122.460782999, "charter": false, "level": "", "enrollment": 288, "teachers_fte": 10.8000001907349}, {"ncessch": "530081003662", "school_name": "Discovery High School", "city": "Camas", "state": "WA", "zip": "98607", "lat": 45.594008, "lon": -122.462124999, "charter": false, "level": "", "enrollment": 191, "teachers_fte": 14.1899995803833}, {"ncessch": "530081003689", "school_name": "The Heights Learning Center", "city": "Camas", "state": "WA", "zip": "98607", "lat": 45.613157001, "lon": -122.402823999, "charter": false, "level": "", "enrollment": 191, "teachers_fte": 0.0}, {"ncessch": "530081003823", "school_name": "Camas Connect Academy", "city": "Camas", "state": "WA", "zip": "98607", "lat": 45.595602001, "lon": -122.401987, "charter": false, "level": "", "enrollment": 168, "teachers_fte": 11.6999998092651}], "5300840": [{"ncessch": "530084000164", "school_name": "Clallam Bay High & Elementary", "city": "Clallam Bay", "state": "WA", "zip": "98326", "lat": 48.2521, "lon": -124.2587, "charter": false, "level": "", "enrollment": 113, "teachers_fte": 11.0}, {"ncessch": "530084000165", "school_name": "Neah Bay Junior/ Senior High School", "city": "Neah Bay", "state": "WA", "zip": "98357", "lat": 48.3632000000001, "lon": -124.622399999, "charter": false, "level": "", "enrollment": 189, "teachers_fte": 16.0}, {"ncessch": "530084003030", "school_name": "Cape Flattery Preschool", "city": "Sekiu", "state": "WA", "zip": "98381", "lat": 48.2659800000001, "lon": -124.332835001, "charter": false, "level": "", "enrollment": 3, "teachers_fte": 0.0}, {"ncessch": "530084003042", "school_name": "Neah Bay Elementary School", "city": "Neah Bay", "state": "WA", "zip": "98357", "lat": 48.3632000000001, "lon": -124.622399999, "charter": false, "level": "", "enrollment": 174, "teachers_fte": 12.5}], "5300870": [{"ncessch": "530087000166", "school_name": "Carbonado Historical School 19", "city": "Carbonado", "state": "WA", "zip": "98323", "lat": 47.0813470000001, "lon": -122.054216, "charter": false, "level": "", "enrollment": 180, "teachers_fte": 12.5}], "5300950": [{"ncessch": "530095000553", "school_name": "Icicle River Middle School", "city": "Leavenworth", "state": "WA", "zip": "98826", "lat": 47.602, "lon": -120.6561, "charter": false, "level": "", "enrollment": 266, "teachers_fte": 23.1499996185303}, {"ncessch": "530095001933", "school_name": "Peshastin Dryden Elementary", "city": "Peshastin", "state": "WA", "zip": "98847", "lat": 47.567957, "lon": -120.602823, "charter": false, "level": "", "enrollment": 289, "teachers_fte": 18.5}, {"ncessch": "530095001934", "school_name": "Alpine Lakes Elementary", "city": "Leavenworth", "state": "WA", "zip": "98826", "lat": 47.6016320000001, "lon": -120.661649, "charter": false, "level": "", "enrollment": 253, "teachers_fte": 15.5}, {"ncessch": "530095001935", "school_name": "Cascade High School", "city": "Leavenworth", "state": "WA", "zip": "98826", "lat": 47.6018, "lon": -120.654499999, "charter": false, "level": "", "enrollment": 397, "teachers_fte": 23.7700004577637}, {"ncessch": "530095002937", "school_name": "Beaver Valley School", "city": "Leavenworth", "state": "WA", "zip": "98826", "lat": 47.7699000000001, "lon": -120.6652, "charter": false, "level": "", "enrollment": 17, "teachers_fte": 2.0}, {"ncessch": "530095003528", "school_name": "Cascade Home-Link", "city": "Leavenworth", "state": "WA", "zip": "98826", "lat": 47.5977600000001, "lon": -120.663771, "charter": false, "level": "", "enrollment": 23, "teachers_fte": 2.0}, {"ncessch": "530095003726", "school_name": "Kodiak Virtual Academy", "city": "LEAVENWORTH", "state": "WA", "zip": "98826", "lat": 47.5977600000001, "lon": -120.663771, "charter": false, "level": "", "enrollment": 7, "teachers_fte": 0.0}], "5300960": [{"ncessch": "530096000168", "school_name": "CASHMERE HIGH SCHOOL", "city": "Cashmere", "state": "WA", "zip": "98815", "lat": 47.513, "lon": -120.4791, "charter": false, "level": "", "enrollment": 503, "teachers_fte": 27.7199993133545}, {"ncessch": "530096000169", "school_name": "CASHMERE MIDDLE SCHOOL", "city": "Cashmere", "state": "WA", "zip": "98815", "lat": 47.5157070000001, "lon": -120.477123, "charter": false, "level": "", "enrollment": 506, "teachers_fte": 33.0800018310547}, {"ncessch": "530096000170", "school_name": "VALE ELEMENTARY SCHOOL", "city": "Cashmere", "state": "WA", "zip": "98815", "lat": 47.518, "lon": -120.471399999, "charter": false, "level": "", "enrollment": 571, "teachers_fte": 40.4000015258789}], "5300990": [{"ncessch": "530099000171", "school_name": "Castle Rock Elementary", "city": "CASTLE ROCK", "state": "WA", "zip": "98611", "lat": 46.2709260010001, "lon": -122.905367, "charter": false, "level": "", "enrollment": 702, "teachers_fte": 39.75}, {"ncessch": "530099000172", "school_name": "Castle Rock High School", "city": "CASTLE ROCK", "state": "WA", "zip": "98611", "lat": 46.282336, "lon": -122.917566, "charter": false, "level": "", "enrollment": 449, "teachers_fte": 25.1299991607666}, {"ncessch": "530099000173", "school_name": "Castle Rock Middle School", "city": "CASTLE ROCK", "state": "WA", "zip": "98611", "lat": 46.2717000000001, "lon": -122.9078, "charter": false, "level": "", "enrollment": 348, "teachers_fte": 20.5}, {"ncessch": "530099003787", "school_name": "Castle Rock Virtual Academy", "city": "Castle Rock", "state": "WA", "zip": "98611", "lat": 46.282336, "lon": -122.917566, "charter": false, "level": "", "enrollment": 9, "teachers_fte": 0.0}], "5301050": [{"ncessch": "530105000175", "school_name": "Centerville Elementary", "city": "Centerville", "state": "WA", "zip": "98613", "lat": 45.752464, "lon": -120.899806001, "charter": false, "level": "", "enrollment": 97, "teachers_fte": 5.0}], "5301080": [{"ncessch": "530108000176", "school_name": "Brownsville Elementary", "city": "SILVERDALE", "state": "WA", "zip": "98311", "lat": 47.6419000000001, "lon": -122.6075, "charter": false, "level": "", "enrollment": 425, "teachers_fte": 27.0}, {"ncessch": "530108000177", "school_name": "Central Kitsap High School", "city": "SILVERDALE", "state": "WA", "zip": "98383", "lat": 47.6538640000001, "lon": -122.700124999, "charter": false, "level": "", "enrollment": 1659, "teachers_fte": 72.1999969482422}, {"ncessch": "530108000178", "school_name": "Central Kitsap Middle School", "city": "SILVERDALE", "state": "WA", "zip": "98383", "lat": 47.6538640000001, "lon": -122.700124999, "charter": false, "level": "", "enrollment": 633, "teachers_fte": 29.7999992370605}, {"ncessch": "530108000180", "school_name": "Clear Creek Elementary School", "city": "SILVERDALE", "state": "WA", "zip": "98383", "lat": 47.683722, "lon": -122.702013001, "charter": false, "level": "", "enrollment": 461, "teachers_fte": 31.4599990844727}, {"ncessch": "530108000181", "school_name": "Cottonwood Elementary School", "city": "SILVERDALE", "state": "WA", "zip": "98383", "lat": 47.6428000000001, "lon": -122.646100001, "charter": false, "level": "", "enrollment": 382, "teachers_fte": 26.0599994659424}, {"ncessch": "530108000182", "school_name": "Esquire Hills Elementary", "city": "Bremerton", "state": "WA", "zip": "98311", "lat": 47.6331000000001, "lon": -122.615, "charter": false, "level": "", "enrollment": 273, "teachers_fte": 21.0}, {"ncessch": "530108000183", "school_name": "Fairview Middle School", "city": "BREMERTON", "state": "WA", "zip": "98310", "lat": 47.6369000010001, "lon": -122.6515, "charter": false, "level": "", "enrollment": 609, "teachers_fte": 33.439998626709}, {"ncessch": "530108000184", "school_name": "John D. Bud Hawk Elementary at Jackson Park", "city": "BREMERTON", "state": "WA", "zip": "98312", "lat": 47.5928000000001, "lon": -122.696300001, "charter": false, "level": "", "enrollment": 457, "teachers_fte": 29.4400005340576}, {"ncessch": "530108000530", "school_name": "Green Mountain Elementary", "city": "BREMERTON", "state": "WA", "zip": "98312", "lat": 47.598599999, "lon": -122.819800001, "charter": false, "level": "", "enrollment": 366, "teachers_fte": 23.0}, {"ncessch": "530108000757", "school_name": "Emerald Heights Elementary", "city": "SILVERDALE", "state": "WA", "zip": "98383", "lat": 47.6747999990001, "lon": -122.665000001, "charter": false, "level": "", "enrollment": 479, "teachers_fte": 27.3299999237061}, {"ncessch": "530108001752", "school_name": "Woodlands Elementary", "city": "BREMERTON", "state": "WA", "zip": "98311", "lat": 47.6299000000001, "lon": -122.647799999, "charter": false, "level": "", "enrollment": 379, "teachers_fte": 26.0}, {"ncessch": "530108001753", "school_name": "Olympic High School", "city": "BREMERTON", "state": "WA", "zip": "98311", "lat": 47.6257000000001, "lon": -122.6651, "charter": false, "level": "", "enrollment": 1162, "teachers_fte": 52.7999992370605}, {"ncessch": "530108001754", "school_name": "Silverdale Elementary", "city": "SILVERDALE", "state": "WA", "zip": "98383", "lat": 47.6438000000001, "lon": -122.7176, "charter": false, "level": "", "enrollment": 415, "teachers_fte": 27.1399993896484}, {"ncessch": "530108002056", "school_name": "Ridgetop Middle School", "city": "SILVERDALE", "state": "WA", "zip": "98383", "lat": 47.6584, "lon": -122.6683, "charter": false, "level": "", "enrollment": 744, "teachers_fte": 34.7999992370605}, {"ncessch": "530108002251", "school_name": "Cougar Valley Elementary", "city": "SILVERDALE", "state": "WA", "zip": "98383", "lat": 47.683000001, "lon": -122.7257, "charter": false, "level": "", "enrollment": 410, "teachers_fte": 29.2700004577637}, {"ncessch": "530108002287", "school_name": "Silver Ridge Elementary", "city": "SILVERDALE", "state": "WA", "zip": "98383", "lat": 47.658399999, "lon": -122.666799999, "charter": false, "level": "", "enrollment": 427, "teachers_fte": 28.2199993133545}, {"ncessch": "530108002524", "school_name": "Klahowya Secondary", "city": "SILVERDALE", "state": "WA", "zip": "98383", "lat": 47.6287, "lon": -122.754200001, "charter": false, "level": "", "enrollment": 969, "teachers_fte": 46.5}, {"ncessch": "530108002655", "school_name": "Pinecrest Elementary", "city": "BREMERTON", "state": "WA", "zip": "98311", "lat": 47.6129999990001, "lon": -122.6366, "charter": false, "level": "", "enrollment": 426, "teachers_fte": 27.2999992370605}, {"ncessch": "530108003622", "school_name": "Barker Creek Community School", "city": "Bremerton", "state": "WA", "zip": "98311", "lat": 47.6223430000001, "lon": -122.631444, "charter": false, "level": "", "enrollment": 530, "teachers_fte": 15.8000001907349}], "5301110": [{"ncessch": "530111000187", "school_name": "Adams Elementary", "city": "Spokane Valley", "state": "WA", "zip": "99037", "lat": 47.6501000010001, "lon": -117.206300001, "charter": false, "level": "", "enrollment": 369, "teachers_fte": 31.0}, {"ncessch": "530111000188", "school_name": "Summit School", "city": "Spokane Valley", "state": "WA", "zip": "99216", "lat": 47.6652900010001, "lon": -117.224941001, "charter": false, "level": "", "enrollment": 351, "teachers_fte": 26.2900009155273}, {"ncessch": "530111000189", "school_name": "Bowdish Middle School", "city": "Spokane Valley", "state": "WA", "zip": "99206", "lat": 47.6374000000001, "lon": -117.2519, "charter": false, "level": "", "enrollment": 419, "teachers_fte": 29.7999992370605}, {"ncessch": "530111000190", "school_name": "Broadway Elementary", "city": "Spokane Valley", "state": "WA", "zip": "99206", "lat": 47.6638, "lon": -117.2574, "charter": false, "level": "", "enrollment": 289, "teachers_fte": 24.0}, {"ncessch": "530111000191", "school_name": "Central Valley High School", "city": "Spokane Valley", "state": "WA", "zip": "99037", "lat": 47.6492000000001, "lon": -117.1934, "charter": false, "level": "", "enrollment": 1376, "teachers_fte": 75.1999969482422}, {"ncessch": "530111000192", "school_name": "Chester Elementary School", "city": "Spokane Valley", "state": "WA", "zip": "99206", "lat": 47.623931, "lon": -117.238615, "charter": false, "level": "", "enrollment": 419, "teachers_fte": 29.2999992370605}, {"ncessch": "530111000193", "school_name": "Evergreen Middle School", "city": "Spokane Valley", "state": "WA", "zip": "99037", "lat": 47.6430290000001, "lon": -117.212879, "charter": false, "level": "", "enrollment": 632, "teachers_fte": 35.2000007629395}, {"ncessch": "530111000194", "school_name": "Greenacres Elementary", "city": "Spokane Valley", "state": "WA", "zip": "99016", "lat": 47.6539000000001, "lon": -117.1635, "charter": false, "level": "", "enrollment": 606, "teachers_fte": 42.2400016784668}, {"ncessch": "530111000195", "school_name": "Greenacres Middle School", "city": "Spokane Valley", "state": "WA", "zip": "99016", "lat": 47.6584, "lon": -117.17, "charter": false, "level": "", "enrollment": 512, "teachers_fte": 28.6000003814697}, {"ncessch": "530111000197", "school_name": "McDonald Elementary School", "city": "Spokane Valley", "state": "WA", "zip": "99216", "lat": 47.6430000010001, "lon": -117.2297, "charter": false, "level": "", "enrollment": 300, "teachers_fte": 25.0}, {"ncessch": "530111000198", "school_name": "North Pines Middle School", "city": "Spokane Valley", "state": "WA", "zip": "99206", "lat": 47.6635680000001, "lon": -117.244739999, "charter": false, "level": "", "enrollment": 509, "teachers_fte": 30.1100006103516}, {"ncessch": "530111000199", "school_name": "Opportunity Elementary", "city": "Spokane Valley", "state": "WA", "zip": "99206", "lat": 47.6466, "lon": -117.2474, "charter": false, "level": "", "enrollment": 634, "teachers_fte": 47.6699981689453}, {"ncessch": "530111000200", "school_name": "Progress Elementary School", "city": "Spokane Valley", "state": "WA", "zip": "99037", "lat": 47.6638, "lon": -117.201400001, "charter": false, "level": "", "enrollment": 231, "teachers_fte": 19.0}, {"ncessch": "530111000201", "school_name": "South Pines Elementary", "city": "Spokane Valley", "state": "WA", "zip": "99206", "lat": 47.6356000000001, "lon": -117.2429, "charter": false, "level": "", "enrollment": 268, "teachers_fte": 24.3400001525879}, {"ncessch": "530111000202", "school_name": "Mica Peak High School", "city": "Spokane Valley", "state": "WA", "zip": "99037", "lat": 47.6584810000001, "lon": -117.201206, "charter": false, "level": "", "enrollment": 118, "teachers_fte": 16.0}, {"ncessch": "530111000203", "school_name": "University Elementary School", "city": "Spokane Valley", "state": "WA", "zip": "99206", "lat": 47.6419000000001, "lon": -117.2607, "charter": false, "level": "", "enrollment": 290, "teachers_fte": 24.0}, {"ncessch": "530111000204", "school_name": "University High School", "city": "Spokane Valley", "state": "WA", "zip": "99216", "lat": 47.6267000010001, "lon": -117.236999999, "charter": false, "level": "", "enrollment": 1445, "teachers_fte": 80.0999984741211}, {"ncessch": "530111001756", "school_name": "Ponderosa Elementary", "city": "Spokane Valley", "state": "WA", "zip": "99206", "lat": 47.6193050000001, "lon": -117.268097, "charter": false, "level": "", "enrollment": 415, "teachers_fte": 31.5}, {"ncessch": "530111001826", "school_name": "Horizon Middle School", "city": "Spokane Valley", "state": "WA", "zip": "99206", "lat": 47.6214000000001, "lon": -117.237500001, "charter": false, "level": "", "enrollment": 487, "teachers_fte": 28.0}, {"ncessch": "530111001827", "school_name": "Sunrise Elementary", "city": "Spokane Valley", "state": "WA", "zip": "99206", "lat": 47.635855, "lon": -117.208623, "charter": false, "level": "", "enrollment": 679, "teachers_fte": 43.8300018310547}, {"ncessch": "530111002681", "school_name": "Liberty Lake Elementary", "city": "Liberty Lake", "state": "WA", "zip": "99019", "lat": 47.6666000000001, "lon": -117.088, "charter": false, "level": "", "enrollment": 479, "teachers_fte": 25.5}, {"ncessch": "530111003012", "school_name": "School to Life", "city": "Spokane Valley", "state": "WA", "zip": "99037", "lat": 47.6584810000001, "lon": -117.201206, "charter": false, "level": "", "enrollment": 33, "teachers_fte": 0.0}, {"ncessch": "530111003059", "school_name": "Central Valley Early Learning Center", "city": "Spokane Valley", "state": "WA", "zip": "99206", "lat": 47.6584810000001, "lon": -117.201206, "charter": false, "level": "", "enrollment": 398, "teachers_fte": 8.60999965667725}, {"ncessch": "530111003137", "school_name": "Spokane Valley Learning Academy", "city": "Spokane Valley", "state": "WA", "zip": "99016", "lat": 47.6706510000001, "lon": -117.153183, "charter": false, "level": "", "enrollment": 44, "teachers_fte": 3.40000009536743}, {"ncessch": "530111003387", "school_name": "Spokane Valley Tech Skills Center", "city": "Spokane Valley", "state": "WA", "zip": "99206", "lat": 47.655647, "lon": -117.260274, "charter": false, "level": "", "enrollment": 12, "teachers_fte": 3.0}, {"ncessch": "530111003437", "school_name": "CVSD Open Doors Programs", "city": "Liberty Lake", "state": "WA", "zip": "99019", "lat": 47.6779790000001, "lon": -117.090529, "charter": false, "level": "", "enrollment": 77, "teachers_fte": 0.0}, {"ncessch": "530111003596", "school_name": "Liberty Creek Elementary School", "city": "Liberty Lake", "state": "WA", "zip": "99019", "lat": 47.6656560000001, "lon": -117.084139, "charter": false, "level": "", "enrollment": 501, "teachers_fte": 37.0}, {"ncessch": "530111003629", "school_name": "Riverbend Elementary School", "city": "Spokane Valley", "state": "WA", "zip": "99016", "lat": 47.670783, "lon": -117.165784, "charter": false, "level": "", "enrollment": 569, "teachers_fte": 39.8300018310547}, {"ncessch": "530111003657", "school_name": "Stem Academy at SVT", "city": "Spokane Valley", "state": "WA", "zip": "99206", "lat": 47.655647, "lon": -117.260274, "charter": false, "level": "", "enrollment": 184, "teachers_fte": 10.0}, {"ncessch": "530111003706", "school_name": "Selkirk Middle School", "city": "Liberty Lake", "state": "WA", "zip": "99016", "lat": 47.67053, "lon": -117.132695, "charter": false, "level": "", "enrollment": 566, "teachers_fte": 27.7999992370605}, {"ncessch": "530111003781", "school_name": "Ridgeline High School", "city": "Liberty Lake", "state": "WA", "zip": "99019", "lat": 47.6610410000001, "lon": -117.133979, "charter": false, "level": "", "enrollment": 1368, "teachers_fte": 66.0}, {"ncessch": "530111003788", "school_name": "Central Valley Virtual Learning", "city": "Spokane Valley", "state": "WA", "zip": "99016", "lat": 47.6706510000001, "lon": -117.153183, "charter": false, "level": "", "enrollment": 108, "teachers_fte": 10.0}], "5301140": [{"ncessch": "530114000205", "school_name": "Centralia Middle School", "city": "Centralia", "state": "WA", "zip": "98531", "lat": 46.7264000000001, "lon": -122.982600001, "charter": false, "level": "", "enrollment": 549, "teachers_fte": 31.6399993896484}, {"ncessch": "530114000206", "school_name": "Centralia High School", "city": "Centralia", "state": "WA", "zip": "98531", "lat": 46.7265, "lon": -123.002200001, "charter": false, "level": "", "enrollment": 986, "teachers_fte": 51.3199996948242}, {"ncessch": "530114000207", "school_name": "Edison Elementary", "city": "Centralia", "state": "WA", "zip": "98531", "lat": 46.7220999990001, "lon": -122.9597, "charter": false, "level": "", "enrollment": 281, "teachers_fte": 19.4899997711182}, {"ncessch": "530114000208", "school_name": "Fords Prairie Elementary", "city": "Centralia", "state": "WA", "zip": "98531", "lat": 46.734973999, "lon": -122.987396, "charter": false, "level": "", "enrollment": 448, "teachers_fte": 29.2299995422363}, {"ncessch": "530114000209", "school_name": "Jefferson Lincoln Elementary", "city": "Centralia", "state": "WA", "zip": "98531", "lat": 46.705699999, "lon": -122.962900001, "charter": false, "level": "", "enrollment": 418, "teachers_fte": 28.2199993133545}, {"ncessch": "530114000210", "school_name": "Oakview Elementary School", "city": "Centralia", "state": "WA", "zip": "98531", "lat": 46.7428689990001, "lon": -122.951552, "charter": false, "level": "", "enrollment": 356, "teachers_fte": 23.7299995422363}, {"ncessch": "530114000211", "school_name": "Washington Elementary School", "city": "Centralia", "state": "WA", "zip": "98531", "lat": 46.7085000000001, "lon": -122.9536, "charter": false, "level": "", "enrollment": 309, "teachers_fte": 23.2900009155273}, {"ncessch": "530114003492", "school_name": "Futurus High School", "city": "Centralia", "state": "WA", "zip": "98531", "lat": 46.7256370000001, "lon": -122.980554, "charter": false, "level": "", "enrollment": 47, "teachers_fte": 1.5}, {"ncessch": "530114003580", "school_name": "Centralia School District SpEd Pre-school", "city": "Centralia", "state": "WA", "zip": "98531", "lat": 46.7268930000001, "lon": -122.98152, "charter": false, "level": "", "enrollment": 46, "teachers_fte": 0.0}], "5301170": [{"ncessch": "530117000213", "school_name": "Green Hill Academic School", "city": "Chehalis", "state": "WA", "zip": "98532", "lat": 46.649772, "lon": -122.960982999, "charter": false, "level": "", "enrollment": 94, "teachers_fte": 11.6300001144409}, {"ncessch": "530117000217", "school_name": "W F West High School", "city": "Chehalis", "state": "WA", "zip": "98532", "lat": 46.6495, "lon": -122.949299999, "charter": false, "level": "", "enrollment": 946, "teachers_fte": 46.3300018310547}, {"ncessch": "530117002252", "school_name": "Chehalis Middle School", "city": "Chehalis", "state": "WA", "zip": "98532", "lat": 46.642864999, "lon": -122.941675, "charter": false, "level": "", "enrollment": 635, "teachers_fte": 32.2999992370605}, {"ncessch": "530117002883", "school_name": "Lewis County Juvenile Detention", "city": "CHEHALIS", "state": "WA", "zip": "98532", "lat": 46.6489940000001, "lon": -122.957731, "charter": false, "level": "", "enrollment": 10, "teachers_fte": 1.0}, {"ncessch": "530117003464", "school_name": "Lewis County Jail", "city": "Chehalis", "state": "WA", "zip": "98532", "lat": 46.6602999990001, "lon": -122.9692, "charter": false, "level": "", "enrollment": 0, "teachers_fte": 0.0}, {"ncessch": "530117003486", "school_name": "Lewis County Alternative School", "city": "Chehalis", "state": "WA", "zip": "98532", "lat": 46.649163, "lon": -122.957558, "charter": false, "level": "", "enrollment": 45, "teachers_fte": 2.5}, {"ncessch": "530117003654", "school_name": "James W Lintott Elementary School", "city": "Chehalis", "state": "WA", "zip": "98532", "lat": 46.6409630000001, "lon": -122.945718, "charter": false, "level": "", "enrollment": 617, "teachers_fte": 39.9799995422363}, {"ncessch": "530117003655", "school_name": "Orin C Smith Elementary School", "city": "Chehalis", "state": "WA", "zip": "98532", "lat": 46.6408680000001, "lon": -122.943243, "charter": false, "level": "", "enrollment": 665, "teachers_fte": 36.9799995422363}], "5301200": [{"ncessch": "530120000218", "school_name": "Chelan Middle School", "city": "Chelan", "state": "WA", "zip": "98816", "lat": 47.8350989990001, "lon": -120.020326, "charter": false, "level": "", "enrollment": 324, "teachers_fte": 18.5300006866455},