{"0800001": [{"ncessch": "080000100214", "school_name": "Cheyenne Wells Elementary School", "city": "CHEYENNE WELLS", "state": "CO", "zip": "80810", "lat": 38.825162, "lon": -102.352919, "charter": false, "level": "", "enrollment": 110, "teachers_fte": 9.64999961853027}, {"ncessch": "080000100215", "school_name": "Cheyenne Wells Junior/High School", "city": "CHEYENNE WELLS", "state": "CO", "zip": "80810", "lat": 38.8225850000001, "lon": -102.353862999, "charter": false, "level": "", "enrollment": 68, "teachers_fte": 6.94000005722046}], "0800004": [{"ncessch": "080000400709", "school_name": "Rocky Mountain School of Expeditionary Learning", "city": "DENVER", "state": "CO", "zip": "80222", "lat": 39.6854000010001, "lon": -104.9211, "charter": false, "level": "", "enrollment": 390, "teachers_fte": 22.6599998474121}], "0800016": [{"ncessch": "080001601745", "school_name": "Little Indians Preschool", "city": "YUMA", "state": "CO", "zip": "80759", "lat": 40.1230840000001, "lon": -102.732243, "charter": false, "level": "", "enrollment": 64, "teachers_fte": 1.0}, {"ncessch": "080001601819", "school_name": "Yuma Middle School", "city": "YUMA", "state": "CO", "zip": "80759", "lat": 40.1210140000001, "lon": -102.732147, "charter": false, "level": "", "enrollment": 233, "teachers_fte": 16.8299999237061}, {"ncessch": "080001601820", "school_name": "Kenneth P Morris Elementary School", "city": "YUMA", "state": "CO", "zip": "80759", "lat": 40.1224, "lon": -102.73128, "charter": false, "level": "", "enrollment": 325, "teachers_fte": 25.7199993133545}, {"ncessch": "080001601821", "school_name": "Yuma High School", "city": "YUMA", "state": "CO", "zip": "80759", "lat": 40.115577, "lon": -102.723382999, "charter": false, "level": "", "enrollment": 264, "teachers_fte": 16.6299991607666}], "0800017": [{"ncessch": "080001701816", "school_name": "Wray Elementary School", "city": "WRAY", "state": "CO", "zip": "80758", "lat": 40.073986, "lon": -102.244019, "charter": false, "level": "", "enrollment": 412, "teachers_fte": 25.6000003814697}, {"ncessch": "080001701818", "school_name": "Wray Junior Senior High School", "city": "WRAY", "state": "CO", "zip": "80758", "lat": 40.073986, "lon": -102.244019, "charter": false, "level": "", "enrollment": 312, "teachers_fte": 22.4899997711182}], "0800018": [{"ncessch": "080001801741", "school_name": "Idalia Elementary School", "city": "IDALIA", "state": "CO", "zip": "80735", "lat": 39.705005999, "lon": -102.294420001, "charter": false, "level": "", "enrollment": 88, "teachers_fte": 9.86999988555908}, {"ncessch": "080001801742", "school_name": "Idalia Junior-Senior High School", "city": "IDALIA", "state": "CO", "zip": "80735", "lat": 39.705005999, "lon": -102.294420001, "charter": false, "level": "", "enrollment": 84, "teachers_fte": 7.09999990463257}], "0800019": [{"ncessch": "080001901744", "school_name": "Liberty School", "city": "JOES", "state": "CO", "zip": "80822", "lat": 39.655308001, "lon": -102.624259, "charter": false, "level": "", "enrollment": 68, "teachers_fte": 9.27000045776367}], "0800020": [{"ncessch": "080002000727", "school_name": "Academy of Charter Schools", "city": "WESTMINSTER", "state": "CO", "zip": "80031", "lat": 39.9114749990001, "lon": -105.033546, "charter": true, "level": "", "enrollment": 1890, "teachers_fte": 92.4300003051758}, {"ncessch": "080002001569", "school_name": "Crown Pointe Charter Academy", "city": "WESTMINSTER", "state": "CO", "zip": "80031", "lat": 39.8521250000001, "lon": -105.0239, "charter": true, "level": "", "enrollment": 459, "teachers_fte": 26.1299991607666}, {"ncessch": "080002001876", "school_name": "Community Leadership Academy", "city": "COMMERCE CITY", "state": "CO", "zip": "80022", "lat": 39.8212770000001, "lon": -104.921290001, "charter": true, "level": "", "enrollment": 321, "teachers_fte": 16.7099990844727}, {"ncessch": "080002001882", "school_name": "New America School - Aurora", "city": "DENVER", "state": "CO", "zip": "80230", "lat": 39.7273230000001, "lon": -104.878068, "charter": true, "level": "", "enrollment": 124, "teachers_fte": 6.84999990463257}, {"ncessch": "080002001912", "school_name": "Colorado Springs Charter Academy", "city": "COLORADO SPRINGS", "state": "CO", "zip": "80909", "lat": 38.8696, "lon": -104.772307, "charter": true, "level": "", "enrollment": 309, "teachers_fte": 23.3700008392334}, {"ncessch": "080002001913", "school_name": "Ross Montessori School", "city": "CARBONDALE", "state": "CO", "zip": "81623", "lat": 39.3954130000001, "lon": -107.212398001, "charter": true, "level": "", "enrollment": 250, "teachers_fte": 13.4200000762939}, {"ncessch": "080002001915", "school_name": "The Pinnacle Charter School", "city": "FEDERAL HEIGHTS", "state": "CO", "zip": "80260", "lat": 39.850399, "lon": -104.9986, "charter": true, "level": "", "enrollment": 1940, "teachers_fte": 114.779998779297}, {"ncessch": "080002001998", "school_name": "Academy of Arts and Knowledge Elementary", "city": "FT COLLINS", "state": "CO", "zip": "80525", "lat": 40.5195360000001, "lon": -105.052538, "charter": true, "level": "", "enrollment": 176, "teachers_fte": 13.3500003814697}, {"ncessch": "080002002018", "school_name": "Stone Creek School", "city": "GYPSUM", "state": "CO", "zip": "81637", "lat": 39.6455540000001, "lon": -106.886184, "charter": true, "level": "", "enrollment": 295, "teachers_fte": 22.3299999237061}, {"ncessch": "080002002033", "school_name": "High Point Academy", "city": "AURORA", "state": "CO", "zip": "80019", "lat": 39.819221, "lon": -104.761271, "charter": true, "level": "", "enrollment": 716, "teachers_fte": 36.5}, {"ncessch": "080002006305", "school_name": "Caprock Academy", "city": "GRAND JUNCTION", "state": "CO", "zip": "81505", "lat": 39.1087690000001, "lon": -108.597811001, "charter": true, "level": "", "enrollment": 899, "teachers_fte": 62.4000015258789}, {"ncessch": "080002006310", "school_name": "Colorado Early Colleges Colorado Springs", "city": "COLORADO SPRINGS", "state": "CO", "zip": "80907", "lat": 38.8931870000001, "lon": -104.832833, "charter": true, "level": "", "enrollment": 642, "teachers_fte": 31.1000003814697}, {"ncessch": "080002006320", "school_name": "Ricardo Flores Magon Academy", "city": "DENVER", "state": "CO", "zip": "80221", "lat": 39.7934520000001, "lon": -105.034942001, "charter": true, "level": "", "enrollment": 253, "teachers_fte": 14.5200004577637}, {"ncessch": "080002006390", "school_name": "Early College of Arvada", "city": "ARVADA", "state": "CO", "zip": "80003", "lat": 39.8058810000001, "lon": -105.050539, "charter": true, "level": "", "enrollment": 208, "teachers_fte": 12.8500003814697}, {"ncessch": "080002006418", "school_name": "Animas High School", "city": "DURANGO", "state": "CO", "zip": "81301", "lat": 37.2675790000001, "lon": -107.917981, "charter": true, "level": "", "enrollment": 206, "teachers_fte": 18.1900005340576}, {"ncessch": "080002006437", "school_name": "Thomas MacLaren State Charter School", "city": "COLORADO SPRINGS", "state": "CO", "zip": "80915", "lat": 38.8586710010001, "lon": -104.748583, "charter": true, "level": "", "enrollment": 927, "teachers_fte": 75.0899963378906}, {"ncessch": "080002006502", "school_name": "Mountain Middle School", "city": "DURANGO", "state": "CO", "zip": "81301", "lat": 37.2991000000001, "lon": -107.872549001, "charter": true, "level": "", "enrollment": 301, "teachers_fte": 14.0699996948242}, {"ncessch": "080002006503", "school_name": "Global Village Academy - North", "city": "NORTHGLENN", "state": "CO", "zip": "80234", "lat": 39.9014950000001, "lon": -104.994537, "charter": true, "level": "", "enrollment": 832, "teachers_fte": 51.4199981689453}, {"ncessch": "080002006542", "school_name": "Colorado Early Colleges Fort Collins", "city": "FORT COLLINS", "state": "CO", "zip": "80525", "lat": 40.52572, "lon": -105.044416, "charter": true, "level": "", "enrollment": 1036, "teachers_fte": 54.310001373291}, {"ncessch": "080002006579", "school_name": "Victory Preparatory Academy Middle State Charter S", "city": "COMMERCE CITY", "state": "CO", "zip": "80022", "lat": 39.800208001, "lon": -104.903956999, "charter": true, "level": "", "enrollment": 165, "teachers_fte": 5.57000017166138}, {"ncessch": "080002006585", "school_name": "Victory Preparatory Academy High State Charter Sch", "city": "COMMERCE CITY", "state": "CO", "zip": "80022", "lat": 39.800208001, "lon": -104.903956999, "charter": true, "level": "", "enrollment": 140, "teachers_fte": 11.1999998092651}, {"ncessch": "080002006586", "school_name": "Colorado International Language Academy", "city": "COLORADO SPRINGS", "state": "CO", "zip": "80918", "lat": 38.897182, "lon": -104.814908001, "charter": true, "level": "", "enrollment": 272, "teachers_fte": 23.6700000762939}, {"ncessch": "080002006589", "school_name": "Mountain Song Community School", "city": "COLORADO SPRINGS", "state": "CO", "zip": "80904", "lat": 38.8527329990001, "lon": -104.867272, "charter": true, "level": "", "enrollment": 326, "teachers_fte": 22.3999996185303}, {"ncessch": "080002006595", "school_name": "James Irwin Charter Academy", "city": "COLORADO SPRINGS", "state": "CO", "zip": "80903", "lat": 38.857812, "lon": -104.782073, "charter": true, "level": "", "enrollment": 299, "teachers_fte": 16.9699993133545}, {"ncessch": "080002006602", "school_name": "Montessori del Mundo Charter School", "city": "AURORA", "state": "CO", "zip": "80017", "lat": 39.6977889990001, "lon": -104.808333, "charter": true, "level": "", "enrollment": 317, "teachers_fte": 20.9599990844727}, {"ncessch": "080002006634", "school_name": "Colorado Early Colleges Douglas County", "city": "PARKER", "state": "CO", "zip": "80138", "lat": 39.531558999, "lon": -104.766127, "charter": true, "level": "", "enrollment": 1004, "teachers_fte": 41.4500007629395}, {"ncessch": "080002006639", "school_name": "Golden View Classical Academy", "city": "GOLDEN", "state": "CO", "zip": "80401", "lat": 39.7188320000001, "lon": -105.190609, "charter": true, "level": "", "enrollment": 756, "teachers_fte": 38.189998626709}, {"ncessch": "080002006651", "school_name": "Salida Montessori Charter School", "city": "SALIDA", "state": "CO", "zip": "81211", "lat": 38.5301879990001, "lon": -106.00332, "charter": true, "level": "", "enrollment": 128, "teachers_fte": 13.75}, {"ncessch": "080002006653", "school_name": "Early Learning Center at New Legacy Charter School", "city": "AURORA", "state": "CO", "zip": "80010", "lat": 39.74904, "lon": -104.875817, "charter": true, "level": "", "enrollment": 8, "teachers_fte": 0.0}, {"ncessch": "080002006661", "school_name": "New Legacy Charter School", "city": "AURORA", "state": "CO", "zip": "80010", "lat": 39.74904, "lon": -104.875817, "charter": true, "level": "", "enrollment": 101, "teachers_fte": 4.73999977111816}, {"ncessch": "080002006701", "school_name": "Steamboat Montessori", "city": "STEAMBOAT SPRINGS", "state": "CO", "zip": "80487", "lat": 40.5038430000001, "lon": -106.908858, "charter": true, "level": "", "enrollment": 151, "teachers_fte": 10.1300001144409}, {"ncessch": "080002006706", "school_name": "Monument View Montessori Charter School", "city": "FRUITA", "state": "CO", "zip": "81521", "lat": 39.133788, "lon": -108.689327, "charter": true, "level": "", "enrollment": 59, "teachers_fte": 3.14000010490417}, {"ncessch": "080002006708", "school_name": "Colorado Military Academy", "city": "COLORADO SPRINGS", "state": "CO", "zip": "80915", "lat": 38.8371680000001, "lon": -104.69945, "charter": true, "level": "", "enrollment": 603, "teachers_fte": 31.0599994659424}, {"ncessch": "080002006710", "school_name": "Colorado Early Colleges Aurora", "city": "AURORA", "state": "CO", "zip": "80012", "lat": 39.691455999, "lon": -104.826852, "charter": true, "level": "", "enrollment": 477, "teachers_fte": 19.0200004577637}, {"ncessch": "080002006760", "school_name": "Ascent Classical Academy Douglas County", "city": "LONE TREE", "state": "CO", "zip": "80124", "lat": 39.5515500000001, "lon": -104.873171, "charter": true, "level": "", "enrollment": 862, "teachers_fte": 47.4500007629395}, {"ncessch": "080002006761", "school_name": "Coperni 2", "city": "COLORADO SPRINGS", "state": "CO", "zip": "80903", "lat": 38.8273690010001, "lon": -104.815313, "charter": true, "level": "", "enrollment": 185, "teachers_fte": 18.1000003814697}, {"ncessch": "080002006768", "school_name": "Axis International Academy", "city": "FORT COLLINS", "state": "CO", "zip": "80526", "lat": 40.5392430000001, "lon": -105.115909, "charter": true, "level": "", "enrollment": 199, "teachers_fte": 14.3100004196167}, {"ncessch": "080002006779", "school_name": "Colorado Early Colleges Windsor", "city": "WINDSOR", "state": "CO", "zip": "80528", "lat": 40.477853, "lon": -104.988043001, "charter": true, "level": "", "enrollment": 143, "teachers_fte": 18.8199996948242}, {"ncessch": "080002006784", "school_name": "Coperni 3", "city": "COLORADO SPRINGS", "state": "CO", "zip": "80909", "lat": 38.843668, "lon": -104.763085001, "charter": true, "level": "", "enrollment": 298, "teachers_fte": 21.2000007629395}, {"ncessch": "080002006796", "school_name": "Ascent Classical Academy Northern Colorado", "city": "FORT COLLINS", "state": "CO", "zip": "80525", "lat": 40.5511690000001, "lon": -105.055966, "charter": true, "level": "", "enrollment": 598, "teachers_fte": 28.4200000762939}, {"ncessch": "080002006828", "school_name": "Kwiyagat Community Academy", "city": "TAWOAC", "state": "CO", "zip": "81334", "lat": 37.200051, "lon": -108.729896001, "charter": true, "level": "", "enrollment": 48, "teachers_fte": 3.58999991416931}, {"ncessch": "080002006853", "school_name": "Prospect Academy", "city": "ARVADA", "state": "CO", "zip": "80002", "lat": 39.7979040000001, "lon": -105.10433, "charter": true, "level": "", "enrollment": 61, "teachers_fte": 7.15000009536743}, {"ncessch": "080002006867", "school_name": "Colorado Early Colleges Online Campus", "city": "FORT COLLINS", "state": "CO", "zip": "80525", "lat": 39.5650880000001, "lon": -104.858647, "charter": true, "level": "", "enrollment": 255, "teachers_fte": 8.98999977111816}], "0800023": [{"ncessch": "080002306410", "school_name": "Colorado School for the Deaf and Blind", "city": "COLORADO SPRINGS", "state": "CO", "zip": "80903", "lat": 38.834865, "lon": -104.806834, "charter": false, "level": "", "enrollment": 166, "teachers_fte": 28.6200008392334}], "0800282": [{"ncessch": "080028206600", "school_name": "Colorado Preparatory Academy High School", "city": "WESTMINSTER", "state": "CO", "zip": "80031", "lat": 39.8513400000001, "lon": -105.050971, "charter": false, "level": "", "enrollment": 810, "teachers_fte": 29.6299991607666}, {"ncessch": "080028206664", "school_name": "Pikes Peak Online School", "city": "WESTMINSTER", "state": "CO", "zip": "80031", "lat": 39.8513400000001, "lon": -105.050971, "charter": false, "level": "", "enrollment": 372, "teachers_fte": 19.75}, {"ncessch": "080028206752", "school_name": "Colorado Preparatory Academy Elementary School", "city": "WESTMINSTER", "state": "CO", "zip": "80031", "lat": 39.8513400000001, "lon": -105.050971, "charter": false, "level": "", "enrollment": 1010, "teachers_fte": 33.1300010681152}, {"ncessch": "080028206764", "school_name": "Colorado Preparatory Academy Middle School", "city": "WESTMINSTER", "state": "CO", "zip": "80031", "lat": 39.8513400000001, "lon": -105.050971, "charter": false, "level": "", "enrollment": 718, "teachers_fte": 29.1299991607666}, {"ncessch": "080028206804", "school_name": "Orton Academy", "city": "COLORADO SPRINGS", "state": "CO", "zip": "80907", "lat": 38.8761710000001, "lon": -104.800263999, "charter": false, "level": "", "enrollment": 93, "teachers_fte": 7.21000003814697}, {"ncessch": "080028206838", "school_name": "Colorado Summit Connections Academy", "city": "ENGLEWOOD", "state": "CO", "zip": "80112", "lat": 39.567303, "lon": -104.862668001, "charter": false, "level": "", "enrollment": 789, "teachers_fte": 62.060001373291}, {"ncessch": "080028206842", "school_name": "Ascend College Prep", "city": "COLORADO SPRINGS", "state": "CO", "zip": "80920", "lat": 38.9614950000001, "lon": -104.793408, "charter": false, "level": "", "enrollment": 71, "teachers_fte": 4.23000001907349}, {"ncessch": "080028206846", "school_name": "Leadership Academy of Colorado", "city": "BOULDER", "state": "CO", "zip": "80302", "lat": 40.0176990000001, "lon": -105.279618, "charter": false, "level": "", "enrollment": 58, "teachers_fte": 9.47000026702881}, {"ncessch": "080028206848", "school_name": "Education reEnvisioned School", "city": "MONUMENT", "state": "CO", "zip": "80132", "lat": 39.0945330000001, "lon": -104.867367, "charter": false, "level": "", "enrollment": 16, "teachers_fte": 5.23000001907349}], "0800286": [{"ncessch": "080028606659", "school_name": "Spring Creek Youth Services Center", "city": "COLORADO SPRINGS", "state": "CO", "zip": "80906", "lat": 38.786684, "lon": -104.774714, "charter": false, "level": "", "enrollment": null, "teachers_fte": null}, {"ncessch": "080028606668", "school_name": "Lookout Mountain", "city": "GOLDEN", "state": "CO", "zip": "80401", "lat": 39.7415580000001, "lon": -105.206371, "charter": false, "level": "", "enrollment": null, "teachers_fte": null}, {"ncessch": "080028606702", "school_name": "Grand Mesa Youth Services Center", "city": "GRAND JUNCTION", "state": "CO", "zip": "81501", "lat": 39.0570450000001, "lon": -108.532406001, "charter": false, "level": "", "enrollment": null, "teachers_fte": null}, {"ncessch": "080028606703", "school_name": "Mount View Youth Services Center", "city": "DENVER", "state": "CO", "zip": "80235", "lat": 39.6478760000001, "lon": -105.088397, "charter": false, "level": "", "enrollment": null, "teachers_fte": null}, {"ncessch": "080028606704", "school_name": "Platte Valley Youth Services Center", "city": "GREELEY", "state": "CO", "zip": "80631", "lat": 40.451224, "lon": -104.713711001, "charter": false, "level": "", "enrollment": null, "teachers_fte": null}, {"ncessch": "080028606742", "school_name": "Betty K Marler Youth Services Center", "city": "DENVER", "state": "CO", "zip": "80235", "lat": 39.6478760000001, "lon": -105.088397, "charter": false, "level": "", "enrollment": null, "teachers_fte": null}], "0800292": [{"ncessch": "080029201503", "school_name": "Yampah Mountain School", "city": "GLENWOOD SPRINGS", "state": "CO", "zip": "81601", "lat": 39.5482860000001, "lon": -107.334392, "charter": false, "level": "", "enrollment": 169, "teachers_fte": 10.2200002670288}, {"ncessch": "080029206831", "school_name": "The Yampah Mountain High School Nursery", "city": "GLENWOOD SPRINGS", "state": "CO", "zip": "81601", "lat": 39.5482860000001, "lon": -107.334392, "charter": false, "level": "", "enrollment": 0, "teachers_fte": 0.0}], "0801920": [{"ncessch": "080192000001", "school_name": "Challenger Middle School", "city": "COLORADO SPRINGS", "state": "CO", "zip": "80920", "lat": 38.978798, "lon": -104.774702, "charter": false, "level": "", "enrollment": 612, "teachers_fte": 36.3199996948242}, {"ncessch": "080192000002", "school_name": "Air Academy High School", "city": "USAF ACADEMY", "state": "CO", "zip": "80840", "lat": 38.967994, "lon": -104.84588, "charter": false, "level": "", "enrollment": 1329, "teachers_fte": 84.5299987792969}, {"ncessch": "080192000003", "school_name": "Douglass Valley Elementary School", "city": "USAF ACADEMY", "state": "CO", "zip": "80840", "lat": 38.9924270000001, "lon": -104.866276, "charter": false, "level": "", "enrollment": 296, "teachers_fte": 25.4699993133545}, {"ncessch": "080192000004", "school_name": "Edith Wolford Elementary School", "city": "COLORADO SPRINGS", "state": "CO", "zip": "80908", "lat": 39.0303489990001, "lon": -104.701674, "charter": false, "level": "", "enrollment": 362, "teachers_fte": 26.4899997711182}, {"ncessch": "080192000005", "school_name": "Mountain View Elementary School", "city": "COLORADO SPRINGS", "state": "CO", "zip": "80920", "lat": 38.977605, "lon": -104.776167, "charter": false, "level": "", "enrollment": 582, "teachers_fte": 32.6699981689453}, {"ncessch": "080192000007", "school_name": "Rockrimmon Elementary School", "city": "COLORADO SPRINGS", "state": "CO", "zip": "80919", "lat": 38.9327060000001, "lon": -104.830498, "charter": false, "level": "", "enrollment": 383, "teachers_fte": 24.25}, {"ncessch": "080192000008", "school_name": "Woodmen-Roberts Elementary School", "city": "COLORADO SPRINGS", "state": "CO", "zip": "80919", "lat": 38.9458250000001, "lon": -104.869833, "charter": false, "level": "", "enrollment": 441, "teachers_fte": 28.5699996948242}, {"ncessch": "080192000123", "school_name": "Antelope Trails Elementary School", "city": "COLORADO SPRINGS", "state": "CO", "zip": "80921", "lat": 39.054608999, "lon": -104.826465, "charter": false, "level": "", "enrollment": 346, "teachers_fte": 23.1000003814697}, {"ncessch": "080192000531", "school_name": "Prairie Hills Elementary School", "city": "COLORADO SPRINGS", "state": "CO", "zip": "80920", "lat": 38.9498520000001, "lon": -104.733281, "charter": false, "level": "", "enrollment": 361, "teachers_fte": 27.0}, {"ncessch": "080192000858", "school_name": "Aspen Valley Campus", "city": "COLORADO SPRINGS", "state": "CO", "zip": "80920", "lat": 38.951358, "lon": -104.790943999, "charter": false, "level": "", "enrollment": 114, "teachers_fte": 20.9699993133545}, {"ncessch": "080192001319", "school_name": "Foothills Elementary School", "city": "COLORADO SPRINGS", "state": "CO", "zip": "80919", "lat": 38.9309270000001, "lon": -104.843435, "charter": false, "level": "", "enrollment": 424, "teachers_fte": 31.0799999237061}, {"ncessch": "080192001320", "school_name": "High Plains Elementary School", "city": "COLORADO SPRINGS", "state": "CO", "zip": "80920", "lat": 38.947094, "lon": -104.783662001, "charter": false, "level": "", "enrollment": 258, "teachers_fte": 25.6900005340576}, {"ncessch": "080192001321", "school_name": "Rampart High School", "city": "COLORADO SPRINGS", "state": "CO", "zip": "80920", "lat": 38.9494070000001, "lon": -104.772372, "charter": false, "level": "", "enrollment": 1454, "teachers_fte": 86.4400024414062}, {"ncessch": "080192001387", "school_name": "Frontier Elementary School", "city": "COLORADO SPRINGS", "state": "CO", "zip": "80920", "lat": 38.946833, "lon": -104.755905, "charter": false, "level": "", "enrollment": 249, "teachers_fte": 24.1000003814697}, {"ncessch": "080192001402", "school_name": "Eagleview Middle School", "city": "COLORADO SPRINGS", "state": "CO", "zip": "80919", "lat": 38.922874999, "lon": -104.851127, "charter": false, "level": "", "enrollment": 948, "teachers_fte": 55.7000007629395}, {"ncessch": "080192001429", "school_name": "Liberty High School", "city": "COLORADO SPRINGS", "state": "CO", "zip": "80920", "lat": 38.959185, "lon": -104.73617, "charter": false, "level": "", "enrollment": 1647, "teachers_fte": 90.1800003051758}, {"ncessch": "080192001430", "school_name": "Pioneer Elementary School", "city": "COLORADO SPRINGS", "state": "CO", "zip": "80918", "lat": 38.931543, "lon": -104.757712999, "charter": false, "level": "", "enrollment": 348, "teachers_fte": 25.8700008392334}, {"ncessch": "080192001462", "school_name": "Timberview Middle School", "city": "COLORADO SPRINGS", "state": "CO", "zip": "80920", "lat": 38.9612060010001, "lon": -104.738929, "charter": false, "level": "", "enrollment": 839, "teachers_fte": 47.3400001525879}, {"ncessch": "080192001496", "school_name": "Explorer Elementary School", "city": "COLORADO SPRINGS", "state": "CO", "zip": "80920", "lat": 38.9598980000001, "lon": -104.749134, "charter": false, "level": "", "enrollment": 471, "teachers_fte": 30.5799999237061}, {"ncessch": "080192001592", "school_name": "The Classical Academy Charter", "city": "COLORADO SPRINGS", "state": "CO", "zip": "80921", "lat": 39.0165730000001, "lon": -104.816602, "charter": true, "level": "", "enrollment": 1874, "teachers_fte": 122.680000305176}, {"ncessch": "080192001593", "school_name": "Mountain Ridge Middle School", "city": "COLORADO SPRINGS", "state": "CO", "zip": "80920", "lat": 38.9650290010001, "lon": -104.776578, "charter": false, "level": "", "enrollment": 705, "teachers_fte": 43.0800018310547}, {"ncessch": "080192001643", "school_name": "Academy Endeavour Elementary School", "city": "COLORADO SPRINGS", "state": "CO", "zip": "80920", "lat": 38.9516189990001, "lon": -104.762134, "charter": false, "level": "", "enrollment": 349, "teachers_fte": 25.7600002288818}, {"ncessch": "080192001644", "school_name": "Academy International Elementary School", "city": "COLORADO SPRINGS", "state": "CO", "zip": "80920", "lat": 38.9626630000001, "lon": -104.765557, "charter": false, "level": "", "enrollment": 394, "teachers_fte": 25.5599994659424}, {"ncessch": "080192001645", "school_name": "Pine Creek High School", "city": "COLORADO SPRINGS", "state": "CO", "zip": "80908", "lat": 38.987084001, "lon": -104.763007, "charter": false, "level": "", "enrollment": 1815, "teachers_fte": 100.419998168945}, {"ncessch": "080192001842", "school_name": "The Da Vinci Academy School", "city": "COLORADO SPRINGS", "state": "CO", "zip": "80921", "lat": 39.0122660010001, "lon": -104.803454, "charter": false, "level": "", "enrollment": 437, "teachers_fte": 30.3999996185303}, {"ncessch": "080192001905", "school_name": "Discovery Canyon Campus High School", "city": "COLORADO SPRINGS", "state": "CO", "zip": "80921", "lat": 39.03018, "lon": -104.796061, "charter": false, "level": "", "enrollment": 1087, "teachers_fte": 58.9500007629395}, {"ncessch": "080192001931", "school_name": "The Classical Academy Middle School", "city": "COLORADO SPRINGS", "state": "CO", "zip": "80921", "lat": 39.0165730000001, "lon": -104.816602, "charter": true, "level": "", "enrollment": 420, "teachers_fte": 31.3500003814697}, {"ncessch": "080192001943", "school_name": "The Classical Academy High School", "city": "COLORADO SPRINGS", "state": "CO", "zip": "80921", "lat": 39.0165730000001, "lon": -104.816602, "charter": true, "level": "", "enrollment": 547, "teachers_fte": 49.9300003051758}, {"ncessch": "080192006329", "school_name": "Chinook Trail Elementary School", "city": "COLORADO SPRINGS", "state": "CO", "zip": "80924", "lat": 38.9742049990001, "lon": -104.734576, "charter": false, "level": "", "enrollment": 631, "teachers_fte": 39.1399993896484}, {"ncessch": "080192006336", "school_name": "Ranch Creek Elementary", "city": "COLORADO SPRINGS", "state": "CO", "zip": "80924", "lat": 38.964527999, "lon": -104.724061, "charter": false, "level": "", "enrollment": 602, "teachers_fte": 34.5099983215332}, {"ncessch": "080192006434", "school_name": "Village High School", "city": "COLORADO SPRINGS", "state": "CO", "zip": "80920", "lat": 38.954234, "lon": -104.791305, "charter": false, "level": "", "enrollment": 447, "teachers_fte": 23.4799995422363}, {"ncessch": "080192006447", "school_name": "TCA College Pathways", "city": "COLORADO SPRINGS", "state": "CO", "zip": "80921", "lat": 38.992687001, "lon": -104.790967, "charter": true, "level": "", "enrollment": 465, "teachers_fte": 21.7199993133545}, {"ncessch": "080192006478", "school_name": "Journey K8", "city": "COLORADO SPRINGS", "state": "CO", "zip": "80920", "lat": 38.957841, "lon": -104.707529, "charter": false, "level": "", "enrollment": 158, "teachers_fte": 10.8000001907349}, {"ncessch": "080192006616", "school_name": "Discovery Canyon Campus Middle School", "city": "COLORADO SPRINGS", "state": "CO", "zip": "80921", "lat": 39.03018, "lon": -104.796061, "charter": false, "level": "", "enrollment": 803, "teachers_fte": 46.0299987792969}, {"ncessch": "080192006619", "school_name": "Briargate Preschool", "city": "COLORADO SPRINGS", "state": "CO", "zip": "80920", "lat": 38.954234, "lon": -104.791305, "charter": false, "level": "", "enrollment": 110, "teachers_fte": 5.26000022888184}, {"ncessch": "080192006631", "school_name": "Discovery Canyon Campus Elementary School", "city": "COLORADO SPRINGS", "state": "CO", "zip": "80921", "lat": 39.03018, "lon": -104.796061, "charter": false, "level": "", "enrollment": 526, "teachers_fte": 29.0799999237061}, {"ncessch": "080192006745", "school_name": "New Summit Charter Academy", "city": "COLORADO SPRINGS", "state": "CO", "zip": "80920", "lat": 38.9466800000001, "lon": -104.766371, "charter": true, "level": "", "enrollment": 628, "teachers_fte": 34.5900001525879}, {"ncessch": "080192006758", "school_name": "Legacy Peak Elementary School", "city": "COLORADO SPRINGS", "state": "CO", "zip": "80920", "lat": 38.957841, "lon": -104.707529, "charter": false, "level": "", "enrollment": 641, "teachers_fte": 35.2200012207031}, {"ncessch": "080192006788", "school_name": "Chinook Trail Middle School", "city": "COLORADO SPRINGS", "state": "CO", "zip": "80924", "lat": 38.974519, "lon": -104.732747, "charter": false, "level": "", "enrollment": 1067, "teachers_fte": 55.0699996948242}, {"ncessch": "080192006816", "school_name": "Encompass Heights Elementary School", "city": "COLORADO SPRINGS", "state": "CO", "zip": "80908", "lat": 38.9931930000001, "lon": -104.759301, "charter": false, "level": "", "enrollment": 549, "teachers_fte": 34.9900016784668}], "0801950": [{"ncessch": "080195000009", "school_name": "Adams City Middle School", "city": "COMMERCE CITY", "state": "CO", "zip": "80022", "lat": 39.8282, "lon": -104.9354, "charter": false, "level": "", "enrollment": 550, "teachers_fte": 29.1299991607666}, {"ncessch": "080195000010", "school_name": "Adams City High School", "city": "COMMERCE CITY", "state": "CO", "zip": "80022", "lat": 39.8281000000001, "lon": -104.9004, "charter": false, "level": "", "enrollment": 1666, "teachers_fte": 78.1500015258789}, {"ncessch": "080195000011", "school_name": "Alsup Elementary School", "city": "COMMERCE CITY", "state": "CO", "zip": "80022", "lat": 39.820976, "lon": -104.936263, "charter": false, "level": "", "enrollment": 463, "teachers_fte": 31.1700000762939}, {"ncessch": "080195000012", "school_name": "Central Elementary School", "city": "COMMERCE CITY", "state": "CO", "zip": "80022", "lat": 39.8138000000001, "lon": -104.9213, "charter": false, "level": "", "enrollment": 380, "teachers_fte": 22.0599994659424}, {"ncessch": "080195000013", "school_name": "Dupont Elementary School", "city": "COMMERCE CITY", "state": "CO", "zip": "80022", "lat": 39.8413, "lon": -104.9174, "charter": false, "level": "", "enrollment": 407, "teachers_fte": 24.8099994659424}, {"ncessch": "080195000015", "school_name": "Kearney Middle School", "city": "COMMERCE CITY", "state": "CO", "zip": "80022", "lat": 39.808499999, "lon": -104.9167, "charter": false, "level": "", "enrollment": 663, "teachers_fte": 34.3199996948242}, {"ncessch": "080195000016", "school_name": "Kemp Elementary School", "city": "COMMERCE CITY", "state": "CO", "zip": "80022", "lat": 39.819599999, "lon": -104.9085, "charter": false, "level": "", "enrollment": 449, "teachers_fte": 28.3099994659424}, {"ncessch": "080195000017", "school_name": "Monaco Elementary School", "city": "COMMERCE CITY", "state": "CO", "zip": "80022", "lat": 39.8349000010001, "lon": -104.913099999, "charter": false, "level": "", "enrollment": 237, "teachers_fte": 15.8900003433228}, {"ncessch": "080195000018", "school_name": "Hanson Elementary School", "city": "COMMERCE CITY", "state": "CO", "zip": "80022", "lat": 39.8297000000001, "lon": -104.9058, "charter": false, "level": "", "enrollment": 257, "teachers_fte": 17.5200004577637}, {"ncessch": "080195000019", "school_name": "Rose Hill Elementary School", "city": "COMMERCE CITY", "state": "CO", "zip": "80022", "lat": 39.8009000000001, "lon": -104.9086, "charter": false, "level": "", "enrollment": 311, "teachers_fte": 24.25}, {"ncessch": "080195000404", "school_name": "Mildred L Sanville Preschool", "city": "COMMERCE CITY", "state": "CO", "zip": "80022", "lat": 39.8138000000001, "lon": -104.9213, "charter": false, "level": "", "enrollment": 47, "teachers_fte": 2.0}, {"ncessch": "080195001307", "school_name": "Lester R Arnold High School", "city": "COMMERCE CITY", "state": "CO", "zip": "80022", "lat": 39.8266, "lon": -104.9123, "charter": false, "level": "", "enrollment": 175, "teachers_fte": 10.9399995803833}, {"ncessch": "080195001947", "school_name": "Stars Early Learning Center", "city": "COMMERCE CITY", "state": "CO", "zip": "80022", "lat": 39.7995000000001, "lon": -104.908499999, "charter": false, "level": "", "enrollment": 87, "teachers_fte": 6.48000001907349}], "0801980": [{"ncessch": "080198000020", "school_name": "Agate Elementary School", "city": "AGATE", "state": "CO", "zip": "80101", "lat": 39.462633, "lon": -103.941268, "charter": false, "level": "", "enrollment": 53, "teachers_fte": 6.03000020980835}, {"ncessch": "080198000021", "school_name": "Agate Junior Senior High School", "city": "AGATE", "state": "CO", "zip": "80101", "lat": 39.462633, "lon": -103.941268, "charter": false, "level": "", "enrollment": 28, "teachers_fte": 5.09999990463257}], "0802010": [{"ncessch": "080201000022", "school_name": "Aguilar Elementary School", "city": "AGUILAR", "state": "CO", "zip": "81020", "lat": 37.4060000000001, "lon": -104.6539, "charter": false, "level": "", "enrollment": 65, "teachers_fte": 6.0}, {"ncessch": "080201000023", "school_name": "Aguilar Junior-Senior High School", "city": "AGUILAR", "state": "CO", "zip": "81020", "lat": 37.4060000000001, "lon": -104.6539, "charter": false, "level": "", "enrollment": 54, "teachers_fte": 5.25}], "0802040": [{"ncessch": "080204000024", "school_name": "Akron Elementary School", "city": "AKRON", "state": "CO", "zip": "80720", "lat": 40.1643330000001, "lon": -103.204934999, "charter": false, "level": "", "enrollment": 327, "teachers_fte": 24.4899997711182}, {"ncessch": "080204000025", "school_name": "Akron High School", "city": "AKRON", "state": "CO", "zip": "80720", "lat": 40.1643330000001, "lon": -103.204934999, "charter": false, "level": "", "enrollment": 100, "teachers_fte": 10.8199996948242}], "0802070": [{"ncessch": "080207000026", "school_name": "Ortega Middle School", "city": "ALAMOSA", "state": "CO", "zip": "81101", "lat": 37.4762000000001, "lon": -105.887200001, "charter": false, "level": "", "enrollment": 540, "teachers_fte": 31.5200004577637}, {"ncessch": "080207000027", "school_name": "Alamosa High School", "city": "ALAMOSA", "state": "CO", "zip": "81101", "lat": 37.4839000000001, "lon": -105.8949, "charter": false, "level": "", "enrollment": 582, "teachers_fte": 36.9000015258789}, {"ncessch": "080207006459", "school_name": "Alamosa Elementary School 3-5", "city": "ALAMOSA", "state": "CO", "zip": "81101", "lat": 37.463035001, "lon": -105.885503, "charter": false, "level": "", "enrollment": 504, "teachers_fte": 33.5900001525879}, {"ncessch": "080207006792", "school_name": "Alamosa Online", "city": "ALAMOSA", "state": "CO", "zip": "81101", "lat": 37.4742900000001, "lon": -105.888354001, "charter": false, "level": "", "enrollment": 14, "teachers_fte": 1.20000004768372}, {"ncessch": "080207006798", "school_name": "Alamosa Elementary School K-2", "city": "ALAMOSA", "state": "CO", "zip": "81101", "lat": 37.464466999, "lon": -105.885591, "charter": false, "level": "", "enrollment": 433, "teachers_fte": 29.9899997711182}, {"ncessch": "080207006851", "school_name": "Alamosa Alternative Education School", "city": "ALAMOSA", "state": "CO", "zip": "81101", "lat": 37.4742870000001, "lon": -105.888357, "charter": false, "level": "", "enrollment": 43, "teachers_fte": 2.32999992370605}], "0802130": [{"ncessch": "080213000033", "school_name": "Guadalupe Elementary School", "city": "ANTONITO", "state": "CO", "zip": "81120", "lat": 37.0800750000001, "lon": -106.016931999, "charter": false, "level": "", "enrollment": 102, "teachers_fte": 8.96000003814697}, {"ncessch": "080213000035", "school_name": "Antonito High School", "city": "ANTONITO", "state": "CO", "zip": "81120", "lat": 37.0800750000001, "lon": -106.016931999, "charter": false, "level": "", "enrollment": 47, "teachers_fte": 4.32999992370605}, {"ncessch": "080213001464", "school_name": "Antonito Middle School", "city": "ANTONITO", "state": "CO", "zip": "81120", "lat": 37.0800750000001, "lon": -106.016931999, "charter": false, "level": "", "enrollment": 25, "teachers_fte": 4.21000003814697}], "0802190": [{"ncessch": "080219000038", "school_name": "Pagosa Springs Elementary School", "city": "PAGOSA SPRINGS", "state": "CO", "zip": "81147", "lat": 37.2662, "lon": -107.0211, "charter": false, "level": "", "enrollment": 521, "teachers_fte": 39.0099983215332}, {"ncessch": "080219000039", "school_name": "Pagosa Springs High School", "city": "PAGOSA SPRINGS", "state": "CO", "zip": "81147", "lat": 37.255882, "lon": -107.016925, "charter": false, "level": "", "enrollment": 475, "teachers_fte": 30.25}, {"ncessch": "080219000040", "school_name": "Pagosa Springs Middle School", "city": "PAGOSA SPRINGS", "state": "CO", "zip": "81147", "lat": 37.2686, "lon": -107.0097, "charter": false, "level": "", "enrollment": 511, "teachers_fte": 29.5}, {"ncessch": "080219006717", "school_name": "Pagosa Peak Open School", "city": "PAGOSA SPRINGS", "state": "CO", "zip": "81147", "lat": 37.2619579990001, "lon": -107.062515, "charter": true, "level": "", "enrollment": 125, "teachers_fte": 8.25}, {"ncessch": "080219006806", "school_name": "San Juan Mountain School", "city": "PAGOSA SPRINGS", "state": "CO", "zip": "81147", "lat": 37.255882, "lon": -107.016925, "charter": false, "level": "", "enrollment": 46, "teachers_fte": 4.0}], "0802220": [{"ncessch": "080222000041", "school_name": "Arickaree Elementary School", "city": "ANTON", "state": "CO", "zip": "80801", "lat": 39.7453, "lon": -103.0298, "charter": false, "level": "", "enrollment": 56, "teachers_fte": 5.6100001335144}, {"ncessch": "080222000042", "school_name": "Arickaree Undivided High School", "city": "ANTON", "state": "CO", "zip": "80801", "lat": 39.7453, "lon": -103.0298, "charter": false, "level": "", "enrollment": 45, "teachers_fte": 6.59999990463257}], "0802260": [{"ncessch": "080226000509", "school_name": "Flagler Public School", "city": "FLAGLER", "state": "CO", "zip": "80815", "lat": 39.2931300000001, "lon": -103.071645, "charter": false, "level": "", "enrollment": 172, "teachers_fte": 19.5599994659424}], "0802280": [{"ncessch": "080228000045", "school_name": "Aspen Elementary School", "city": "ASPEN", "state": "CO", "zip": "81611", "lat": 39.1915940000001, "lon": -106.847946, "charter": false, "level": "", "enrollment": 440, "teachers_fte": 34.5}, {"ncessch": "080228000046", "school_name": "Aspen Middle School", "city": "ASPEN", "state": "CO", "zip": "81611", "lat": 39.1914330000001, "lon": -106.847964, "charter": false, "level": "", "enrollment": 443, "teachers_fte": 38.7700004577637}, {"ncessch": "080228000047", "school_name": "Aspen High School", "city": "ASPEN", "state": "CO", "zip": "81611", "lat": 39.189835999, "lon": -106.84895, "charter": false, "level": "", "enrollment": 529, "teachers_fte": 47.9000015258789}, {"ncessch": "080228001703", "school_name": "Aspen Community Charter School", "city": "WOODY CREEK", "state": "CO", "zip": "81656", "lat": 39.27703, "lon": -106.871052, "charter": true, "level": "", "enrollment": 137, "teachers_fte": 12.8699998855591}, {"ncessch": "080228001982", "school_name": "Aspen Preschool", "city": "ASPEN", "state": "CO", "zip": "81611", "lat": 39.190949, "lon": -106.849326, "charter": false, "level": "", "enrollment": 23, "teachers_fte": 0.5}], "0802310": [{"ncessch": "080231000049", "school_name": "Highland Elementary School", "city": "PIERCE", "state": "CO", "zip": "80650", "lat": 40.6389, "lon": -104.7559, "charter": false, "level": "", "enrollment": 473, "teachers_fte": 27.0}, {"ncessch": "080231000050", "school_name": "Highland High School", "city": "AULT", "state": "CO", "zip": "80610", "lat": 40.5813360000001, "lon": -104.736959, "charter": false, "level": "", "enrollment": 285, "teachers_fte": 22.9200000762939}, {"ncessch": "080231001466", "school_name": "Highland Middle School", "city": "AULT", "state": "CO", "zip": "80610", "lat": 40.5813360000001, "lon": -104.736959, "charter": false, "level": "", "enrollment": 235, "teachers_fte": 18.0499992370605}], "0802340": [{"ncessch": "080234000052", "school_name": "Altura Elementary School", "city": "AURORA", "state": "CO", "zip": "80011", "lat": 39.7432000000001, "lon": -104.813600001, "charter": false, "level": "", "enrollment": 469, "teachers_fte": 24.5}, {"ncessch": "080234000054", "school_name": "Aurora Hills Middle School", "city": "AURORA", "state": "CO", "zip": "80012", "lat": 39.6987, "lon": -104.8397, "charter": false, "level": "", "enrollment": 892, "teachers_fte": 53.5999984741211}, {"ncessch": "080234000055", "school_name": "Boston K-8 School", "city": "AURORA", "state": "CO", "zip": "80010", "lat": 39.737957001, "lon": -104.88063, "charter": false, "level": "", "enrollment": 421, "teachers_fte": 25.5}, {"ncessch": "080234000056", "school_name": "Aurora Central Campus", "city": "AURORA", "state": "CO", "zip": "80010", "lat": 39.7323000000001, "lon": -104.851299999, "charter": false, "level": "", "enrollment": 2084, "teachers_fte": 121.0}, {"ncessch": "080234000057", "school_name": "Clyde Miller K-8", "city": "AURORA", "state": "CO", "zip": "80011", "lat": 39.746, "lon": -104.7578, "charter": false, "level": "", "enrollment": 477, "teachers_fte": 29.5}, {"ncessch": "080234000058", "school_name": "Crawford Elementary School", "city": "AURORA", "state": "CO", "zip": "80010", "lat": 39.7432000000001, "lon": -104.870800001, "charter": false, "level": "", "enrollment": 435, "teachers_fte": 29.0}, {"ncessch": "080234000059", "school_name": "Dartmouth Elementary School", "city": "AURORA", "state": "CO", "zip": "80013", "lat": 39.6628000000001, "lon": -104.7995, "charter": false, "level": "", "enrollment": 399, "teachers_fte": 29.0}, {"ncessch": "080234000060", "school_name": "East Middle School", "city": "AURORA", "state": "CO", "zip": "80011", "lat": 39.7346000000001, "lon": -104.8138, "charter": false, "level": "", "enrollment": 840, "teachers_fte": 51.0}, {"ncessch": "080234000061", "school_name": "Elkhart Elementary School", "city": "AURORA", "state": "CO", "zip": "80011", "lat": 39.7316000000001, "lon": -104.8153, "charter": false, "level": "", "enrollment": 532, "teachers_fte": 34.0}, {"ncessch": "080234000062", "school_name": "Fulton Academy of Excellence", "city": "AURORA", "state": "CO", "zip": "80010", "lat": 39.7285000000001, "lon": -104.8711, "charter": false, "level": "", "enrollment": 396, "teachers_fte": 22.0}, {"ncessch": "080234000063", "school_name": "Gateway High School", "city": "AURORA", "state": "CO", "zip": "80012", "lat": 39.6935999990001, "lon": -104.8171, "charter": false, "level": "", "enrollment": 1564, "teachers_fte": 74.0}, {"ncessch": "080234000064", "school_name": "Hinkley High School", "city": "AURORA", "state": "CO", "zip": "80011", "lat": 39.7349, "lon": -104.8086, "charter": false, "level": "", "enrollment": 1687, "teachers_fte": 89.0}, {"ncessch": "080234000066", "school_name": "Jewell Elementary School", "city": "AURORA", "state": "CO", "zip": "80012", "lat": 39.6827000000001, "lon": -104.8185, "charter": false, "level": "", "enrollment": 502, "teachers_fte": 29.6000003814697}, {"ncessch": "080234000067", "school_name": "Kenton Elementary School", "city": "AURORA", "state": "CO", "zip": "80010", "lat": 39.735500001, "lon": -104.8604, "charter": false, "level": "", "enrollment": 448, "teachers_fte": 35.0}, {"ncessch": "080234000068", "school_name": "Lansing Elementary Community School", "city": "AURORA", "state": "CO", "zip": "80010", "lat": 39.7239000000001, "lon": -104.859899999, "charter": false, "level": "", "enrollment": 337, "teachers_fte": 25.5}, {"ncessch": "080234000069", "school_name": "Laredo Elementary School", "city": "AURORA", "state": "CO", "zip": "80011", "lat": 39.7372, "lon": -104.799500001, "charter": false, "level": "", "enrollment": 414, "teachers_fte": 19.5}, {"ncessch": "080234000072", "school_name": "Montview Math & Health Sciences Elementary School", "city": "AURORA", "state": "CO", "zip": "80010", "lat": 39.748299999, "lon": -104.8546, "charter": false, "level": "", "enrollment": 286, "teachers_fte": 19.0}, {"ncessch": "080234000073", "school_name": "Mrachek Middle School", "city": "AURORA", "state": "CO", "zip": "80013", "lat": 39.6800440000001, "lon": -104.782466, "charter": false, "level": "", "enrollment": 867, "teachers_fte": 43.0}, {"ncessch": "080234000074", "school_name": "North Middle School Health Sciences and Technology", "city": "AURORA", "state": "CO", "zip": "80010", "lat": 39.7486000000001, "lon": -104.8485, "charter": false, "level": "", "enrollment": 613, "teachers_fte": 33.5999984741211}, {"ncessch": "080234000075", "school_name": "Paris Elementary School", "city": "AURORA", "state": "CO", "zip": "80010", "lat": 39.7428, "lon": -104.8486, "charter": false, "level": "", "enrollment": 270, "teachers_fte": 17.0}, {"ncessch": "080234000076", "school_name": "Park Lane Elementary School", "city": "AURORA", "state": "CO", "zip": "80011", "lat": 39.759100001, "lon": -104.836900001, "charter": false, "level": "", "enrollment": 250, "teachers_fte": 15.6000003814697}, {"ncessch": "080234000077", "school_name": "Sable Elementary School", "city": "AURORA", "state": "CO", "zip": "80011", "lat": 39.7537999990001, "lon": -104.8201, "charter": false, "level": "", "enrollment": 387, "teachers_fte": 25.8999996185303}, {"ncessch": "080234000078", "school_name": "Sixth Avenue Elementary School", "city": "AURORA", "state": "CO", "zip": "80011", "lat": 39.7246000000001, "lon": -104.8301, "charter": false, "level": "", "enrollment": 592, "teachers_fte": 35.0}, {"ncessch": "080234000079", "school_name": "South Middle School", "city": "AURORA", "state": "CO", "zip": "80011", "lat": 39.7207000000001, "lon": -104.8441, "charter": false, "level": "", "enrollment": 139, "teachers_fte": 10.4899997711182}, {"ncessch": "080234000080", "school_name": "Vaughn Elementary School", "city": "AURORA", "state": "CO", "zip": "80011", "lat": 39.7350000000001, "lon": -104.836599999, "charter": false, "level": "", "enrollment": 395, "teachers_fte": 24.7000007629395}, {"ncessch": "080234000081", "school_name": "Virginia Court Elementary School", "city": "AURORA", "state": "CO", "zip": "80012", "lat": 39.7073, "lon": -104.8405, "charter": false, "level": "", "enrollment": 687, "teachers_fte": 43.5}, {"ncessch": "080234000082", "school_name": "Aurora West College Preparatory Academy", "city": "AURORA", "state": "CO", "zip": "80010", "lat": 39.736, "lon": -104.8706, "charter": false, "level": "", "enrollment": 1033, "teachers_fte": 49.0}, {"ncessch": "080234000083", "school_name": "Clara Brown Entrepreneurial Academy", "city": "AURORA", "state": "CO", "zip": "80012", "lat": 39.7039, "lon": -104.833200001, "charter": false, "level": "", "enrollment": 193, "teachers_fte": 12.5}, {"ncessch": "080234000084", "school_name": "William Smith High School", "city": "AURORA", "state": "CO", "zip": "80011", "lat": 39.721500001, "lon": -104.7893, "charter": false, "level": "", "enrollment": 380, "teachers_fte": 21.0}, {"ncessch": "080234000085", "school_name": "Yale Elementary School", "city": "AURORA", "state": "CO", "zip": "80013", "lat": 39.6682000000001, "lon": -104.8033, "charter": false, "level": "", "enrollment": 551, "teachers_fte": 32.0}, {"ncessch": "080234001294", "school_name": "Vassar Elementary School", "city": "AURORA", "state": "CO", "zip": "80013", "lat": 39.6695, "lon": -104.7771, "charter": false, "level": "", "enrollment": 456, "teachers_fte": 29.0}, {"ncessch": "080234001295", "school_name": "Dalton Elementary School", "city": "AURORA", "state": "CO", "zip": "80013", "lat": 39.6596000000001, "lon": -104.7855, "charter": false, "level": "", "enrollment": 410, "teachers_fte": 25.7000007629395}, {"ncessch": "080234001296", "school_name": "Arkansas Elementary School", "city": "AURORA", "state": "CO", "zip": "80017", "lat": 39.6923, "lon": -104.7853, "charter": false, "level": "", "enrollment": 460, "teachers_fte": 29.0}, {"ncessch": "080234001322", "school_name": "Columbia Middle School", "city": "AURORA", "state": "CO", "zip": "80013", "lat": 39.6596000010001, "lon": -104.7828, "charter": false, "level": "", "enrollment": 679, "teachers_fte": 38.0}, {"ncessch": "080234001323", "school_name": "Iowa Elementary School", "city": "AURORA", "state": "CO", "zip": "80017", "lat": 39.6879000010001, "lon": -104.7935, "charter": false, "level": "", "enrollment": 481, "teachers_fte": 26.0}, {"ncessch": "080234001324", "school_name": "Tollgate Elementary School of Expeditionary Learni", "city": "AURORA", "state": "CO", "zip": "80017", "lat": 39.7026000000001, "lon": -104.8022, "charter": false, "level": "", "enrollment": 567, "teachers_fte": 33.5}, {"ncessch": "080234001389", "school_name": "Rangeview High School", "city": "AURORA", "state": "CO", "zip": "80013", "lat": 39.6754, "lon": -104.7814, "charter": false, "level": "", "enrollment": 2051, "teachers_fte": 96.0999984741211}, {"ncessch": "080234001432", "school_name": "Side Creek Elementary School", "city": "AURORA", "state": "CO", "zip": "80013", "lat": 39.6782000000001, "lon": -104.7646, "charter": false, "level": "", "enrollment": 501, "teachers_fte": 25.0}, {"ncessch": "080234001627", "school_name": "Laredo Child Development Center", "city": "AURORA", "state": "CO", "zip": "80011", "lat": 39.7388, "lon": -104.7998, "charter": false, "level": "", "enrollment": 246, "teachers_fte": 4.0}, {"ncessch": "080234001674", "school_name": "Aurora Quest K-8", "city": "AURORA", "state": "CO", "zip": "80012", "lat": 39.7202320010001, "lon": -104.78658, "charter": false, "level": "", "enrollment": 589, "teachers_fte": 29.0}, {"ncessch": "080234001759", "school_name": "Aurora Academy Charter School", "city": "AURORA", "state": "CO", "zip": "80010", "lat": 39.7186, "lon": -104.869, "charter": true, "level": "", "enrollment": 512, "teachers_fte": 44.0}, {"ncessch": "080234001881", "school_name": "Murphy Creek K-8 School", "city": "AURORA", "state": "CO", "zip": "80018", "lat": 39.6908, "lon": -104.7102, "charter": false, "level": "", "enrollment": 735, "teachers_fte": 42.4000015258789}, {"ncessch": "080234001916", "school_name": "Lotus School for Excellence", "city": "AURORA", "state": "CO", "zip": "80012", "lat": 39.7123, "lon": -104.8601, "charter": true, "level": "", "enrollment": 951, "teachers_fte": 61.0}, {"ncessch": "080234002009", "school_name": "Aurora Frontier K-8", "city": "AURORA", "state": "CO", "zip": "80013", "lat": 39.6585000000001, "lon": -104.7463, "charter": false, "level": "", "enrollment": 781, "teachers_fte": 43.0999984741211}, {"ncessch": "080234006318", "school_name": "Global Village Academy Aurora", "city": "AURORA", "state": "CO", "zip": "80017", "lat": 39.7103620010001, "lon": -104.796814, "charter": true, "level": "", "enrollment": 856, "teachers_fte": 70.9800033569336}, {"ncessch": "080234006322", "school_name": "Vanguard Classical School - West", "city": "DENVER", "state": "CO", "zip": "80230", "lat": 39.7293269990001, "lon": -104.888382, "charter": true, "level": "", "enrollment": 363, "teachers_fte": 27.5}, {"ncessch": "080234006399", "school_name": "AXL Academy", "city": "AURORA", "state": "CO", "zip": "80012", "lat": 39.681400001, "lon": -104.824, "charter": true, "level": "", "enrollment": 356, "teachers_fte": 24.0}, {"ncessch": "080234006411", "school_name": "Jamaica Child Development Center", "city": "AURORA", "state": "CO", "zip": "80010", "lat": 39.7289180000001, "lon": -104.862673, "charter": false, "level": "", "enrollment": 140, "teachers_fte": 4.0}, {"ncessch": "080234006451", "school_name": "Vista Peak 9-12 Preparatory", "city": "AURORA", "state": "CO", "zip": "80018", "lat": 39.7235190000001, "lon": -104.701287, "charter": false, "level": "", "enrollment": 1795, "teachers_fte": 84.0}, {"ncessch": "080234006483", "school_name": "Vista Peak P-8 Exploratory", "city": "AURORA", "state": "CO", "zip": "80018", "lat": 39.7193550010001, "lon": -104.70113, "charter": false, "level": "", "enrollment": 1037, "teachers_fte": 50.1599998474121}, {"ncessch": "080234006495", "school_name": "Meadowood Child Development Center", "city": "AURORA", "state": "CO", "zip": "80013", "lat": 39.6572120000001, "lon": -104.796298, "charter": false, "level": "", "enrollment": 220, "teachers_fte": 2.0}, {"ncessch": "080234006611", "school_name": "Vanguard Classical School - East", "city": "AURORA", "state": "CO", "zip": "80017", "lat": 39.7025640000001, "lon": -104.786701, "charter": true, "level": "", "enrollment": 725, "teachers_fte": 53.0}, {"ncessch": "080234006625", "school_name": "APS Early Beginnings - A Zoom Site", "city": "AURORA", "state": "CO", "zip": "80010", "lat": 39.72925, "lon": -104.861897, "charter": false, "level": "", "enrollment": 33, "teachers_fte": 0.0}, {"ncessch": "080234006644", "school_name": "Edna and John W. Mosley P-8", "city": "AURORA", "state": "CO", "zip": "80011", "lat": 39.7177290000001, "lon": -104.787118, "charter": false, "level": "", "enrollment": 1018, "teachers_fte": 56.0}, {"ncessch": "080234006677", "school_name": "Rocky Mountain Prep: Fletcher", "city": "AURORA", "state": "CO", "zip": "80010", "lat": 39.75318, "lon": -104.866441, "charter": true, "level": "", "enrollment": 571, "teachers_fte": 41.3499984741211}, {"ncessch": "080234006732", "school_name": "Vega Collegiate Academy", "city": "AURORA", "state": "CO", "zip": "80010", "lat": 39.7371800000001, "lon": -104.855651, "charter": true, "level": "", "enrollment": 553, "teachers_fte": 27.0}, {"ncessch": "080234006736", "school_name": "Academy of Advanced Learning", "city": "AURORA", "state": "CO", "zip": "80011", "lat": 39.7234470010001, "lon": -104.821159, "charter": true, "level": "", "enrollment": 789, "teachers_fte": 38.0}, {"ncessch": "080234006781", "school_name": "Empower Community High School", "city": "AURORA", "state": "CO", "zip": "80017", "lat": 39.707343001, "lon": -104.806988001, "charter": true, "level": "", "enrollment": 214, "teachers_fte": 24.0}, {"ncessch": "080234006787", "school_name": "Aurora Science & Tech Middle School", "city": "AURORA", "state": "CO", "zip": "80010", "lat": 39.75318, "lon": -104.866441, "charter": true, "level": "", "enrollment": 454, "teachers_fte": 30.0}, {"ncessch": "080234006803", "school_name": "Harmony Ridge P-8", "city": "AURORA", "state": "CO", "zip": "80018", "lat": 39.717742, "lon": -104.671856, "charter": false, "level": "", "enrollment": 878, "teachers_fte": 55.0}, {"ncessch": "080234006858", "school_name": "Aurora Science & Tech High School", "city": "AURORA", "state": "CO", "zip": "80045", "lat": 39.753787, "lon": -104.839304001, "charter": true, "level": "", "enrollment": 161, "teachers_fte": 13.0}], "0802370": [{"ncessch": "080237000086", "school_name": "Deer Creek Elementary School", "city": "BAILEY", "state": "CO", "zip": "80421", "lat": 39.4554000000001, "lon": -105.4729, "charter": false, "level": "", "enrollment": 400, "teachers_fte": 24.1100006103516}, {"ncessch": "080237000087", "school_name": "Platte Canyon High School", "city": "BAILEY", "state": "CO", "zip": "80421", "lat": 39.421211, "lon": -105.535241, "charter": false, "level": "", "enrollment": 228, "teachers_fte": 15.4700002670288}, {"ncessch": "080237001325", "school_name": "Fitzsimmons Middle School", "city": "BAILEY", "state": "CO", "zip": "80421", "lat": 39.42134, "lon": -105.53665, "charter": false, "level": "", "enrollment": 169, "teachers_fte": 14.6800003051758}], "0802400": [{"ncessch": "080240000088", "school_name": "Bayfield Intermediate School", "city": "BAYFIELD", "state": "CO", "zip": "81122", "lat": 37.2380000000001, "lon": -107.59047, "charter": false, "level": "", "enrollment": 295, "teachers_fte": 24.6000003814697}, {"ncessch": "080240000089", "school_name": "Bayfield Middle School", "city": "BAYFIELD", "state": "CO", "zip": "81122", "lat": 37.2407000010001, "lon": -107.5926, "charter": false, "level": "", "enrollment": 294, "teachers_fte": 25.8999996185303}, {"ncessch": "080240000090", "school_name": "Bayfield High School", "city": "BAYFIELD", "state": "CO", "zip": "81122", "lat": 37.2417, "lon": -107.6001, "charter": false, "level": "", "enrollment": 423, "teachers_fte": 31.6399993896484}, {"ncessch": "080240006747", "school_name": "Bayfield Primary School", "city": "BAYFIELD", "state": "CO", "zip": "81122", "lat": 37.226209, "lon": -107.593728, "charter": false, "level": "", "enrollment": 267, "teachers_fte": 23.1299991607666}], "0802430": [{"ncessch": "080243000091", "school_name": "Bennett Elementary School", "city": "BENNETT", "state": "CO", "zip": "80102", "lat": 39.7590970000001, "lon": -104.422577, "charter": false, "level": "", "enrollment": 257, "teachers_fte": 17.9400005340576}, {"ncessch": "080243000092", "school_name": "Bennett High School", "city": "BENNETT", "state": "CO", "zip": "80102", "lat": 39.760991, "lon": -104.424803, "charter": false, "level": "", "enrollment": 427, "teachers_fte": 21.9300003051758}, {"ncessch": "080243000093", "school_name": "Bennett Middle School", "city": "BENNETT", "state": "CO", "zip": "80102", "lat": 39.759084999, "lon": -104.424564999, "charter": false, "level": "", "enrollment": 304, "teachers_fte": 13.2600002288818}, {"ncessch": "080243001751", "school_name": "Bennett Preschool", "city": "BENNETT", "state": "CO", "zip": "80102", "lat": 39.7585750000001, "lon": -104.422197, "charter": false, "level": "", "enrollment": 71, "teachers_fte": 1.0}, {"ncessch": "080243006789", "school_name": "Bennett Intermediate School", "city": "BENNETT", "state": "CO", "zip": "80102", "lat": 39.7581230000001, "lon": -104.424851001, "charter": false, "level": "", "enrollment": 237, "teachers_fte": 16.4300003051758}], "0802460": [{"ncessch": "080246000095", "school_name": "Bethune Public Schools", "city": "BETHUNE", "state": "CO", "zip": "80805", "lat": 39.306226, "lon": -102.426175, "charter": false, "level": "", "enrollment": 108, "teachers_fte": 14.4200000762939}], "0802490": [{"ncessch": "080249000099", "school_name": "Bear Creek Elementary School", "city": "BOULDER", "state": "CO", "zip": "80305", "lat": 39.9804, "lon": -105.2632, "charter": false, "level": "", "enrollment": 342, "teachers_fte": 17.7000007629395}, {"ncessch": "080249000100", "school_name": "Birch Elementary School", "city": "BROOMFIELD", "state": "CO", "zip": "80020", "lat": 39.9304000010001, "lon": -105.0595, "charter": false, "level": "", "enrollment": 337, "teachers_fte": 23.5}, {"ncessch": "080249000101", "school_name": "Boulder High School", "city": "BOULDER", "state": "CO", "zip": "80302", "lat": 40.0135999990001, "lon": -105.2736, "charter": false, "level": "", "enrollment": 2074, "teachers_fte": 102.910003662109}, {"ncessch": "080249000102", "school_name": "Broomfield Heights Middle School", "city": "BROOMFIELD", "state": "CO", "zip": "80020", "lat": 39.9376, "lon": -105.0779, "charter": false, "level": "", "enrollment": 489, "teachers_fte": 30.1499996185303}, {"ncessch": "080249000103", "school_name": "Broomfield High School", "city": "BROOMFIELD", "state": "CO", "zip": "80020", "lat": 39.9300000000001, "lon": -105.075, "charter": false, "level": "", "enrollment": 1645, "teachers_fte": 79.6999969482422}, {"ncessch": "080249000104", "school_name": "Manhattan Middle School of the Arts and Academics", "city": "BOULDER", "state": "CO", "zip": "80303", "lat": 39.9941000000001, "lon": -105.2288, "charter": false, "level": "", "enrollment": 400, "teachers_fte": 22.9500007629395}, {"ncessch": "080249000106", "school_name": "Casey Middle School", "city": "BOULDER", "state": "CO", "zip": "80304", "lat": 40.023199999, "lon": -105.2799, "charter": false, "level": "", "enrollment": 452, "teachers_fte": 30.0900001525879}, {"ncessch": "080249000107", "school_name": "Centaurus High School", "city": "LAFAYETTE", "state": "CO", "zip": "80026", "lat": 39.9863, "lon": -105.1126, "charter": false, "level": "", "enrollment": 1525, "teachers_fte": 81.75}, {"ncessch": "080249000108", "school_name": "Centennial Middle School", "city": "BOULDER", "state": "CO", "zip": "80304", "lat": 40.0448000010001, "lon": -105.268499999, "charter": false, "level": "", "enrollment": 567, "teachers_fte": 33.2700004577637}, {"ncessch": "080249000109", "school_name": "Columbine Elementary School", "city": "BOULDER", "state": "CO", "zip": "80304", "lat": 40.0323999990001, "lon": -105.268941001, "charter": false, "level": "", "enrollment": 405, "teachers_fte": 30.7800006866455}, {"ncessch": "080249000110", "school_name": "Crest View Elementary School", "city": "BOULDER", "state": "CO", "zip": "80304", "lat": 40.0516000000001, "lon": -105.274, "charter": false, "level": "", "enrollment": 435, "teachers_fte": 27.1499996185303}, {"ncessch": "080249000111", "school_name": "Douglass Elementary School", "city": "BOULDER", "state": "CO", "zip": "80303", "lat": 40.0024050000001, "lon": -105.176912, "charter": false, "level": "", "enrollment": 335, "teachers_fte": 19.8700008392334}, {"ncessch": "080249000112", "school_name": "Eisenhower Elementary School", "city": "BOULDER", "state": "CO", "zip": "80303", "lat": 40.0081999990001, "lon": -105.233900001, "charter": false, "level": "", "enrollment": 304, "teachers_fte": 18.6399993896484}, {"ncessch": "080249000113", "school_name": "Emerald Elementary School", "city": "BROOMFIELD", "state": "CO", "zip": "80020", "lat": 39.9210659990001, "lon": -105.077922, "charter": false, "level": "", "enrollment": 413, "teachers_fte": 28.0}, {"ncessch": "080249000114", "school_name": "Fairview High School", "city": "BOULDER", "state": "CO", "zip": "80305", "lat": 39.9725, "lon": -105.2459, "charter": false, "level": "", "enrollment": 1880, "teachers_fte": 87.1900024414062}, {"ncessch": "080249000115", "school_name": "Flatirons Elementary School", "city": "BOULDER", "state": "CO", "zip": "80302", "lat": 40.0083000000001, "lon": -105.2851, "charter": false, "level": "", "enrollment": 182, "teachers_fte": 11.0}, {"ncessch": "080249000116", "school_name": "Foothill Elementary School", "city": "BOULDER", "state": "CO", "zip": "80304", "lat": 40.0356, "lon": -105.2842, "charter": false, "level": "", "enrollment": 437, "teachers_fte": 25.6200008392334}, {"ncessch": "080249000117", "school_name": "Gold Hill Elementary School", "city": "GOLD HILL", "state": "CO", "zip": "80302", "lat": 40.063099999, "lon": -105.4125, "charter": false, "level": "", "enrollment": 15, "teachers_fte": 2.78999996185303}, {"ncessch": "080249000118", "school_name": "Heatherwood Elementary School", "city": "BOULDER", "state": "CO", "zip": "80301", "lat": 40.0574999990001, "lon": -105.1725, "charter": false, "level": "", "enrollment": 261, "teachers_fte": 17.6700000762939}, {"ncessch": "080249000119", "school_name": "Jamestown Elementary School", "city": "JAMESTOWN", "state": "CO", "zip": "80455", "lat": 40.1146000000001, "lon": -105.3881, "charter": false, "level": "", "enrollment": 17, "teachers_fte": 2.49000000953674}, {"ncessch": "080249000120", "school_name": "Kohl Elementary School", "city": "BROOMFIELD", "state": "CO", "zip": "80020", "lat": 39.928000001, "lon": -105.0822, "charter": false, "level": "", "enrollment": 297, "teachers_fte": 17.3799991607666}, {"ncessch": "080249000121", "school_name": "Lafayette Elementary School", "city": "LAFAYETTE", "state": "CO", "zip": "80026", "lat": 39.9982000000001, "lon": -105.096299999, "charter": false, "level": "", "enrollment": 483, "teachers_fte": 28.0200004577637}, {"ncessch": "080249000122", "school_name": "Angevine Middle School", "city": "LAFAYETTE", "state": "CO", "zip": "80026", "lat": 39.9899000010001, "lon": -105.1041, "charter": false, "level": "", "enrollment": 661, "teachers_fte": 41.689998626709}, {"ncessch": "080249000124", "school_name": "Louisville Elementary School", "city": "LOUISVILLE", "state": "CO", "zip": "80027", "lat": 39.9751000000001, "lon": -105.138300001, "charter": false, "level": "", "enrollment": 451, "teachers_fte": 25.1399993896484}, {"ncessch": "080249000125", "school_name": "Louisville Middle School", "city": "LOUISVILLE", "state": "CO", "zip": "80027", "lat": 39.9843000000001, "lon": -105.132900001, "charter": false, "level": "", "enrollment": 595, "teachers_fte": 32.7099990844727}, {"ncessch": "080249000128", "school_name": "Creekside Elementary School at Martin Park", "city": "BOULDER", "state": "CO", "zip": "80305", "lat": 39.9902670000001, "lon": -105.249807, "charter": false, "level": "", "enrollment": 378, "teachers_fte": 23.6200008392334}, {"ncessch": "080249000129", "school_name": "Mesa Elementary School", "city": "BOULDER", "state": "CO", "zip": "80305", "lat": 39.9722, "lon": -105.2608, "charter": false, "level": "", "enrollment": 246, "teachers_fte": 16.1000003814697}, {"ncessch": "080249000130", "school_name": "Nederland Elementary School", "city": "NEDERLAND", "state": "CO", "zip": "80466", "lat": 39.9694000010001, "lon": -105.5178, "charter": false, "level": "", "enrollment": 193, "teachers_fte": 14.8999996185303}, {"ncessch": "080249000131", "school_name": "Nederland Middle-Senior High School", "city": "NEDERLAND", "state": "CO", "zip": "80466", "lat": 39.9528, "lon": -105.525099999, "charter": false, "level": "", "enrollment": 260, "teachers_fte": 19.5}, {"ncessch": "080249000132", "school_name": "Nevin Platt Middle School", "city": "BOULDER", "state": "CO", "zip": "80303", "lat": 40.003, "lon": -105.209600001, "charter": false, "level": "", "enrollment": 466, "teachers_fte": 28.5599994659424}, {"ncessch": "080249000134", "school_name": "Southern Hills Middle School", "city": "BOULDER", "state": "CO", "zip": "80305", "lat": 39.9747, "lon": -105.2448, "charter": false, "level": "", "enrollment": 456, "teachers_fte": 24.4500007629395}, {"ncessch": "080249000135", "school_name": "University Hill Elementary School", "city": "BOULDER", "state": "CO", "zip": "80302", "lat": 40.005099999, "lon": -105.2718, "charter": false, "level": "", "enrollment": 413, "teachers_fte": 32.9000015258789}, {"ncessch": "080249000139", "school_name": "Whittier Elementary School", "city": "BOULDER", "state": "CO", "zip": "80302", "lat": 40.0217000000001, "lon": -105.2695, "charter": false, "level": "", "enrollment": 329, "teachers_fte": 24.3199996948242}, {"ncessch": "080249000465", "school_name": "New Vista High School", "city": "BOULDER", "state": "CO", "zip": "80302", "lat": 40.000900001, "lon": -105.2672, "charter": false, "level": "", "enrollment": 310, "teachers_fte": 17.0499992370605}, {"ncessch": "080249001219", "school_name": "Arapahoe Ridge High School", "city": "BOULDER", "state": "CO", "zip": "80303", "lat": 40.013513, "lon": -105.198032, "charter": false, "level": "", "enrollment": 206, "teachers_fte": 28.1599998474121}, {"ncessch": "080249001227", "school_name": "Community Montessori School", "city": "BOULDER", "state": "CO", "zip": "80305", "lat": 39.9813, "lon": -105.251700001, "charter": false, "level": "", "enrollment": 274, "teachers_fte": 17.8899993896484}, {"ncessch": "080249001243", "school_name": "High Peaks Elementary School", "city": "BOULDER", "state": "CO", "zip": "80303", "lat": 40.004244999, "lon": -105.243619, "charter": false, "level": "", "enrollment": 266, "teachers_fte": 15.25}, {"ncessch": "080249001365", "school_name": "Ryan Elementary School", "city": "LAFAYETTE", "state": "CO", "zip": "80026", "lat": 39.9809000000001, "lon": -105.1102, "charter": false, "level": "", "enrollment": 418, "teachers_fte": 28.8099994659424}, {"ncessch": "080249001376", "school_name": "Coal Creek Elementary School", "city": "LOUISVILLE", "state": "CO", "zip": "80027", "lat": 39.9828000000001, "lon": -105.1577, "charter": false, "level": "", "enrollment": 330, "teachers_fte": 19.1399993896484}, {"ncessch": "080249001403", "school_name": "Alicia Sanchez International School", "city": "LAFAYETTE", "state": "CO", "zip": "80026", "lat": 39.989299999, "lon": -105.0841, "charter": false, "level": "", "enrollment": 343, "teachers_fte": 30.4099998474121}, {"ncessch": "080249001517", "school_name": "Summit Middle Charter School", "city": "BOULDER", "state": "CO", "zip": "80305", "lat": 39.9831, "lon": -105.2407, "charter": true, "level": "", "enrollment": 359, "teachers_fte": 21.1100006103516}, {"ncessch": "080249001518", "school_name": "Superior Elementary School", "city": "SUPERIOR", "state": "CO", "zip": "80027", "lat": 39.937799999, "lon": -105.156400001, "charter": false, "level": "", "enrollment": 420, "teachers_fte": 23.5}, {"ncessch": "080249001573", "school_name": "Monarch K-8 School", "city": "LOUISVILLE", "state": "CO", "zip": "80027", "lat": 39.9517000000001, "lon": -105.1437, "charter": false, "level": "", "enrollment": 715, "teachers_fte": 45.3499984741211}, {"ncessch": "080249001630", "school_name": "Boulder Community School/Integrated Studies", "city": "BOULDER", "state": "CO", "zip": "80303", "lat": 40.004244999, "lon": -105.243619, "charter": false, "level": "", "enrollment": 284, "teachers_fte": 16.0}, {"ncessch": "080249001631", "school_name": "Boulder Prep Charter High School", "city": "BOULDER", "state": "CO", "zip": "80301", "lat": 40.0669, "lon": -105.2031, "charter": true, "level": "", "enrollment": 119, "teachers_fte": 13.3199996948242}, {"ncessch": "080249001632", "school_name": "Monarch High School", "city": "LOUISVILLE", "state": "CO", "zip": "80027", "lat": 39.951699999, "lon": -105.141500001, "charter": false, "level": "", "enrollment": 1523, "teachers_fte": 73.6699981689453}, {"ncessch": "080249001758", "school_name": "Aspen Creek K-8 School", "city": "BROOMFIELD", "state": "CO", "zip": "80020", "lat": 39.9469, "lon": -105.0567, "charter": false, "level": "", "enrollment": 748, "teachers_fte": 45.5400009155273}, {"ncessch": "080249001771", "school_name": "Eldorado K-8 School", "city": "SUPERIOR", "state": "CO", "zip": "80027", "lat": 39.9214000000001, "lon": -105.1613, "charter": false, "level": "", "enrollment": 612, "teachers_fte": 34.0}, {"ncessch": "080249001792", "school_name": "Peak to Peak Charter School", "city": "LAFAYETTE", "state": "CO", "zip": "80026", "lat": 39.9915000010001, "lon": -105.0782, "charter": true, "level": "", "enrollment": 1450, "teachers_fte": 75.75}, {"ncessch": "080249002013", "school_name": "Justice High Charter School", "city": "LAFAYETTE", "state": "CO", "zip": "80026", "lat": 39.9876, "lon": -105.080799999, "charter": true, "level": "", "enrollment": 102, "teachers_fte": 7.71999979019165}, {"ncessch": "080249006154", "school_name": "Fireside Elementary School", "city": "LOUISVILLE", "state": "CO", "zip": "80027", "lat": 39.9693, "lon": -105.1576, "charter": false, "level": "", "enrollment": 435, "teachers_fte": 26.7000007629395}, {"ncessch": "080249006199", "school_name": "Horizons K-8 School", "city": "BOULDER", "state": "CO", "zip": "80303", "lat": 39.9935, "lon": -105.2373, "charter": true, "level": "", "enrollment": 348, "teachers_fte": 28.4300003051758}, {"ncessch": "080249006200", "school_name": "Pioneer Bilingual Elementary School", "city": "LAFAYETTE", "state": "CO", "zip": "80026", "lat": 40.000636, "lon": -105.089198001, "charter": false, "level": "", "enrollment": 461, "teachers_fte": 31.2000007629395}, {"ncessch": "080249006463", "school_name": "Boulder Universal", "city": "BOULDER", "state": "CO", "zip": "80303", "lat": 40.013513, "lon": -105.198032, "charter": false, "level": "", "enrollment": 206, "teachers_fte": 16.8799991607666}, {"ncessch": "080249006571", "school_name": "Mapleton Early Childhood Center", "city": "BOULDER", "state": "CO", "zip": "80304", "lat": 40.0202, "lon": -105.2856, "charter": false, "level": "", "enrollment": 88, "teachers_fte": 4.0}, {"ncessch": "080249006716", "school_name": "Meadowlark School", "city": "ERIE", "state": "CO", "zip": "80516", "lat": 40.0334149990001, "lon": -105.083387999, "charter": false, "level": "", "enrollment": 725, "teachers_fte": 39.9700012207031}], "0802520": [{"ncessch": "080252000141", "school_name": "Branson School", "city": "BRANSON", "state": "CO", "zip": "81027", "lat": 37.0190670000001, "lon": -103.882854, "charter": false, "level": "", "enrollment": 69, "teachers_fte": 10.8199996948242}, {"ncessch": "080252001728", "school_name": "Branson School Online", "city": "BRANSON", "state": "CO", "zip": "81027", "lat": 37.0190670000001, "lon": -103.882854, "charter": false, "level": "", "enrollment": 373, "teachers_fte": 20.5}], "0802550": [{"ncessch": "080255000142", "school_name": "Briggsdale Elementary School", "city": "BRIGGSDALE", "state": "CO", "zip": "80611", "lat": 40.6335, "lon": -104.324400001, "charter": false, "level": "", "enrollment": 91, "teachers_fte": 9.07999992370605}, {"ncessch": "080255000143", "school_name": "Briggsdale Undivided High School", "city": "BRIGGSDALE", "state": "CO", "zip": "80611", "lat": 40.6335, "lon": -104.324400001, "charter": false, "level": "", "enrollment": 86, "teachers_fte": 10.3599996566772}], "0802580": [{"ncessch": "080258000144", "school_name": "Brighton High School", "city": "BRIGHTON", "state": "CO", "zip": "80601", "lat": 39.9812000000001, "lon": -104.8119, "charter": false, "level": "", "enrollment": 1854, "teachers_fte": 98.7699966430664}, {"ncessch": "080258000146", "school_name": "Henderson Elementary School", "city": "HENDERSON", "state": "CO", "zip": "80640", "lat": 39.9227000010001, "lon": -104.8444, "charter": false, "level": "", "enrollment": 353, "teachers_fte": 19.0}, {"ncessch": "080258000149", "school_name": "Northeast Elementary School", "city": "BRIGHTON", "state": "CO", "zip": "80601", "lat": 39.9931, "lon": -104.801999999, "charter": false, "level": "", "enrollment": 499, "teachers_fte": 34.8300018310547}, {"ncessch": "080258000150", "school_name": "South Elementary School", "city": "BRIGHTON", "state": "CO", "zip": "80601", "lat": 39.9818000000001, "lon": -104.8175, "charter": false, "level": "", "enrollment": 370, "teachers_fte": 25.0}, {"ncessch": "080258000151", "school_name": "Southeast Elementary School", "city": "BRIGHTON", "state": "CO", "zip": "80601", "lat": 39.9811, "lon": -104.802, "charter": false, "level": "", "enrollment": 526, "teachers_fte": 31.0}, {"ncessch": "080258000152", "school_name": "Vikan Middle School", "city": "BRIGHTON", "state": "CO", "zip": "80601", "lat": 39.9780000000001, "lon": -104.8118, "charter": false, "level": "", "enrollment": 580, "teachers_fte": 35.0099983215332}, {"ncessch": "080258000729", "school_name": "Innovations & Options", "city": "BRIGHTON", "state": "CO", "zip": "80601", "lat": 39.9863080000001, "lon": -104.811907, "charter": false, "level": "", "enrollment": 216, "teachers_fte": 12.0}, {"ncessch": "080258001377", "school_name": "Overland Trail Middle School", "city": "BRIGHTON", "state": "CO", "zip": "80601", "lat": 39.9947000010001, "lon": -104.800599999, "charter": false, "level": "", "enrollment": 538, "teachers_fte": 39.0}, {"ncessch": "080258001729", "school_name": "Bromley East Charter School", "city": "BRIGHTON", "state": "CO", "zip": "80601", "lat": 39.9823400000001, "lon": -104.746031, "charter": true, "level": "", "enrollment": 1237, "teachers_fte": 53.560001373291}, {"ncessch": "080258001822", "school_name": "John W Thimmig Elementary School", "city": "HENDERSON", "state": "CO", "zip": "80640", "lat": 39.9049000000001, "lon": -104.8504, "charter": false, "level": "", "enrollment": 528, "teachers_fte": 26.5}, {"ncessch": "080258001948", "school_name": "Belle Creek Charter School", "city": "HENDERSON", "state": "CO", "zip": "80640", "lat": 39.8915999990001, "lon": -104.8799, "charter": true, "level": "", "enrollment": 571, "teachers_fte": 31.5699996948242}, {"ncessch": "080258001949", "school_name": "Mary E Pennock Elementary School", "city": "BRIGHTON", "state": "CO", "zip": "80601", "lat": 39.9831, "lon": -104.7765, "charter": false, "level": "", "enrollment": 620, "teachers_fte": 33.0}, {"ncessch": "080258001950", "school_name": "Second Creek Elementary School", "city": "COMMERCE CITY", "state": "CO", "zip": "80022", "lat": 39.8772000000001, "lon": -104.801111, "charter": false, "level": "", "enrollment": 678, "teachers_fte": 37.0}, {"ncessch": "080258002003", "school_name": "Prairie View High School", "city": "HENDERSON", "state": "CO", "zip": "80640", "lat": 39.9162000000001, "lon": -104.8401, "charter": false, "level": "", "enrollment": 1821, "teachers_fte": 75.8000030517578}, {"ncessch": "080258006325", "school_name": "Landmark Academy at Reunion", "city": "COMMERCE CITY", "state": "CO", "zip": "80022", "lat": 39.8892000000001, "lon": -104.7946, "charter": true, "level": "", "enrollment": 770, "teachers_fte": 17.3299999237061}, {"ncessch": "080258006326", "school_name": "West Ridge Elementary", "city": "THORNTON", "state": "CO", "zip": "80602", "lat": 39.934710001, "lon": -104.911381001, "charter": false, "level": "", "enrollment": 827, "teachers_fte": 40.6500015258789}, {"ncessch": "080258006343", "school_name": "Prairie Vista Youth Service Center", "city": "BRIGHTON", "state": "CO", "zip": "80603", "lat": 39.9820950000001, "lon": -104.734799, "charter": false, "level": "", "enrollment": 26, "teachers_fte": 5.5}, {"ncessch": "080258006362", "school_name": "Prairie View Middle School", "city": "HENDERSON", "state": "CO", "zip": "80640", "lat": 39.91524, "lon": -104.8336, "charter": false, "level": "", "enrollment": 658, "teachers_fte": 33.189998626709}, {"ncessch": "080258006377", "school_name": "SD 27J Preschool at the Brighton LRC", "city": "BRIGHTON", "state": "CO", "zip": "80601", "lat": 39.9831740000001, "lon": -104.800511, "charter": false, "level": "", "enrollment": 106, "teachers_fte": 7.0}, {"ncessch": "080258006401", "school_name": "Turnberry Elementary", "city": "COMMERCE CITY", "state": "CO", "zip": "80022", "lat": 39.8910000000001, "lon": -104.8341, "charter": false, "level": "", "enrollment": 762, "teachers_fte": 38.3800010681152}, {"ncessch": "080258006420", "school_name": "Otho E Stuart Middle School", "city": "COMMERCE CITY", "state": "CO", "zip": "80022", "lat": 39.881559, "lon": -104.801335001, "charter": false, "level": "", "enrollment": 791, "teachers_fte": 40.2700004577637}, {"ncessch": "080258006465", "school_name": "Foundations Academy", "city": "BRIGHTON", "state": "CO", "zip": "80601", "lat": 39.9827000010001, "lon": -104.7602, "charter": true, "level": "", "enrollment": 767, "teachers_fte": 43.0900001525879}, {"ncessch": "080258006474", "school_name": "Eagle Ridge Academy", "city": "BRIGHTON", "state": "CO", "zip": "80601", "lat": 39.980987, "lon": -104.781551, "charter": true, "level": "", "enrollment": 510, "teachers_fte": 33.2599983215332}, {"ncessch": "080258006488", "school_name": "Colorado Connections Academy", "city": "ENGLEWOOD", "state": "CO", "zip": "80112", "lat": 39.5673350000001, "lon": -104.862683, "charter": false, "level": "", "enrollment": 1728, "teachers_fte": 79.870002746582}, {"ncessch": "080258006549", "school_name": "Brantner Elementary School", "city": "THORNTON", "state": "CO", "zip": "80602", "lat": 39.9375020000001, "lon": -104.897042, "charter": false, "level": "", "enrollment": 682, "teachers_fte": 36.939998626709}, {"ncessch": "080258006718", "school_name": "Reunion Elementary School", "city": "COMMERCE CITY", "state": "CO", "zip": "80022", "lat": 39.897188, "lon": -104.785684, "charter": false, "level": "", "enrollment": 783, "teachers_fte": 36.0}, {"ncessch": "080258006738", "school_name": "Riverdale Ridge High School", "city": "THORNTON", "state": "CO", "zip": "80602", "lat": 39.9404480000001, "lon": -104.882107, "charter": false, "level": "", "enrollment": 1463, "teachers_fte": 60.3600006103516}, {"ncessch": "080258006753", "school_name": "Rodger Quist Middle School", "city": "THORNTON", "state": "CO", "zip": "80602", "lat": 39.9411410000001, "lon": -104.885078, "charter": false, "level": "", "enrollment": 923, "teachers_fte": 45.4000015258789}, {"ncessch": "080258006813", "school_name": "Elaine S. Padilla Elementary School", "city": "BRIGHTON", "state": "CO", "zip": "80601", "lat": 39.9933290000001, "lon": -104.742998, "charter": false, "level": "", "enrollment": 532, "teachers_fte": 28.0}, {"ncessch": "080258006832", "school_name": "The STEAD School", "city": "COMMERCE CITY", "state": "CO", "zip": "80022", "lat": 39.890547999, "lon": -104.775719, "charter": true, "level": "", "enrollment": 257, "teachers_fte": 14.210000038147}, {"ncessch": "080258006836", "school_name": "27J Online Academy", "city": "BRIGHTON", "state": "CO", "zip": "80601", "lat": 39.988300001, "lon": -104.8165, "charter": false, "level": "", "enrollment": 297, "teachers_fte": 21.0}, {"ncessch": "080258006857", "school_name": "Southlawn Elementary School", "city": "COMMERCE CITY", "state": "CO", "zip": "80022", "lat": 39.87938, "lon": -104.777634, "charter": false, "level": "", "enrollment": 440, "teachers_fte": 22.0}], "0802610": [{"ncessch": "080261000153", "school_name": "Brush Middle School", "city": "BRUSH", "state": "CO", "zip": "80723", "lat": 40.259599, "lon": -103.637663, "charter": false, "level": "", "enrollment": 311, "teachers_fte": 22.4599990844727}, {"ncessch": "080261000154", "school_name": "Brush High School", "city": "BRUSH", "state": "CO", "zip": "80723", "lat": 40.259599, "lon": -103.637663, "charter": false, "level": "", "enrollment": 364, "teachers_fte": 24.5400009155273}, {"ncessch": "080261000155", "school_name": "Beaver Valley Elementary School", "city": "BRUSH", "state": "CO", "zip": "80723", "lat": 40.2605, "lon": -103.653199999, "charter": false, "level": "", "enrollment": 301, "teachers_fte": 24.4699993133545}, {"ncessch": "080261000156", "school_name": "Thomson Primary School", "city": "BRUSH", "state": "CO", "zip": "80723", "lat": 40.2585, "lon": -103.632799999, "charter": false, "level": "", "enrollment": 390, "teachers_fte": 25.0}], "0802640": [{"ncessch": "080264000157", "school_name": "Buena Vista High School", "city": "BUENA VISTA", "state": "CO", "zip": "81211", "lat": 38.8364260000001, "lon": -106.126867999, "charter": false, "level": "", "enrollment": 274, "teachers_fte": 22.6000003814697}, {"ncessch": "080264000158", "school_name": "Buena Vista Middle School", "city": "BUENA VISTA", "state": "CO", "zip": "81211", "lat": 38.837073, "lon": -106.127314, "charter": false, "level": "", "enrollment": 222, "teachers_fte": 18.5}, {"ncessch": "080264000159", "school_name": "Avery/Parsons Elementary School", "city": "BUENA VISTA", "state": "CO", "zip": "81211", "lat": 38.844413, "lon": -106.126921, "charter": false, "level": "", "enrollment": 435, "teachers_fte": 27.8700008392334}, {"ncessch": "080264006155", "school_name": "Chaffee County High School", "city": "BUENA VISTA", "state": "CO", "zip": "81211", "lat": 38.843672, "lon": -106.125283, "charter": false, "level": "", "enrollment": 19, "teachers_fte": 1.0}, {"ncessch": "080264006767", "school_name": "The Grove BVSD's Early Learning Program", "city": "BUENA VISTA", "state": "CO", "zip": "81211", "lat": 38.844413, "lon": -106.126921, "charter": false, "level": "", "enrollment": 82, "teachers_fte": 1.37999999523163}], "0802670": [{"ncessch": "080267000160", "school_name": "Burlington Elementary School", "city": "BURLINGTON", "state": "CO", "zip": "80807", "lat": 39.3054000000001, "lon": -102.263299999, "charter": false, "level": "", "enrollment": 326, "teachers_fte": 20.0}, {"ncessch": "080267000161", "school_name": "Burlington Middle School", "city": "BURLINGTON", "state": "CO", "zip": "80807", "lat": 39.3019, "lon": -102.2837, "charter": false, "level": "", "enrollment": 219, "teachers_fte": 14.5}, {"ncessch": "080267000162", "school_name": "Burlington High School", "city": "BURLINGTON", "state": "CO", "zip": "80807", "lat": 39.2966000010001, "lon": -102.272, "charter": false, "level": "", "enrollment": 217, "teachers_fte": 10.3800001144409}], "0802700": [{"ncessch": "080270000163", "school_name": "Byers Elementary School", "city": "BYERS", "state": "CO", "zip": "80103", "lat": 39.707721, "lon": -104.217401, "charter": false, "level": "", "enrollment": 271, "teachers_fte": 18.2600002288818}, {"ncessch": "080270000164", "school_name": "Byers Junior-Senior High School", "city": "BYERS", "state": "CO", "zip": "80103", "lat": 39.707721, "lon": -104.217401, "charter": false, "level": "", "enrollment": 251, "teachers_fte": 17.5100002288818}, {"ncessch": "080270001944", "school_name": "Colorado Virtual Academy High School", "city": "LAKEWOOD", "state": "CO", "zip": "80228", "lat": 39.7131170010001, "lon": -105.134583, "charter": true, "level": "", "enrollment": 525, "teachers_fte": 10.2299995422363}, {"ncessch": "080270006548", "school_name": "Astravo Online Academy High School", "city": "LAKEWOOD", "state": "CO", "zip": "80228", "lat": 39.7131170010001, "lon": -105.134583, "charter": true, "level": "", "enrollment": 2134, "teachers_fte": 41.8400001525879}, {"ncessch": "080270006605", "school_name": "Colorado Online High School", "city": "LAKEWOOD", "state": "CO", "zip": "80228", "lat": 39.7131170010001, "lon": -105.134583, "charter": true, "level": "", "enrollment": 322, "teachers_fte": 4.71000003814697}, {"ncessch": "080270006620", "school_name": "Colorado Virtual Academy Middle School", "city": "LAKEWOOD", "state": "CO", "zip": "80228", "lat": 39.7131170010001, "lon": -105.134583, "charter": true, "level": "", "enrollment": 133, "teachers_fte": 2.69000005722046}, {"ncessch": "080270006630", "school_name": "Colorado Virtual Academy", "city": "LAKEWOOD", "state": "CO", "zip": "80228", "lat": 39.7131170010001, "lon": -105.134583, "charter": true, "level": "", "enrollment": 264, "teachers_fte": 5.44000005722046}, {"ncessch": "080270006749", "school_name": "Astravo Online Academy Elementary School", "city": "LAKEWOOD", "state": "CO", "zip": "80228", "lat": 39.7131170010001, "lon": -105.134583, "charter": true, "level": "", "enrollment": 573, "teachers_fte": 12.789999961853}, {"ncessch": "080270006755", "school_name": "Astravo Online Academy Middle School", "city": "LAKEWOOD", "state": "CO", "zip": "80228", "lat": 39.7131170010001, "lon": -105.134583, "charter": true, "level": "", "enrollment": 827, "teachers_fte": 18.0699996948242}, {"ncessch": "080270006759", "school_name": "Colorado Online Middle School", "city": "LAKEWOOD", "state": "CO", "zip": "80228", "lat": 39.7131170010001, "lon": -105.134583, "charter": true, "level": "", "enrollment": 371, "teachers_fte": 4.01000022888184}], "0802730": [{"ncessch": "080273000167", "school_name": "Calhan Elementary School", "city": "CALHAN", "state": "CO", "zip": "80808", "lat": 39.0331170000001, "lon": -104.295258, "charter": false, "level": "", "enrollment": 201, "teachers_fte": 13.0900001525879}, {"ncessch": "080273000168", "school_name": "Calhan Secondary School", "city": "CALHAN", "state": "CO", "zip": "80808", "lat": 39.0331170000001, "lon": -104.295258, "charter": false, "level": "", "enrollment": 223, "teachers_fte": 20.8400001525879}], "0802760": [{"ncessch": "080276000169", "school_name": "Campo Elementary School", "city": "CAMPO", "state": "CO", "zip": "81029", "lat": 37.10466, "lon": -102.57623, "charter": false, "level": "", "enrollment": 19, "teachers_fte": 2.5}, {"ncessch": "080276000170", "school_name": "Campo Undivided High School", "city": "CAMPO", "state": "CO", "zip": "81029", "lat": 37.10466, "lon": -102.57623, "charter": false, "level": "", "enrollment": 14, "teachers_fte": 2.55999994277954}], "0802790": [{"ncessch": "080279000171", "school_name": "Canon City Middle School", "city": "CANON CITY", "state": "CO", "zip": "81212", "lat": 38.4454759990001, "lon": -105.231325001, "charter": false, "level": "", "enrollment": 368, "teachers_fte": 19.4699993133545}, {"ncessch": "080279000172", "school_name": "Canon City High School", "city": "CANON CITY", "state": "CO", "zip": "81212", "lat": 38.4509, "lon": -105.2335, "charter": false, "level": "", "enrollment": 993, "teachers_fte": 57.5999984741211}, {"ncessch": "080279000173", "school_name": "Harrison School", "city": "CANON CITY", "state": "CO", "zip": "81212", "lat": 38.4666780000001, "lon": -105.20645, "charter": false, "level": "", "enrollment": 555, "teachers_fte": 41.5099983215332}, {"ncessch": "080279000174", "school_name": "Lincoln School of Science and Technology", "city": "CANON CITY", "state": "CO", "zip": "81212", "lat": 38.4325000010001, "lon": -105.2385, "charter": false, "level": "", "enrollment": 254, "teachers_fte": 20.0}, {"ncessch": "080279000175", "school_name": "McKinley Elementary School", "city": "CANON CITY", "state": "CO", "zip": "81212", "lat": 38.4312, "lon": -105.214, "charter": false, "level": "", "enrollment": 247, "teachers_fte": 21.3400001525879}, {"ncessch": "080279000176", "school_name": "Washington Elementary School", "city": "CANON CITY", "state": "CO", "zip": "81212", "lat": 38.4482, "lon": -105.2384, "charter": false, "level": "", "enrollment": 299, "teachers_fte": 21.3099994659424}, {"ncessch": "080279001433", "school_name": "Canon Exploratory School", "city": "CANON CITY", "state": "CO", "zip": "81212", "lat": 38.4678000010001, "lon": -105.24, "charter": false, "level": "", "enrollment": 336, "teachers_fte": 21.2000007629395}, {"ncessch": "080279001538", "school_name": "Mount View Core Knowledge Charter School", "city": "CANON CITY", "state": "CO", "zip": "81212", "lat": 38.4644000000001, "lon": -105.2072, "charter": true, "level": "", "enrollment": 253, "teachers_fte": 14.3800001144409}], "0802850": [{"ncessch": "080285000177", "school_name": "Haskin Elementary School", "city": "CENTER", "state": "CO", "zip": "81125", "lat": 37.751336, "lon": -106.114091, "charter": false, "level": "", "enrollment": 278, "teachers_fte": 20.8299999237061}, {"ncessch": "080285000178", "school_name": "Skoglund Middle School", "city": "CENTER", "state": "CO", "zip": "81125", "lat": 37.751336, "lon": -106.114091, "charter": false, "level": "", "enrollment": 142, "teachers_fte": 9.89999961853027}, {"ncessch": "080285000179", "school_name": "Center High School", "city": "CENTER", "state": "CO", "zip": "81125", "lat": 37.751336, "lon": -106.114091, "charter": false, "level": "", "enrollment": 162, "teachers_fte": 12.9099998474121}, {"ncessch": "080285002008", "school_name": "The Academic Recovery Center of San Luis Valley", "city": "CENTER", "state": "CO", "zip": "81125", "lat": 37.751336, "lon": -106.114091, "charter": false, "level": "", "enrollment": 6, "teachers_fte": 0.259999990463257}, {"ncessch": "080285006513", "school_name": "Center Virtual Academy", "city": "CENTER", "state": "CO", "zip": "81125", "lat": 37.751336, "lon": -106.114091, "charter": false, "level": "", "enrollment": 19, "teachers_fte": 0.259999990463257}], "0802880": [{"ncessch": "080288000182", "school_name": "Cheraw School", "city": "CHERAW", "state": "CO", "zip": "81030", "lat": 38.109739, "lon": -103.509744999, "charter": false, "level": "", "enrollment": 227, "teachers_fte": 19.1200008392334}], "0802910": [{"ncessch": "080291000034", "school_name": "Thunder Ridge Middle School", "city": "AURORA", "state": "CO", "zip": "80015", "lat": 39.621400001, "lon": -104.736862001, "charter": false, "level": "", "enrollment": 1152, "teachers_fte": 68.1100006103516}, {"ncessch": "080291000183", "school_name": "Arrowhead Elementary School", "city": "AURORA", "state": "CO", "zip": "80013", "lat": 39.6642000000001, "lon": -104.766, "charter": false, "level": "", "enrollment": 516, "teachers_fte": 27.7299995422363}, {"ncessch": "080291000184", "school_name": "Belleview Elementary School", "city": "GREENWOOD VILLAGE", "state": "CO", "zip": "80111", "lat": 39.628400001, "lon": -104.877099999, "charter": false, "level": "", "enrollment": 524, "teachers_fte": 34.75}, {"ncessch": "080291000185", "school_name": "Campus Middle School", "city": "GREENWOOD VILLAGE", "state": "CO", "zip": "80111", "lat": 39.6294999990001, "lon": -104.8775, "charter": false, "level": "", "enrollment": 1331, "teachers_fte": 75.7699966430664}, {"ncessch": "080291000186", "school_name": "Cherry Creek High School", "city": "GREENWOOD VILLAGE", "state": "CO", "zip": "80111", "lat": 39.6299000010001, "lon": -104.8816, "charter": false, "level": "", "enrollment": 3797, "teachers_fte": 189.630004882812}, {"ncessch": "080291000187", "school_name": "Cherry Hills Village Elementary School", "city": "CHERRY HILLS VILLAGE", "state": "CO", "zip": "80110", "lat": 39.6392000000001, "lon": -104.9589, "charter": false, "level": "", "enrollment": 477, "teachers_fte": 31.8299999237061}, {"ncessch": "080291000188", "school_name": "Cottonwood Creek Elementary School", "city": "ENGLEWOOD", "state": "CO", "zip": "80111", "lat": 39.6088, "lon": -104.8591, "charter": false, "level": "", "enrollment": 544, "teachers_fte": 37.0200004577637}, {"ncessch": "080291000190", "school_name": "Dry Creek Elementary School", "city": "ENGLEWOOD", "state": "CO", "zip": "80112", "lat": 39.5815000010001, "lon": -104.8998, "charter": false, "level": "", "enrollment": 310, "teachers_fte": 20.0}, {"ncessch": "080291000191", "school_name": "Eastridge Community Elementary School", "city": "AURORA", "state": "CO", "zip": "80014", "lat": 39.6729540000001, "lon": -104.851314, "charter": false, "level": "", "enrollment": 697, "teachers_fte": 40.1800003051758}, {"ncessch": "080291000192", "school_name": "Greenwood Elementary School", "city": "GREENWOOD VILLAGE", "state": "CO", "zip": "80111", "lat": 39.616099999, "lon": -104.9213, "charter": false, "level": "", "enrollment": 358, "teachers_fte": 26.1200008392334}, {"ncessch": "080291000193", "school_name": "Heritage Elementary School", "city": "CENTENNIAL", "state": "CO", "zip": "80111", "lat": 39.5971000000001, "lon": -104.9106, "charter": false, "level": "", "enrollment": 269, "teachers_fte": 22.9200000762939}, {"ncessch": "080291000194", "school_name": "Holly Hills Elementary School", "city": "DENVER", "state": "CO", "zip": "80222", "lat": 39.6636999990001, "lon": -104.9168, "charter": false, "level": "", "enrollment": 504, "teachers_fte": 36.75}, {"ncessch": "080291000195", "school_name": "Homestead Elementary School", "city": "CENTENNIAL", "state": "CO", "zip": "80112", "lat": 39.5820000000001, "lon": -104.9101, "charter": false, "level": "", "enrollment": 365, "teachers_fte": 24.7199993133545}, {"ncessch": "080291000196", "school_name": "Independence Elementary School", "city": "AURORA", "state": "CO", "zip": "80015", "lat": 39.6319, "lon": -104.7979, "charter": false, "level": "", "enrollment": 432, "teachers_fte": 30.0100002288818}, {"ncessch": "080291000197", "school_name": "Laredo Middle School", "city": "AURORA", "state": "CO", "zip": "80015", "lat": 39.625300001, "lon": -104.8031, "charter": false, "level": "", "enrollment": 920, "teachers_fte": 54.7999992370605}, {"ncessch": "080291000198", "school_name": "Mission Viejo Elementary School", "city": "AURORA", "state": "CO", "zip": "80013", "lat": 39.6468, "lon": -104.805, "charter": false, "level": "", "enrollment": 540, "teachers_fte": 30.9400005340576}, {"ncessch": "080291000199", "school_name": "Polton Community Elementary School", "city": "AURORA", "state": "CO", "zip": "80014", "lat": 39.6639000000001, "lon": -104.8516, "charter": false, "level": "", "enrollment": 477, "teachers_fte": 31.9500007629395}, {"ncessch": "080291000200", "school_name": "Ponderosa Elementary School", "city": "AURORA", "state": "CO", "zip": "80012", "lat": 39.6831000010001, "lon": -104.8578, "charter": false, "level": "", "enrollment": 517, "teachers_fte": 36.8300018310547}, {"ncessch": "080291000201", "school_name": "Prairie Middle School", "city": "AURORA", "state": "CO", "zip": "80012", "lat": 39.6815000010001, "lon": -104.840300001, "charter": false, "level": "", "enrollment": 1383, "teachers_fte": 91.870002746582}, {"ncessch": "080291000202", "school_name": "Sagebrush Elementary School", "city": "AURORA", "state": "CO", "zip": "80015", "lat": 39.6320000000001, "lon": -104.818200001, "charter": false, "level": "", "enrollment": 417, "teachers_fte": 29.6299991607666}, {"ncessch": "080291000203", "school_name": "Smoky Hill High School", "city": "AURORA", "state": "CO", "zip": "80015", "lat": 39.627799999, "lon": -104.7996, "charter": false, "level": "", "enrollment": 2252, "teachers_fte": 118.370002746582}, {"ncessch": "080291000204", "school_name": "Village East Community Elementary School", "city": "AURORA", "state": "CO", "zip": "80012", "lat": 39.6908, "lon": -104.8525, "charter": false, "level": "", "enrollment": 689, "teachers_fte": 47.6300010681152}, {"ncessch": "080291000206", "school_name": "Walnut Hills Community Elementary School", "city": "CENTENNIAL", "state": "CO", "zip": "80112", "lat": 39.5901000000001, "lon": -104.8962, "charter": false, "level": "", "enrollment": 372, "teachers_fte": 20.9099998474121}, {"ncessch": "080291000207", "school_name": "West Middle School", "city": "GREENWOOD VILLAGE", "state": "CO", "zip": "80121", "lat": 39.623299999, "lon": -104.9242, "charter": false, "level": "", "enrollment": 1062, "teachers_fte": 59.5299987792969}, {"ncessch": "080291000208", "school_name": "Willow Creek Elementary School", "city": "CENTENNIAL", "state": "CO", "zip": "80112", "lat": 39.5740000000001, "lon": -104.8887, "charter": false, "level": "", "enrollment": 494, "teachers_fte": 30.3400001525879}, {"ncessch": "080291000763", "school_name": "Challenge School", "city": "DENVER", "state": "CO", "zip": "80231", "lat": 39.6977000000001, "lon": -104.8766, "charter": false, "level": "", "enrollment": 550, "teachers_fte": 30.0}, {"ncessch": "080291001152", "school_name": "Cherry Creek Charter Academy", "city": "GREENWOOD VILLAGE", "state": "CO", "zip": "80111", "lat": 39.6028000000001, "lon": -104.8753, "charter": true, "level": "", "enrollment": 594, "teachers_fte": 36.5900001525879}, {"ncessch": "080291001272", "school_name": "Overland High School", "city": "AURORA", "state": "CO", "zip": "80012", "lat": 39.6806, "lon": -104.8431, "charter": false, "level": "", "enrollment": 2109, "teachers_fte": 121.610000610352}, {"ncessch": "080291001273", "school_name": "High Plains Elementary School", "city": "GREENWOOD VILLAGE", "state": "CO", "zip": "80111", "lat": 39.605899999, "lon": -104.8704, "charter": false, "level": "", "enrollment": 459, "teachers_fte": 31.0300006866455}, {"ncessch": "080291001297", "school_name": "Cimarron Elementary School", "city": "AURORA", "state": "CO", "zip": "80013", "lat": 39.648899999, "lon": -104.7846, "charter": false, "level": "", "enrollment": 372, "teachers_fte": 30.1000003814697}, {"ncessch": "080291001328", "school_name": "Horizon Middle School", "city": "AURORA", "state": "CO", "zip": "80013", "lat": 39.6433000000001, "lon": -104.771499999, "charter": false, "level": "", "enrollment": 812, "teachers_fte": 48.1199989318848}, {"ncessch": "080291001329", "school_name": "Meadow Point Elementary School", "city": "AURORA", "state": "CO", "zip": "80015", "lat": 39.6265000000001, "lon": -104.7796, "charter": false, "level": "", "enrollment": 400, "teachers_fte": 28.9599990844727}, {"ncessch": "080291001330", "school_name": "Trails West Elementary School", "city": "CENTENNIAL", "state": "CO", "zip": "80015", "lat": 39.6186000000001, "lon": -104.7796, "charter": false, "level": "", "enrollment": 436, "teachers_fte": 27.5300006866455}, {"ncessch": "080291001378", "school_name": "Sunrise Elementary School", "city": "AURORA", "state": "CO", "zip": "80013", "lat": 39.6437000000001, "lon": -104.7573, "charter": false, "level": "", "enrollment": 494, "teachers_fte": 30.5200004577637}, {"ncessch": "080291001390", "school_name": "Indian Ridge Elementary School", "city": "AURORA", "state": "CO", "zip": "80015", "lat": 39.6215, "lon": -104.7968, "charter": false, "level": "", "enrollment": 460, "teachers_fte": 26.0200004577637}, {"ncessch": "080291001404", "school_name": "Creekside Elementary School", "city": "CENTENNIAL", "state": "CO", "zip": "80016", "lat": 39.5790000000001, "lon": -104.757, "charter": false, "level": "", "enrollment": 570, "teachers_fte": 32.7299995422363},