[{"leaid":"2601103","lea_name":"Detroit Public Schools Community District","fips":26,"city_mailing":"DETROIT","state_mailing":"MI","zip_mailing":"48202","latitude":42.36924,"longitude":-83.076781,"enrollment":48548,"teachers_total_fte":3019.36,"number_of_schools":107,"agency_type":1,"lowest_grade_offered":-1,"highest_grade_offered":12,"county_name":"Wayne County","phone":"(313)873-7922"},{"leaid":"2634470","lea_name":"Utica Community Schools","fips":26,"city_mailing":"STERLING HEIGHTS","state_mailing":"MI","zip_mailing":"48312","latitude":42.56372,"longitude":-83.014801,"enrollment":25744,"teachers_total_fte":1414.92,"number_of_schools":38,"agency_type":1,"lowest_grade_offered":-1,"highest_grade_offered":12,"county_name":"Macomb County","phone":"(586)797-1000"},{"leaid":"2611600","lea_name":"Dearborn City School District","fips":26,"city_mailing":"DEARBORN","state_mailing":"MI","zip_mailing":"48124","latitude":42.28302,"longitude":-83.225891,"enrollment":20128,"teachers_total_fte":1269.64,"number_of_schools":37,"agency_type":1,"lowest_grade_offered":-1,"highest_grade_offered":12,"county_name":"Wayne County","phone":"(313)827-3022"},{"leaid":"2602820","lea_name":"Ann Arbor Public Schools","fips":26,"city_mailing":"ANN ARBOR","state_mailing":"MI","zip_mailing":"48104","latitude":42.25053,"longitude":-83.737071,"enrollment":17026,"teachers_total_fte":1232.98,"number_of_schools":32,"agency_type":1,"lowest_grade_offered":-1,"highest_grade_offered":12,"county_name":"Washtenaw County","phone":"(734)994-2230"},{"leaid":"2628560","lea_name":"Plymouth-Canton Community Schools","fips":26,"city_mailing":"PLYMOUTH","state_mailing":"MI","zip_mailing":"48170","latitude":42.36955,"longitude":-83.472421,"enrollment":16294,"teachers_total_fte":920.55,"number_of_schools":25,"agency_type":1,"lowest_grade_offered":-1,"highest_grade_offered":12,"county_name":"Wayne County","phone":"(734)416-2700"},{"leaid":"2629940","lea_name":"Rochester Community School District","fips":26,"city_mailing":"ROCHESTER","state_mailing":"MI","zip_mailing":"48307","latitude":42.68126,"longitude":-83.139771,"enrollment":15017,"teachers_total_fte":755.97,"number_of_schools":22,"agency_type":1,"lowest_grade_offered":-1,"highest_grade_offered":12,"county_name":"Oakland County","phone":"(248)726-3000"},{"leaid":"2609570","lea_name":"Chippewa Valley Schools","fips":26,"city_mailing":"CLINTON TOWNSHIP","state_mailing":"MI","zip_mailing":"48038","latitude":42.609226,"longitude":-82.927957,"enrollment":14703,"teachers_total_fte":733.54,"number_of_schools":20,"agency_type":1,"lowest_grade_offered":-1,"highest_grade_offered":12,"county_name":"Macomb County","phone":"(586)723-2004"},{"leaid":"2616440","lea_name":"Grand Rapids Public Schools","fips":26,"city_mailing":"GRAND RAPIDS","state_mailing":"MI","zip_mailing":"49506","latitude":42.949029,"longitude":-85.635762,"enrollment":13787,"teachers_total_fte":795.97,"number_of_schools":51,"agency_type":1,"lowest_grade_offered":-1,"highest_grade_offered":12,"county_name":"Kent County","phone":"(616)819-2000"},{"leaid":"2621840","lea_name":"Livonia Public Schools","fips":26,"city_mailing":"LIVONIA","state_mailing":"MI","zip_mailing":"48154","latitude":42.39478,"longitude":-83.375731,"enrollment":13228,"teachers_total_fte":834.35,"number_of_schools":26,"agency_type":1,"lowest_grade_offered":-1,"highest_grade_offered":12,"county_name":"Wayne County","phone":"(734)744-2525"},{"leaid":"2635190","lea_name":"Warren Consolidated Schools","fips":26,"city_mailing":"WARREN","state_mailing":"MI","zip_mailing":"48093","latitude":42.52384,"longitude":-83.014201,"enrollment":12660,"teachers_total_fte":694.75,"number_of_schools":23,"agency_type":1,"lowest_grade_offered":-1,"highest_grade_offered":12,"county_name":"Macomb County","phone":"(586)825-2400"},{"leaid":"2634260","lea_name":"Troy School District","fips":26,"city_mailing":"TROY","state_mailing":"MI","zip_mailing":"48098","latitude":42.58302,"longitude":-83.143471,"enrollment":12461,"teachers_total_fte":760.54,"number_of_schools":21,"agency_type":1,"lowest_grade_offered":-1,"highest_grade_offered":12,"county_name":"Oakland County","phone":"(248)823-4000"},{"leaid":"2619950","lea_name":"Kalamazoo Public School District","fips":26,"city_mailing":"KALAMAZOO","state_mailing":"MI","zip_mailing":"49008","latitude":42.27436,"longitude":-85.600831,"enrollment":12298,"teachers_total_fte":670.57,"number_of_schools":31,"agency_type":1,"lowest_grade_offered":-1,"highest_grade_offered":12,"county_name":"Kalamazoo County","phone":"(269)337-0100"},{"leaid":"2635160","lea_name":"Walled Lake Consolidated Schools","fips":26,"city_mailing":"WALLED LAKE","state_mailing":"MI","zip_mailing":"48390","latitude":42.53504,"longitude":-83.491571,"enrollment":12102,"teachers_total_fte":702.63,"number_of_schools":20,"agency_type":1,"lowest_grade_offered":-1,"highest_grade_offered":12,"county_name":"Oakland County","phone":"(248)956-2000"},{"leaid":"2621150","lea_name":"Lansing Public School District","fips":26,"city_mailing":"LANSING","state_mailing":"MI","zip_mailing":"48933","latitude":42.72933,"longitude":-84.559331,"enrollment":10023,"teachers_total_fte":587.89,"number_of_schools":28,"agency_type":1,"lowest_grade_offered":-1,"highest_grade_offered":12,"county_name":"Ingham County","phone":"(517)755-1010"},{"leaid":"2600015","lea_name":"Wayne-Westland Community School District","fips":26,"city_mailing":"WESTLAND","state_mailing":"MI","zip_mailing":"48185","latitude":42.315842,"longitude":-83.402007,"enrollment":9773,"teachers_total_fte":625.37,"number_of_schools":16,"agency_type":1,"lowest_grade_offered":-1,"highest_grade_offered":12,"county_name":"Wayne County","phone":"(734)419-2000"},{"leaid":"2621870","lea_name":"L'Anse Creuse Public Schools","fips":26,"city_mailing":"Clinton Township","state_mailing":"MI","zip_mailing":"48036","latitude":42.620846,"longitude":-82.864154,"enrollment":9414,"teachers_total_fte":543.76,"number_of_schools":19,"agency_type":1,"lowest_grade_offered":-1,"highest_grade_offered":12,"county_name":"Macomb County","phone":"(586)783-6300"},{"leaid":"2620340","lea_name":"Kentwood Public Schools","fips":26,"city_mailing":"GRAND RAPIDS","state_mailing":"MI","zip_mailing":"49508","latitude":42.8579,"longitude":-85.6447,"enrollment":9357,"teachers_total_fte":552.46,"number_of_schools":16,"agency_type":1,"lowest_grade_offered":-1,"highest_grade_offered":12,"county_name":"Kent County","phone":"(616)455-4400"},{"leaid":"2614610","lea_name":"Forest Hills Public Schools","fips":26,"city_mailing":"GRAND RAPIDS","state_mailing":"MI","zip_mailing":"49546","latitude":42.920847,"longitude":-85.506141,"enrollment":9201,"teachers_total_fte":509.84,"number_of_schools":18,"agency_type":1,"lowest_grade_offered":-1,"highest_grade_offered":12,"county_name":"Kent County","phone":"(616)493-8800"},{"leaid":"2614070","lea_name":"Farmington Public School District","fips":26,"city_mailing":"FARMINGTON","state_mailing":"MI","zip_mailing":"48336","latitude":42.46942,"longitude":-83.369391,"enrollment":9041,"teachers_total_fte":626.95,"number_of_schools":16,"agency_type":1,"lowest_grade_offered":-1,"highest_grade_offered":12,"county_name":"Oakland County","phone":"(248)489-3340"},{"leaid":"2633870","lea_name":"Traverse City Area Public Schools","fips":26,"city_mailing":"TRAVERSE CITY","state_mailing":"MI","zip_mailing":"49686","latitude":44.76025,"longitude":-85.615121,"enrollment":8712,"teachers_total_fte":449.86,"number_of_schools":16,"agency_type":1,"lowest_grade_offered":-1,"highest_grade_offered":12,"county_name":"Grand Traverse County","phone":"(231)933-1700"},{"leaid":"2628950","lea_name":"Portage Public Schools","fips":26,"city_mailing":"PORTAGE","state_mailing":"MI","zip_mailing":"49002","latitude":42.19889,"longitude":-85.585481,"enrollment":8616,"teachers_total_fte":487.66,"number_of_schools":14,"agency_type":1,"lowest_grade_offered":-1,"highest_grade_offered":12,"county_name":"Kalamazoo County","phone":"(269)323-5000"},{"leaid":"2632250","lea_name":"South Lyon Community Schools","fips":26,"city_mailing":"SOUTH LYON","state_mailing":"MI","zip_mailing":"48178","latitude":42.458772,"longitude":-83.654096,"enrollment":8470,"teachers_total_fte":484.36,"number_of_schools":13,"agency_type":1,"lowest_grade_offered":-1,"highest_grade_offered":12,"county_name":"Oakland County","phone":"(248)573-8100"},{"leaid":"2618990","lea_name":"Huron Valley Schools","fips":26,"city_mailing":"HIGHLAND","state_mailing":"MI","zip_mailing":"48357","latitude":42.61695,"longitude":-83.619351,"enrollment":7970,"teachers_total_fte":486.77,"number_of_schools":17,"agency_type":1,"lowest_grade_offered":-1,"highest_grade_offered":12,"county_name":"Oakland County","phone":"(248)684-8234"},{"leaid":"2616350","lea_name":"Grand Blanc Community Schools","fips":26,"city_mailing":"GRAND BLANC","state_mailing":"MI","zip_mailing":"48439","latitude":42.923754,"longitude":-83.626014,"enrollment":7801,"teachers_total_fte":437.28,"number_of_schools":13,"agency_type":1,"lowest_grade_offered":-1,"highest_grade_offered":12,"county_name":"Genesee County","phone":"(810)591-6000"},{"leaid":"2630030","lea_name":"Rockford Public Schools","fips":26,"city_mailing":"ROCKFORD","state_mailing":"MI","zip_mailing":"49341","latitude":43.1273,"longitude":-85.55745,"enrollment":7719,"teachers_total_fte":536.7,"number_of_schools":14,"agency_type":1,"lowest_grade_offered":-1,"highest_grade_offered":12,"county_name":"Kent County","phone":"(616)863-6557"},{"leaid":"2609900","lea_name":"Clarkston Community School District","fips":26,"city_mailing":"CLARKSTON","state_mailing":"MI","zip_mailing":"48346","latitude":42.73825,"longitude":-83.406631,"enrollment":7626,"teachers_total_fte":490.86,"number_of_schools":13,"agency_type":1,"lowest_grade_offered":-1,"highest_grade_offered":12,"county_name":"Oakland County","phone":"(248)623-5408"},{"leaid":"2623820","lea_name":"Midland Public Schools","fips":26,"city_mailing":"MIDLAND","state_mailing":"MI","zip_mailing":"48640","latitude":43.61464,"longitude":-84.233771,"enrollment":7436,"teachers_total_fte":430.54,"number_of_schools":13,"agency_type":1,"lowest_grade_offered":-1,"highest_grade_offered":12,"county_name":"Midland County","phone":"(989)923-5001"},{"leaid":"2605850","lea_name":"Birmingham City School District","fips":26,"city_mailing":"Beverly Hills","state_mailing":"MI","zip_mailing":"48025","latitude":42.517637,"longitude":-83.243283,"enrollment":7314,"teachers_total_fte":503.2,"number_of_schools":13,"agency_type":1,"lowest_grade_offered":-1,"highest_grade_offered":12,"county_name":"Oakland County","phone":"(248)203-3004"},{"leaid":"2628830","lea_name":"Port Huron Area School District","fips":26,"city_mailing":"PORT HURON","state_mailing":"MI","zip_mailing":"48060","latitude":43.002352,"longitude":-82.450559,"enrollment":7257,"teachers_total_fte":447.39,"number_of_schools":17,"agency_type":1,"lowest_grade_offered":-1,"highest_grade_offered":12,"county_name":"St. Clair County","phone":"(810)984-3101"},{"leaid":"2625980","lea_name":"Northville Public Schools","fips":26,"city_mailing":"NORTHVILLE","state_mailing":"MI","zip_mailing":"48167","latitude":42.430602,"longitude":-83.487127,"enrollment":7115,"teachers_total_fte":384.77,"number_of_schools":10,"agency_type":1,"lowest_grade_offered":-1,"highest_grade_offered":12,"county_name":"Wayne County","phone":"(248)344-3508"},{"leaid":"2635310","lea_name":"Waterford School District","fips":26,"city_mailing":"WATERFORD","state_mailing":"MI","zip_mailing":"48328","latitude":42.646077,"longitude":-83.356604,"enrollment":7058,"teachers_total_fte":433.51,"number_of_schools":17,"agency_type":1,"lowest_grade_offered":-1,"highest_grade_offered":12,"county_name":"Oakland County","phone":"(248)706-4860"},{"leaid":"2618720","lea_name":"Howell Public Schools","fips":26,"city_mailing":"HOWELL","state_mailing":"MI","zip_mailing":"48843","latitude":42.615225,"longitude":-83.95142,"enrollment":6871,"teachers_total_fte":375.99,"number_of_schools":10,"agency_type":1,"lowest_grade_offered":-1,"highest_grade_offered":12,"county_name":"Livingston County","phone":"(517)548-6234"},{"leaid":"2620730","lea_name":"Lake Orion Community Schools","fips":26,"city_mailing":"LAKE ORION","state_mailing":"MI","zip_mailing":"48362","latitude":42.78741,"longitude":-83.241691,"enrollment":6831,"teachers_total_fte":446.11,"number_of_schools":13,"agency_type":1,"lowest_grade_offered":-1,"highest_grade_offered":12,"county_name":"Oakland County","phone":"(248)693-5404"},{"leaid":"2618840","lea_name":"Hudsonville Public School District","fips":26,"city_mailing":"HUDSONVILLE","state_mailing":"MI","zip_mailing":"49426","latitude":42.870551,"longitude":-85.878414,"enrollment":6806,"teachers_total_fte":415.08,"number_of_schools":13,"agency_type":1,"lowest_grade_offered":-1,"highest_grade_offered":12,"county_name":"Ottawa County","phone":"(616)669-1740"},{"leaid":"2626130","lea_name":"Novi Community School District","fips":26,"city_mailing":"NOVI","state_mailing":"MI","zip_mailing":"48374","latitude":42.475687,"longitude":-83.496794,"enrollment":6655,"teachers_total_fte":413.78,"number_of_schools":10,"agency_type":1,"lowest_grade_offered":-1,"highest_grade_offered":12,"county_name":"Oakland County","phone":"(248)449-1234"},{"leaid":"2635910","lea_name":"West Ottawa Public School District","fips":26,"city_mailing":"HOLLAND","state_mailing":"MI","zip_mailing":"49424","latitude":42.83125,"longitude":-86.117891,"enrollment":6590,"teachers_total_fte":424.66,"number_of_schools":13,"agency_type":1,"lowest_grade_offered":-1,"highest_grade_offered":12,"county_name":"Ottawa County","phone":"(616)786-2099"},{"leaid":"2625740","lea_name":"Grosse Pointe Public Schools","fips":26,"city_mailing":"GROSSE POINTE WOODS","state_mailing":"MI","zip_mailing":"48236","latitude":42.38392,"longitude":-82.911901,"enrollment":6516,"teachers_total_fte":431.44,"number_of_schools":12,"agency_type":1,"lowest_grade_offered":-1,"highest_grade_offered":12,"county_name":"Wayne County","phone":"(313)432-3000"},{"leaid":"2604260","lea_name":"Bay City School District","fips":26,"city_mailing":"BAY CITY","state_mailing":"MI","zip_mailing":"48706","latitude":43.606915,"longitude":-83.910706,"enrollment":6385,"teachers_total_fte":388.65,"number_of_schools":13,"agency_type":1,"lowest_grade_offered":-1,"highest_grade_offered":12,"county_name":"Bay County","phone":"(989)686-9700"},{"leaid":"2636660","lea_name":"Zeeland Public Schools","fips":26,"city_mailing":"ZEELAND","state_mailing":"MI","zip_mailing":"49464","latitude":42.820074,"longitude":-86.028465,"enrollment":6010,"teachers_total_fte":375.89,"number_of_schools":12,"agency_type":1,"lowest_grade_offered":-1,"highest_grade_offered":12,"county_name":"Ottawa County","phone":"(616)748-3000"},{"leaid":"2606870","lea_name":"Brighton Area Schools","fips":26,"city_mailing":"BRIGHTON","state_mailing":"MI","zip_mailing":"48116","latitude":42.528771,"longitude":-83.775801,"enrollment":5804,"teachers_total_fte":336.88,"number_of_schools":9,"agency_type":1,"lowest_grade_offered":-1,"highest_grade_offered":12,"county_name":"Livingston County","phone":"(810)299-4040"},{"leaid":"2627240","lea_name":"Oxford Area Community Schools","fips":26,"city_mailing":"OXFORD","state_mailing":"MI","zip_mailing":"48371","latitude":42.82519,"longitude":-83.264881,"enrollment":5649,"teachers_total_fte":350.25,"number_of_schools":10,"agency_type":1,"lowest_grade_offered":-1,"highest_grade_offered":12,"county_name":"Oakland County","phone":"(248)969-5000"},{"leaid":"2636485","lea_name":"Woodhaven-Brownstown School District","fips":26,"city_mailing":"WOODHAVEN","state_mailing":"MI","zip_mailing":"48183","latitude":42.127275,"longitude":-83.245541,"enrollment":5603,"teachers_total_fte":317.07,"number_of_schools":10,"agency_type":1,"lowest_grade_offered":-1,"highest_grade_offered":12,"county_name":"Wayne County","phone":"(734)789-2357"},{"leaid":"2611430","lea_name":"Davison Community Schools","fips":26,"city_mailing":"DAVISON","state_mailing":"MI","zip_mailing":"48423","latitude":43.03392,"longitude":-83.497531,"enrollment":5582,"teachers_total_fte":348.3,"number_of_schools":9,"agency_type":1,"lowest_grade_offered":-1,"highest_grade_offered":12,"county_name":"Genesee County","phone":"(810)591-0801"},{"leaid":"2616470","lea_name":"Grandville Public Schools","fips":26,"city_mailing":"GRANDVILLE","state_mailing":"MI","zip_mailing":"49418","latitude":42.9064,"longitude":-85.759,"enrollment":5521,"teachers_total_fte":331.36,"number_of_schools":10,"agency_type":1,"lowest_grade_offered":-1,"highest_grade_offered":12,"county_name":"Kent County","phone":"(616)254-6570"},{"leaid":"2602790","lea_name":"Anchor Bay School District","fips":26,"city_mailing":"CASCO","state_mailing":"MI","zip_mailing":"48064","latitude":42.744368,"longitude":-82.729584,"enrollment":5429,"teachers_total_fte":286.22,"number_of_schools":11,"agency_type":1,"lowest_grade_offered":-1,"highest_grade_offered":12,"county_name":"St. Clair County","phone":"(586)725-2861"},{"leaid":"2633540","lea_name":"Taylor School District","fips":26,"city_mailing":"TAYLOR","state_mailing":"MI","zip_mailing":"48180","latitude":42.211678,"longitude":-83.259403,"enrollment":5419,"teachers_total_fte":332.73,"number_of_schools":13,"agency_type":1,"lowest_grade_offered":-1,"highest_grade_offered":12,"county_name":"Wayne County","phone":"(734)374-1200"},{"leaid":"2616380","lea_name":"Grand Haven Area Public Schools","fips":26,"city_mailing":"GRAND HAVEN","state_mailing":"MI","zip_mailing":"49417","latitude":43.04795,"longitude":-86.206811,"enrollment":5411,"teachers_total_fte":343.99,"number_of_schools":13,"agency_type":1,"lowest_grade_offered":-1,"highest_grade_offered":12,"county_name":"Ottawa County","phone":"(616)850-5015"},{"leaid":"2630390","lea_name":"Saginaw City School District","fips":26,"city_mailing":"SAGINAW","state_mailing":"MI","zip_mailing":"48607","latitude":43.42745,"longitude":-83.934981,"enrollment":5286,"teachers_total_fte":330.73,"number_of_schools":16,"agency_type":1,"lowest_grade_offered":-1,"highest_grade_offered":12,"county_name":"Saginaw County","phone":"(989)399-6500"},{"leaid":"2619830","lea_name":"Jenison Public Schools","fips":26,"city_mailing":"Jenison","state_mailing":"MI","zip_mailing":"49428","latitude":42.91889,"longitude":-85.835311,"enrollment":5198,"teachers_total_fte":355.41,"number_of_schools":11,"agency_type":1,"lowest_grade_offered":-1,"highest_grade_offered":12,"county_name":"Ottawa County","phone":"(616)457-8890"},{"leaid":"2630090","lea_name":"Romeo Community Schools","fips":26,"city_mailing":"ROMEO","state_mailing":"MI","zip_mailing":"48065","latitude":42.80588,"longitude":-83.012771,"enrollment":5185,"teachers_total_fte":323.69,"number_of_schools":7,"agency_type":1,"lowest_grade_offered":-1,"highest_grade_offered":12,"county_name":"Macomb County","phone":"(586)752-0225"},{"leaid":"2617910","lea_name":"Hartland Consolidated Schools","fips":26,"city_mailing":"HARTLAND","state_mailing":"MI","zip_mailing":"48353","latitude":42.634176,"longitude":-83.764738,"enrollment":5162,"teachers_total_fte":289.53,"number_of_schools":9,"agency_type":1,"lowest_grade_offered":0,"highest_grade_offered":12,"county_name":"Livingston County","phone":"(810)626-2100"},{"leaid":"2606090","lea_name":"Bloomfield Hills School District","fips":26,"city_mailing":"Bloomfield Hills","state_mailing":"MI","zip_mailing":"48301","latitude":42.53348,"longitude":-83.293101,"enrollment":5143,"teachers_total_fte":389.46,"number_of_schools":11,"agency_type":1,"lowest_grade_offered":-1,"highest_grade_offered":12,"county_name":"Oakland County","phone":"(248)341-5407"},{"leaid":"2616410","lea_name":"Grand Ledge Public Schools","fips":26,"city_mailing":"GRAND LEDGE","state_mailing":"MI","zip_mailing":"48837","latitude":42.749662,"longitude":-84.74851,"enrollment":5096,"teachers_total_fte":296.32,"number_of_schools":8,"agency_type":1,"lowest_grade_offered":-1,"highest_grade_offered":12,"county_name":"Eaton County","phone":"(517)925-5400"},{"leaid":"2632310","lea_name":"Southfield Public School District","fips":26,"city_mailing":"SOUTHFIELD","state_mailing":"MI","zip_mailing":"48033","latitude":42.466583,"longitude":-83.264437,"enrollment":4933,"teachers_total_fte":335.94,"number_of_schools":13,"agency_type":1,"lowest_grade_offered":-1,"highest_grade_offered":12,"county_name":"Oakland County","phone":"(248)746-8777"},{"leaid":"2618480","lea_name":"Holt Public Schools","fips":26,"city_mailing":"HOLT","state_mailing":"MI","zip_mailing":"48842","latitude":42.641691,"longitude":-84.574387,"enrollment":4923,"teachers_total_fte":337.34,"number_of_schools":9,"agency_type":1,"lowest_grade_offered":-1,"highest_grade_offered":12,"county_name":"Ingham County","phone":"(517)694-5715"},{"leaid":"2630660","lea_name":"Saline Area Schools","fips":26,"city_mailing":"SALINE","state_mailing":"MI","zip_mailing":"48176","latitude":42.18008,"longitude":-83.786,"enrollment":4870,"teachers_total_fte":278.59,"number_of_schools":8,"agency_type":1,"lowest_grade_offered":-1,"highest_grade_offered":12,"county_name":"Washtenaw County","phone":"(734)401-4001"},{"leaid":"2635820","lea_name":"West Bloomfield School District","fips":26,"city_mailing":"WEST BLOOMFIELD","state_mailing":"MI","zip_mailing":"48324","latitude":42.59058,"longitude":-83.398301,"enrollment":4865,"teachers_total_fte":320.72,"number_of_schools":11,"agency_type":1,"lowest_grade_offered":-1,"highest_grade_offered":12,"county_name":"Oakland County","phone":"(248)865-6485"},{"leaid":"2630300","lea_name":"Royal Oak City School District","fips":26,"city_mailing":"ROYAL OAK","state_mailing":"MI","zip_mailing":"48073","latitude":42.514487,"longitude":-83.134783,"enrollment":4865,"teachers_total_fte":332.55,"number_of_schools":9,"agency_type":1,"lowest_grade_offered":-1,"highest_grade_offered":12,"county_name":"Oakland County","phone":"(248)435-8400"},{"leaid":"2621600","lea_name":"Lincoln Park Public Schools","fips":26,"city_mailing":"LINCOLN PARK","state_mailing":"MI","zip_mailing":"48146","latitude":42.24694,"longitude":-83.188361,"enrollment":4864,"teachers_total_fte":306.6,"number_of_schools":10,"agency_type":1,"lowest_grade_offered":-1,"highest_grade_offered":12,"county_name":"Wayne County","phone":"(313)389-0200"},{"leaid":"2614820","lea_name":"Fraser Public Schools","fips":26,"city_mailing":"FRASER","state_mailing":"MI","zip_mailing":"48026","latitude":42.54633,"longitude":-82.948251,"enrollment":4650,"teachers_total_fte":284.94,"number_of_schools":9,"agency_type":1,"lowest_grade_offered":-1,"highest_grade_offered":12,"county_name":"Macomb County","phone":"(586)439-7000"},{"leaid":"2624150","lea_name":"Monroe Public Schools","fips":26,"city_mailing":"MONROE","state_mailing":"MI","zip_mailing":"48162","latitude":41.93273,"longitude":-83.386021,"enrollment":4614,"teachers_total_fte":250.58,"number_of_schools":8,"agency_type":1,"lowest_grade_offered":-1,"highest_grade_offered":12,"county_name":"Monroe County","phone":"(734)265-3070"},{"leaid":"2607620","lea_name":"Caledonia Community Schools","fips":26,"city_mailing":"CALEDONIA","state_mailing":"MI","zip_mailing":"49316","latitude":42.786285,"longitude":-85.522427,"enrollment":4613,"teachers_total_fte":276.76,"number_of_schools":10,"agency_type":1,"lowest_grade_offered":-1,"highest_grade_offered":12,"county_name":"Kent County","phone":"(616)891-8185"},{"leaid":"2630450","lea_name":"Saginaw Township Community Schools","fips":26,"city_mailing":"SAGINAW","state_mailing":"MI","zip_mailing":"48603","latitude":43.456124,"longitude":-84.017054,"enrollment":4596,"teachers_total_fte":271.4,"number_of_schools":8,"agency_type":1,"lowest_grade_offered":-1,"highest_grade_offered":12,"county_name":"Saginaw County","phone":"(989)797-1800"},{"leaid":"2626280","lea_name":"Okemos Public Schools","fips":26,"city_mailing":"OKEMOS","state_mailing":"MI","zip_mailing":"48864","latitude":42.71008,"longitude":-84.430491,"enrollment":4593,"teachers_total_fte":280.04,"number_of_schools":7,"agency_type":1,"lowest_grade_offered":-1,"highest_grade_offered":12,"county_name":"Ingham County","phone":"(517)706-5007"},{"leaid":"2619620","lea_name":"Jackson Public Schools","fips":26,"city_mailing":"JACKSON","state_mailing":"MI","zip_mailing":"49201","latitude":42.2485,"longitude":-84.417,"enrollment":4486,"teachers_total_fte":249.86,"number_of_schools":13,"agency_type":1,"lowest_grade_offered":-1,"highest_grade_offered":12,"county_name":"Jackson County","phone":"(517)841-2202"},{"leaid":"2607560","lea_name":"Byron Center Public Schools","fips":26,"city_mailing":"BYRON CENTER","state_mailing":"MI","zip_mailing":"49315","latitude":42.809844,"longitude":-85.722096,"enrollment":4443,"teachers_total_fte":216.47,"number_of_schools":6,"agency_type":1,"lowest_grade_offered":-1,"highest_grade_offered":12,"county_name":"Kent County","phone":"(616)878-6100"},{"leaid":"2621180","lea_name":"Lapeer Community Schools","fips":26,"city_mailing":"LAPEER","state_mailing":"MI","zip_mailing":"48446","latitude":43.06066,"longitude":-83.314281,"enrollment":4386,"teachers_total_fte":233.15,"number_of_schools":8,"agency_type":1,"lowest_grade_offered":-1,"highest_grade_offered":12,"county_name":"Lapeer County","phone":"(810)667-2401"},{"leaid":"2605430","lea_name":"Berrien Springs Public Schools","fips":26,"city_mailing":"BERRIEN SPRINGS","state_mailing":"MI","zip_mailing":"49103","latitude":41.943784,"longitude":-86.34597,"enrollment":4352,"teachers_total_fte":157.78,"number_of_schools":9,"agency_type":1,"lowest_grade_offered":-1,"highest_grade_offered":12,"county_name":"Berrien County","phone":"(269)471-2891"},{"leaid":"2634560","lea_name":"Van Buren Public Schools","fips":26,"city_mailing":"BELLEVILLE","state_mailing":"MI","zip_mailing":"48111","latitude":42.20279,"longitude":-83.494871,"enrollment":4319,"teachers_total_fte":256.13,"number_of_schools":8,"agency_type":1,"lowest_grade_offered":-1,"highest_grade_offered":12,"county_name":"Wayne County","phone":"(734)697-1054"},{"leaid":"2636540","lea_name":"Wyandotte City School District","fips":26,"city_mailing":"WYANDOTTE","state_mailing":"MI","zip_mailing":"48192","latitude":42.20351,"longitude":-83.158701,"enrollment":4318,"teachers_total_fte":295.12,"number_of_schools":9,"agency_type":1,"lowest_grade_offered":-1,"highest_grade_offered":12,"county_name":"Wayne County","phone":"(734)759-6002"},{"leaid":"2620880","lea_name":"Lakeview Public Schools","fips":26,"city_mailing":"Saint Clair Shores","state_mailing":"MI","zip_mailing":"48081","latitude":42.49499,"longitude":-82.897761,"enrollment":4287,"teachers_total_fte":214.24,"number_of_schools":7,"agency_type":1,"lowest_grade_offered":-1,"highest_grade_offered":12,"county_name":"Macomb County","phone":"(586)445-4000"},{"leaid":"2630210","lea_name":"Roseville Community Schools","fips":26,"city_mailing":"ROSEVILLE","state_mailing":"MI","zip_mailing":"48066","latitude":42.48514,"longitude":-82.923871,"enrollment":4208,"teachers_total_fte":247.54,"number_of_schools":10,"agency_type":1,"lowest_grade_offered":-1,"highest_grade_offered":12,"county_name":"Macomb County","phone":"(586)445-5505"},{"leaid":"2614550","lea_name":"Flushing Community Schools","fips":26,"city_mailing":"FLUSHING","state_mailing":"MI","zip_mailing":"48433","latitude":43.07041,"longitude":-83.851031,"enrollment":4074,"teachers_total_fte":214.97,"number_of_schools":8,"agency_type":1,"lowest_grade_offered":-1,"highest_grade_offered":12,"county_name":"Genesee County","phone":"(810)591-1180"},{"leaid":"2620850","lea_name":"Lakeview School District","fips":26,"city_mailing":"BATTLE CREEK","state_mailing":"MI","zip_mailing":"49015","latitude":42.303365,"longitude":-85.213305,"enrollment":3988,"teachers_total_fte":228.03,"number_of_schools":7,"agency_type":1,"lowest_grade_offered":-1,"highest_grade_offered":12,"county_name":"Calhoun County","phone":"(269)565-2400"},{"leaid":"2604470","lea_name":"Bedford Public Schools","fips":26,"city_mailing":"TEMPERANCE","state_mailing":"MI","zip_mailing":"48182","latitude":41.735162,"longitude":-83.570528,"enrollment":3977,"teachers_total_fte":225.5,"number_of_schools":6,"agency_type":1,"lowest_grade_offered":-1,"highest_grade_offered":12,"county_name":"Monroe County","phone":"(734)850-6000"},{"leaid":"2636570","lea_name":"Wyoming Public Schools","fips":26,"city_mailing":"WYOMING","state_mailing":"MI","zip_mailing":"49519","latitude":42.8996,"longitude":-85.7135,"enrollment":3916,"teachers_total_fte":233.31,"number_of_schools":8,"agency_type":1,"lowest_grade_offered":-1,"highest_grade_offered":12,"county_name":"Kent County","phone":"(616)531-8944"},{"leaid":"2605010","lea_name":"Berkley School District","fips":26,"city_mailing":"OAK PARK","state_mailing":"MI","zip_mailing":"48237","latitude":42.484769,"longitude":-83.191695,"enrollment":3913,"teachers_total_fte":246.65,"number_of_schools":7,"agency_type":1,"lowest_grade_offered":-1,"highest_grade_offered":12,"county_name":"Oakland County","phone":"(248)837-8000"},{"leaid":"2624120","lea_name":"Mona Shores Public School District","fips":26,"city_mailing":"Norton Shores","state_mailing":"MI","zip_mailing":"49441","latitude":43.171933,"longitude":-86.247899,"enrollment":3876,"teachers_total_fte":234.21,"number_of_schools":6,"agency_type":1,"lowest_grade_offered":-1,"highest_grade_offered":12,"county_name":"Muskegon County","phone":"(231)332-8201"},{"leaid":"2607890","lea_name":"Carman-Ainsworth Community School District","fips":26,"city_mailing":"Flint","state_mailing":"MI","zip_mailing":"48532","latitude":43.00612,"longitude":-83.751101,"enrollment":3841,"teachers_total_fte":194.07,"number_of_schools":10,"agency_type":1,"lowest_grade_offered":-1,"highest_grade_offered":12,"county_name":"Genesee County","phone":"(810)591-3205"},{"leaid":"2603690","lea_name":"Avondale School District","fips":26,"city_mailing":"AUBURN HILLS","state_mailing":"MI","zip_mailing":"48326","latitude":42.62887,"longitude":-83.22921,"enrollment":3821,"teachers_total_fte":248.1,"number_of_schools":9,"agency_type":1,"lowest_grade_offered":-1,"highest_grade_offered":12,"county_name":"Oakland County","phone":"(248)537-6001"},{"leaid":"2612600","lea_name":"East Lansing School District","fips":26,"city_mailing":"East Lansing","state_mailing":"MI","zip_mailing":"48823","latitude":42.743707,"longitude":-84.47936,"enrollment":3788,"teachers_total_fte":213.72,"number_of_schools":8,"agency_type":1,"lowest_grade_offered":-1,"highest_grade_offered":12,"county_name":"Ingham County","phone":"(517)333-7424"},{"leaid":"2600016","lea_name":"Crestwood School District","fips":26,"city_mailing":"DEARBORN HTS","state_mailing":"MI","zip_mailing":"48127","latitude":42.321685,"longitude":-83.294231,"enrollment":3767,"teachers_total_fte":235.06,"number_of_schools":6,"agency_type":1,"lowest_grade_offered":-1,"highest_grade_offered":12,"county_name":"Wayne County","phone":"(313)278-0903"},{"leaid":"2600005","lea_name":"Battle Creek Public Schools","fips":26,"city_mailing":"BATTLE CREEK","state_mailing":"MI","zip_mailing":"49017","latitude":42.32087,"longitude":-85.180721,"enrollment":3753,"teachers_total_fte":259.82,"number_of_schools":13,"agency_type":1,"lowest_grade_offered":-1,"highest_grade_offered":12,"county_name":"Calhoun County","phone":"(269)965-9465"},{"leaid":"2636630","lea_name":"Ypsilanti Community Schools","fips":26,"city_mailing":"YPSILANTI","state_mailing":"MI","zip_mailing":"48197","latitude":42.24444,"longitude":-83.643071,"enrollment":3721,"teachers_total_fte":256.95,"number_of_schools":12,"agency_type":1,"lowest_grade_offered":-1,"highest_grade_offered":12,"county_name":"Washtenaw County","phone":"(734)221-1218"},{"leaid":"2612420","lea_name":"East China School District","fips":26,"city_mailing":"EAST CHINA","state_mailing":"MI","zip_mailing":"48054","latitude":42.755939,"longitude":-82.505401,"enrollment":3688,"teachers_total_fte":211.89,"number_of_schools":10,"agency_type":1,"lowest_grade_offered":-1,"highest_grade_offered":12,"county_name":"St. Clair County","phone":"(810)676-1018"},{"leaid":"2602520","lea_name":"Allen Park Public Schools","fips":26,"city_mailing":"ALLEN PARK","state_mailing":"MI","zip_mailing":"48101","latitude":42.23847,"longitude":-83.202941,"enrollment":3684,"teachers_total_fte":194.02,"number_of_schools":5,"agency_type":1,"lowest_grade_offered":-1,"highest_grade_offered":12,"county_name":"Wayne County","phone":"(313)827-2150"},{"leaid":"2626190","lea_name":"Oak Park City School District","fips":26,"city_mailing":"OAK PARK","state_mailing":"MI","zip_mailing":"48237","latitude":42.457575,"longitude":-83.185278,"enrollment":3680,"teachers_total_fte":187.89,"number_of_schools":8,"agency_type":1,"lowest_grade_offered":-1,"highest_grade_offered":12,"county_name":"Oakland County","phone":"(248)336-7706"},{"leaid":"2602730","lea_name":"Alpena Public Schools","fips":26,"city_mailing":"ALPENA","state_mailing":"MI","zip_mailing":"49707","latitude":45.036923,"longitude":-83.466876,"enrollment":3672,"teachers_total_fte":200.89,"number_of_schools":9,"agency_type":1,"lowest_grade_offered":0,"highest_grade_offered":12,"county_name":"Alpena County","phone":"(989)358-5044"},{"leaid":"2615870","lea_name":"Gibraltar School District","fips":26,"city_mailing":"WOODHAVEN","state_mailing":"MI","zip_mailing":"48183","latitude":42.11232,"longitude":-83.224371,"enrollment":3630,"teachers_total_fte":198.0,"number_of_schools":7,"agency_type":1,"lowest_grade_offered":-1,"highest_grade_offered":12,"county_name":"Wayne County","phone":"(734)379-6350"},{"leaid":"2623250","lea_name":"Mattawan Consolidated School","fips":26,"city_mailing":"MATTAWAN","state_mailing":"MI","zip_mailing":"49071","latitude":42.213274,"longitude":-85.791002,"enrollment":3610,"teachers_total_fte":200.48,"number_of_schools":5,"agency_type":1,"lowest_grade_offered":-1,"highest_grade_offered":12,"county_name":"Van Buren County","phone":"(269)668-3361"},{"leaid":"2617160","lea_name":"Greenville Public Schools","fips":26,"city_mailing":"GREENVILLE","state_mailing":"MI","zip_mailing":"48838","latitude":43.188834,"longitude":-85.275717,"enrollment":3601,"teachers_total_fte":211.5,"number_of_schools":7,"agency_type":1,"lowest_grade_offered":-1,"highest_grade_offered":12,"county_name":"Montcalm County","phone":"(616)754-3686"},{"leaid":"2629540","lea_name":"Reeths-Puffer Schools","fips":26,"city_mailing":"MUSKEGON","state_mailing":"MI","zip_mailing":"49445","latitude":43.27709,"longitude":-86.267341,"enrollment":3571,"teachers_total_fte":200.09,"number_of_schools":7,"agency_type":1,"lowest_grade_offered":-1,"highest_grade_offered":12,"county_name":"Muskegon County","phone":"(231)719-3101"},{"leaid":"2621570","lea_name":"Lincoln Consolidated School District","fips":26,"city_mailing":"YPSILANTI","state_mailing":"MI","zip_mailing":"48197","latitude":42.158691,"longitude":-83.61127,"enrollment":3566,"teachers_total_fte":190.76,"number_of_schools":6,"agency_type":1,"lowest_grade_offered":-1,"highest_grade_offered":12,"county_name":"Washtenaw County","phone":"(734)484-7001"},{"leaid":"2626010","lea_name":"Northwest School District","fips":26,"city_mailing":"Jackson","state_mailing":"MI","zip_mailing":"49201","latitude":42.333331,"longitude":-84.464079,"enrollment":3560,"teachers_total_fte":201.9,"number_of_schools":5,"agency_type":1,"lowest_grade_offered":0,"highest_grade_offered":12,"county_name":"Jackson County","phone":"(517)817-4721"},{"leaid":"2633420","lea_name":"Swartz Creek Community Schools","fips":26,"city_mailing":"SWARTZ CREEK","state_mailing":"MI","zip_mailing":"48473","latitude":42.95331,"longitude":-83.843461,"enrollment":3510,"teachers_total_fte":173.82,"number_of_schools":8,"agency_type":1,"lowest_grade_offered":-1,"highest_grade_offered":12,"county_name":"Genesee County","phone":"(810)591-2300"},{"leaid":"2622050","lea_name":"Lowell Area Schools","fips":26,"city_mailing":"LOWELL","state_mailing":"MI","zip_mailing":"49331","latitude":42.93623,"longitude":-85.336701,"enrollment":3498,"teachers_total_fte":198.6,"number_of_schools":7,"agency_type":1,"lowest_grade_offered":-1,"highest_grade_offered":12,"county_name":"Kent County","phone":"(616)987-2500"},{"leaid":"2628740","lea_name":"Pontiac City School District","fips":26,"city_mailing":"PONTIAC","state_mailing":"MI","zip_mailing":"48342","latitude":42.635,"longitude":-83.287421,"enrollment":3402,"teachers_total_fte":222.6,"number_of_schools":10,"agency_type":1,"lowest_grade_offered":-1,"highest_grade_offered":12,"county_name":"Oakland County","phone":"(248)451-6883"},{"leaid":"2612030","lea_name":"Dexter Community School District","fips":26,"city_mailing":"DEXTER","state_mailing":"MI","zip_mailing":"48130","latitude":42.32913,"longitude":-83.885795,"enrollment":3386,"teachers_total_fte":245.12,"number_of_schools":7,"agency_type":1,"lowest_grade_offered":-1,"highest_grade_offered":12,"county_name":"Washtenaw County","phone":"(734)424-4100"},{"leaid":"2624750","lea_name":"Mount Pleasant City School District","fips":26,"city_mailing":"MOUNT PLEASANT","state_mailing":"MI","zip_mailing":"48858","latitude":43.610416,"longitude":-84.770087,"enrollment":3378,"teachers_total_fte":234.0,"number_of_schools":10,"agency_type":1,"lowest_grade_offered":-1,"highest_grade_offered":12,"county_name":"Isabella County","phone":"(989)775-2301"},{"leaid":"2632340","lea_name":"Southgate Community School District","fips":26,"city_mailing":"SOUTHGATE","state_mailing":"MI","zip_mailing":"48195","latitude":42.192572,"longitude":-83.195823,"enrollment":3370,"teachers_total_fte":205.25,"number_of_schools":9,"agency_type":1,"lowest_grade_offered":-1,"highest_grade_offered":12,"county_name":"Wayne County","phone":"(734)246-4600"},{"leaid":"2624840","lea_name":"Muskegon City School District","fips":26,"city_mailing":"MUSKEGON","state_mailing":"MI","zip_mailing":"49441","latitude":43.22578,"longitude":-86.24789,"enrollment":3353,"teachers_total_fte":177.97,"number_of_schools":7,"agency_type":1,"lowest_grade_offered":-1,"highest_grade_offered":12,"county_name":"Muskegon County","phone":"(231)720-2000"},{"leaid":"2625560","lea_name":"Niles Community School District","fips":26,"city_mailing":"NILES","state_mailing":"MI","zip_mailing":"49120","latitude":41.823106,"longitude":-86.231089,"enrollment":3303,"teachers_total_fte":167.01,"number_of_schools":11,"agency_type":1,"lowest_grade_offered":-1,"highest_grade_offered":12,"county_name":"Berrien County","phone":"(269)683-0732"},{"leaid":"2623070","lea_name":"Mason Public Schools","fips":26,"city_mailing":"MASON","state_mailing":"MI","zip_mailing":"48854","latitude":42.578389,"longitude":-84.445083,"enrollment":3261,"teachers_total_fte":188.48,"number_of_schools":6,"agency_type":1,"lowest_grade_offered":-1,"highest_grade_offered":12,"county_name":"Ingham County","phone":"(517)676-2484"},{"leaid":"2617250","lea_name":"Gull Lake Community Schools","fips":26,"city_mailing":"RICHLAND","state_mailing":"MI","zip_mailing":"49083","latitude":42.3758,"longitude":-85.433685,"enrollment":3256,"teachers_total_fte":213.37,"number_of_schools":7,"agency_type":1,"lowest_grade_offered":-1,"highest_grade_offered":12,"county_name":"Kalamazoo County","phone":"(269)548-3406"},{"leaid":"2632670","lea_name":"Lake Shore Public Schools","fips":26,"city_mailing":"SAINT CLAIR SHORES","state_mailing":"MI","zip_mailing":"48081","latitude":42.507414,"longitude":-82.897049,"enrollment":3239,"teachers_total_fte":177.68,"number_of_schools":6,"agency_type":1,"lowest_grade_offered":-1,"highest_grade_offered":12,"county_name":"Macomb County","phone":"(586)285-8480"},{"leaid":"2600013","lea_name":"Marquette Area Public Schools","fips":26,"city_mailing":"MARQUETTE","state_mailing":"MI","zip_mailing":"49855","latitude":46.533073,"longitude":-87.416226,"enrollment":3230,"teachers_total_fte":192.31,"number_of_schools":7,"agency_type":1,"lowest_grade_offered":-1,"highest_grade_offered":12,"county_name":"Marquette County","phone":"(906)225-5326"},{"leaid":"2615540","lea_name":"Garden City School District","fips":26,"city_mailing":"GARDEN CITY","state_mailing":"MI","zip_mailing":"48135","latitude":42.31864,"longitude":-83.375181,"enrollment":3228,"teachers_total_fte":239.6,"number_of_schools":8,"agency_type":1,"lowest_grade_offered":-1,"highest_grade_offered":12,"county_name":"Wayne County","phone":"(734)762-6311"},{"leaid":"2608520","lea_name":"Cedar Springs Public Schools","fips":26,"city_mailing":"CEDAR SPRINGS","state_mailing":"MI","zip_mailing":"49319","latitude":43.219106,"longitude":-85.550234,"enrollment":3202,"teachers_total_fte":185.08,"number_of_schools":7,"agency_type":1,"lowest_grade_offered":-1,"highest_grade_offered":12,"county_name":"Kent County","phone":"(616)696-1204"},{"leaid":"2633810","lea_name":"Thornapple Kellogg School District","fips":26,"city_mailing":"MIDDLEVILLE","state_mailing":"MI","zip_mailing":"49333","latitude":42.710619,"longitude":-85.488194,"enrollment":3163,"teachers_total_fte":177.71,"number_of_schools":6,"agency_type":1,"lowest_grade_offered":-1,"highest_grade_offered":12,"county_name":"Barry County","phone":"(269)795-5521"},{"leaid":"2607590","lea_name":"Cadillac Area Public Schools","fips":26,"city_mailing":"CADILLAC","state_mailing":"MI","zip_mailing":"49601","latitude":44.246964,"longitude":-85.396102,"enrollment":3158,"teachers_total_fte":175.81,"number_of_schools":6,"agency_type":1,"lowest_grade_offered":-1,"highest_grade_offered":12,"county_name":"Wexford County","phone":"(231)876-5000"},{"leaid":"2614280","lea_name":"Ferndale Public Schools","fips":26,"city_mailing":"FERNDALE","state_mailing":"MI","zip_mailing":"48220","latitude":42.452447,"longitude":-83.149787,"enrollment":3131,"teachers_total_fte":172.27,"number_of_schools":7,"agency_type":1,"lowest_grade_offered":-1,"highest_grade_offered":12,"county_name":"Oakland County","phone":"(248)586-8651"},{"leaid":"2635220","lea_name":"Warren Woods Public Schools","fips":26,"city_mailing":"WARREN","state_mailing":"MI","zip_mailing":"48089","latitude":42.486201,"longitude":-82.997439,"enrollment":3118,"teachers_total_fte":176.92,"number_of_schools":8,"agency_type":1,"lowest_grade_offered":-1,"highest_grade_offered":12,"county_name":"Macomb County","phone":"(586)439-4469"},{"leaid":"2611550","lea_name":"DeWitt Public Schools","fips":26,"city_mailing":"DEWITT","state_mailing":"MI","zip_mailing":"48820","latitude":42.824733,"longitude":-84.581408,"enrollment":3108,"teachers_total_fte":169.09,"number_of_schools":5,"agency_type":1,"lowest_grade_offered":-1,"highest_grade_offered":12,"county_name":"Clinton County","phone":"(517)668-3000"},{"leaid":"2618450","lea_name":"Holly Area School District","fips":26,"city_mailing":"HOLLY","state_mailing":"MI","zip_mailing":"48442","latitude":42.789542,"longitude":-83.612395,"enrollment":3101,"teachers_total_fte":200.31,"number_of_schools":6,"agency_type":1,"lowest_grade_offered":-1,"highest_grade_offered":12,"county_name":"Oakland County","phone":"(248)328-3147"},{"leaid":"2614250","lea_name":"Fenton Area Public Schools","fips":26,"city_mailing":"FENTON","state_mailing":"MI","zip_mailing":"48430","latitude":42.7894,"longitude":-83.732044,"enrollment":3088,"teachers_total_fte":188.89,"number_of_schools":6,"agency_type":1,"lowest_grade_offered":-1,"highest_grade_offered":12,"county_name":"Genesee County","phone":"(810)591-4700"},{"leaid":"2617520","lea_name":"Hamtramck Public Schools","fips":26,"city_mailing":"HAMTRAMCK","state_mailing":"MI","zip_mailing":"48212","latitude":42.393135,"longitude":-83.049645,"enrollment":3062,"teachers_total_fte":193.24,"number_of_schools":8,"agency_type":1,"lowest_grade_offered":-1,"highest_grade_offered":12,"county_name":"Wayne County","phone":"(313)872-9270"},{"leaid":"2625950","lea_name":"Northview Public School District","fips":26,"city_mailing":"GRAND RAPIDS","state_mailing":"MI","zip_mailing":"49525","latitude":43.042449,"longitude":-85.619917,"enrollment":3061,"teachers_total_fte":190.41,"number_of_schools":8,"agency_type":1,"lowest_grade_offered":-1,"highest_grade_offered":12,"county_name":"Kent County","phone":"(616)363-6861"},{"leaid":"2620280","lea_name":"Kenowa Hills Public Schools","fips":26,"city_mailing":"GRAND RAPIDS","state_mailing":"MI","zip_mailing":"49544","latitude":43.0299,"longitude":-85.7269,"enrollment":3010,"teachers_total_fte":187.95,"number_of_schools":6,"agency_type":1,"lowest_grade_offered":-1,"highest_grade_offered":12,"county_name":"Kent County","phone":"(616)784-2511"},{"leaid":"2633090","lea_name":"Sturgis Public Schools","fips":26,"city_mailing":"STURGIS","state_mailing":"MI","zip_mailing":"49091","latitude":41.801638,"longitude":-85.419575,"enrollment":2967,"teachers_total_fte":160.09,"number_of_schools":6,"agency_type":1,"lowest_grade_offered":-1,"highest_grade_offered":12,"county_name":"St. Joseph County","phone":"(269)659-1500"},{"leaid":"2632850","lea_name":"St. Joseph Public Schools","fips":26,"city_mailing":"SAINT JOSEPH","state_mailing":"MI","zip_mailing":"49085","latitude":42.0584,"longitude":-86.4753,"enrollment":2965,"teachers_total_fte":148.62,"number_of_schools":5,"agency_type":1,"lowest_grade_offered":-1,"highest_grade_offered":12,"county_name":"Berrien County","phone":"(269)926-3100"},{"leaid":"2623460","lea_name":"Melvindale-North Allen Park School District","fips":26,"city_mailing":"MELVINDALE","state_mailing":"MI","zip_mailing":"48122","latitude":42.27826,"longitude":-83.185361,"enrollment":2956,"teachers_total_fte":149.0,"number_of_schools":4,"agency_type":1,"lowest_grade_offered":-1,"highest_grade_offered":12,"county_name":"Wayne County","phone":"(313)389-3300"},{"leaid":"2627210","lea_name":"Owosso Public Schools","fips":26,"city_mailing":"Owosso","state_mailing":"MI","zip_mailing":"48867","latitude":42.986969,"longitude":-84.160517,"enrollment":2948,"teachers_total_fte":165.86,"number_of_schools":6,"agency_type":1,"lowest_grade_offered":-1,"highest_grade_offered":12,"county_name":"Shiawassee County","phone":"(989)723-8131"},{"leaid":"2618030","lea_name":"Hazel Park City School District","fips":26,"city_mailing":"HAZEL PARK","state_mailing":"MI","zip_mailing":"48030","latitude":42.4513,"longitude":-83.0874,"enrollment":2947,"teachers_total_fte":213.48,"number_of_schools":11,"agency_type":1,"lowest_grade_offered":-1,"highest_grade_offered":12,"county_name":"Oakland County","phone":"(248)658-5220"},{"leaid":"2612480","lea_name":"East Grand Rapids Public School District","fips":26,"city_mailing":"GRAND RAPIDS","state_mailing":"MI","zip_mailing":"49506","latitude":42.94168,"longitude":-85.597161,"enrollment":2946,"teachers_total_fte":160.0,"number_of_schools":5,"agency_type":1,"lowest_grade_offered":-1,"highest_grade_offered":12,"county_name":"Kent County","phone":"(616)235-3535"},{"leaid":"2617400","lea_name":"Hamilton Community Schools","fips":26,"city_mailing":"HAMILTON","state_mailing":"MI","zip_mailing":"49419","latitude":42.68246,"longitude":-86.01611,"enrollment":2905,"teachers_total_fte":155.67,"number_of_schools":7,"agency_type":1,"lowest_grade_offered":-1,"highest_grade_offered":12,"county_name":"Allegan County","phone":"(269)751-5148"},{"leaid":"2635520","lea_name":"Waverly Community Schools","fips":26,"city_mailing":"LANSING","state_mailing":"MI","zip_mailing":"48917","latitude":42.727895,"longitude":-84.621011,"enrollment":2884,"teachers_total_fte":182.07,"number_of_schools":6,"agency_type":1,"lowest_grade_offered":-1,"highest_grade_offered":12,"county_name":"Eaton County","phone":"(517)321-7265"},{"leaid":"2635550","lea_name":"Wayland Union Schools","fips":26,"city_mailing":"WAYLAND","state_mailing":"MI","zip_mailing":"49348","latitude":42.673523,"longitude":-85.630029,"enrollment":2849,"teachers_total_fte":157.06,"number_of_schools":7,"agency_type":1,"lowest_grade_offered":-1,"highest_grade_offered":12,"county_name":"Allegan County","phone":"(269)792-2181"},{"leaid":"2620070","lea_name":"Kearsley Community Schools","fips":26,"city_mailing":"FLINT","state_mailing":"MI","zip_mailing":"48506","latitude":43.07271,"longitude":-83.611651,"enrollment":2843,"teachers_total_fte":164.23,"number_of_schools":6,"agency_type":1,"lowest_grade_offered":-1,"highest_grade_offered":12,"county_name":"Genesee County","phone":"(810)591-8000"},{"leaid":"2614520","lea_name":"Flint City School District","fips":26,"city_mailing":"FLINT","state_mailing":"MI","zip_mailing":"48503","latitude":43.021856,"longitude":-83.681327,"enrollment":2840,"teachers_total_fte":149.2,"number_of_schools":14,"agency_type":1,"lowest_grade_offered":-1,"highest_grade_offered":12,"county_name":"Genesee County","phone":"(810)760-1249"},{"leaid":"2618420","lea_name":"Holland City School District","fips":26,"city_mailing":"HOLLAND","state_mailing":"MI","zip_mailing":"49423","latitude":42.775338,"longitude":-86.12213,"enrollment":2834,"teachers_total_fte":173.0,"number_of_schools":7,"agency_type":1,"lowest_grade_offered":-1,"highest_grade_offered":12,"county_name":"Ottawa County","phone":"(616)494-2005"},{"leaid":"2619250","lea_name":"Ionia Public Schools","fips":26,"city_mailing":"IONIA","state_mailing":"MI","zip_mailing":"48846","latitude":42.953334,"longitude":-85.069917,"enrollment":2833,"teachers_total_fte":153.54,"number_of_schools":8,"agency_type":1,"lowest_grade_offered":-1,"highest_grade_offered":12,"county_name":"Ionia County","phone":"(616)527-9280"},{"leaid":"2629910","lea_name":"Riverview Community School District","fips":26,"city_mailing":"RIVERVIEW","state_mailing":"MI","zip_mailing":"48193","latitude":42.17913,"longitude":-83.18783,"enrollment":2831,"teachers_total_fte":140.4,"number_of_schools":8,"agency_type":1,"lowest_grade_offered":-1,"highest_grade_offered":12,"county_name":"Wayne County","phone":"(734)285-9660"},{"leaid":"2617730","lea_name":"Harper Creek Community Schools","fips":26,"city_mailing":"BATTLE CREEK","state_mailing":"MI","zip_mailing":"49014","latitude":42.26103,"longitude":-85.150381,"enrollment":2819,"teachers_total_fte":162.42,"number_of_schools":5,"agency_type":1,"lowest_grade_offered":-1,"highest_grade_offered":12,"county_name":"Calhoun County","phone":"(269)441-6571"},{"leaid":"2632280","lea_name":"South Redford School District","fips":26,"city_mailing":"REDFORD","state_mailing":"MI","zip_mailing":"48239","latitude":42.384021,"longitude":-83.29958,"enrollment":2812,"teachers_total_fte":177.17,"number_of_schools":7,"agency_type":1,"lowest_grade_offered":-1,"highest_grade_offered":12,"county_name":"Wayne County","phone":"(313)535-4000"},{"leaid":"2601980","lea_name":"Airport Community School District","fips":26,"city_mailing":"CARLETON","state_mailing":"MI","zip_mailing":"48117","latitude":42.039126,"longitude":-83.378558,"enrollment":2809,"teachers_total_fte":155.53,"number_of_schools":9,"agency_type":1,"lowest_grade_offered":-1,"highest_grade_offered":12,"county_name":"Monroe County","phone":"(734)654-2414"},{"leaid":"2615730","lea_name":"Gaylord Community Schools","fips":26,"city_mailing":"GAYLORD","state_mailing":"MI","zip_mailing":"49735","latitude":45.021014,"longitude":-84.67165,"enrollment":2793,"teachers_total_fte":161.14,"number_of_schools":5,"agency_type":1,"lowest_grade_offered":-1,"highest_grade_offered":12,"county_name":"Otsego County","phone":"(989)705-3080"},{"leaid":"2601950","lea_name":"Adrian City School District","fips":26,"city_mailing":"ADRIAN","state_mailing":"MI","zip_mailing":"49221","latitude":41.911067,"longitude":-84.048422,"enrollment":2771,"teachers_total_fte":175.8,"number_of_schools":7,"agency_type":1,"lowest_grade_offered":-1,"highest_grade_offered":12,"county_name":"Lenawee County","phone":"(517)264-6640"},{"leaid":"2635940","lea_name":"Western School District","fips":26,"city_mailing":"Parma","state_mailing":"MI","zip_mailing":"49269","latitude":42.244046,"longitude":-84.539714,"enrollment":2757,"teachers_total_fte":149.44,"number_of_schools":6,"agency_type":1,"lowest_grade_offered":-1,"highest_grade_offered":12,"county_name":"Jackson County","phone":"(517)841-8170"},{"leaid":"2610140","lea_name":"Coldwater Community Schools","fips":26,"city_mailing":"COLDWATER","state_mailing":"MI","zip_mailing":"49036","latitude":41.933912,"longitude":-84.975317,"enrollment":2756,"teachers_total_fte":133.6,"number_of_schools":5,"agency_type":1,"lowest_grade_offered":-1,"highest_grade_offered":12,"county_name":"Branch County","phone":"(517)279-5910"},{"leaid":"2620820","lea_name":"Lakeshore School District","fips":26,"city_mailing":"STEVENSVILLE","state_mailing":"MI","zip_mailing":"49127","latitude":42.013029,"longitude":-86.4936,"enrollment":2688,"teachers_total_fte":158.16,"number_of_schools":5,"agency_type":1,"lowest_grade_offered":-1,"highest_grade_offered":12,"county_name":"Berrien County","phone":"(269)428-1400"},{"leaid":"2615390","lea_name":"Fruitport Community Schools","fips":26,"city_mailing":"FRUITPORT","state_mailing":"MI","zip_mailing":"49415","latitude":43.129492,"longitude":-86.162126,"enrollment":2678,"teachers_total_fte":156.25,"number_of_schools":7,"agency_type":1,"lowest_grade_offered":-1,"highest_grade_offered":12,"county_name":"Muskegon County","phone":"(231)865-3154"},{"leaid":"2623040","lea_name":"Marysville Public Schools","fips":26,"city_mailing":"MARYSVILLE","state_mailing":"MI","zip_mailing":"48040","latitude":42.910598,"longitude":-82.474857,"enrollment":2655,"teachers_total_fte":132.03,"number_of_schools":5,"agency_type":1,"lowest_grade_offered":-1,"highest_grade_offered":12,"county_name":"St. Clair County","phone":"(810)364-7731"},{"leaid":"2603900","lea_name":"Bangor Township Schools","fips":26,"city_mailing":"BAY CITY","state_mailing":"MI","zip_mailing":"48706","latitude":43.603235,"longitude":-83.919646,"enrollment":2646,"teachers_total_fte":145.47,"number_of_schools":6,"agency_type":1,"lowest_grade_offered":-1,"highest_grade_offered":12,"county_name":"Bay County","phone":"(989)684-8121"},{"leaid":"2612990","lea_name":"Edwardsburg Public Schools","fips":26,"city_mailing":"EDWARDSBURG","state_mailing":"MI","zip_mailing":"49112","latitude":41.789223,"longitude":-86.089155,"enrollment":2642,"teachers_total_fte":134.12,"number_of_schools":6,"agency_type":1,"lowest_grade_offered":-1,"highest_grade_offered":12,"county_name":"Cass County","phone":"(269)663-1053"},{"leaid":"2622970","lea_name":"Marshall Public Schools","fips":26,"city_mailing":"MARSHALL","state_mailing":"MI","zip_mailing":"49068","latitude":42.270477,"longitude":-84.958039,"enrollment":2641,"teachers_total_fte":158.58,"number_of_schools":8,"agency_type":1,"lowest_grade_offered":-1,"highest_grade_offered":12,"county_name":"Calhoun County","phone":"(269)781-1250"},{"leaid":"2602550","lea_name":"Allendale Public School District","fips":26,"city_mailing":"ALLENDALE","state_mailing":"MI","zip_mailing":"49401","latitude":42.960896,"longitude":-85.966896,"enrollment":2636,"teachers_total_fte":162.64,"number_of_schools":6,"agency_type":1,"lowest_grade_offered":-1,"highest_grade_offered":12,"county_name":"Ottawa County","phone":"(616)892-5570"},{"leaid":"2610110","lea_name":"Clio Area School District","fips":26,"city_mailing":"CLIO","state_mailing":"MI","zip_mailing":"48420","latitude":43.186603,"longitude":-83.727972,"enrollment":2626,"teachers_total_fte":130.1,"number_of_schools":8,"agency_type":1,"lowest_grade_offered":-1,"highest_grade_offered":12,"county_name":"Genesee County","phone":"(810)591-7490"},{"leaid":"2628530","lea_name":"Plainwell Community Schools","fips":26,"city_mailing":"PLAINWELL","state_mailing":"MI","zip_mailing":"49080","latitude":42.437766,"longitude":-85.650662,"enrollment":2623,"teachers_total_fte":150.58,"number_of_schools":6,"agency_type":1,"lowest_grade_offered":-1,"highest_grade_offered":12,"county_name":"Allegan County","phone":"(269)685-5823"},{"leaid":"2632820","lea_name":"St. Johns Public Schools","fips":26,"city_mailing":"SAINT JOHNS","state_mailing":"MI","zip_mailing":"48879","latitude":42.991211,"longitude":-84.565356,"enrollment":2606,"teachers_total_fte":151.45,"number_of_schools":7,"agency_type":1,"lowest_grade_offered":-1,"highest_grade_offered":12,"county_name":"Clinton County","phone":"(989)227-4050"},{"leaid":"2614730","lea_name":"Fowlerville Community Schools","fips":26,"city_mailing":"FOWLERVILLE","state_mailing":"MI","zip_mailing":"48836","latitude":42.670294,"longitude":-84.067776,"enrollment":2590,"teachers_total_fte":143.28,"number_of_schools":5,"agency_type":1,"lowest_grade_offered":-1,"highest_grade_offered":12,"county_name":"Livingston County","phone":"(517)223-6001"},{"leaid":"2634950","lea_name":"Vicksburg Community Schools","fips":26,"city_mailing":"VICKSBURG","state_mailing":"MI","zip_mailing":"49097","latitude":42.117063,"longitude":-85.530385,"enrollment":2588,"teachers_total_fte":141.08,"number_of_schools":6,"agency_type":1,"lowest_grade_offered":-1,"highest_grade_offered":12,"county_name":"Kalamazoo County","phone":"(269)321-1000"},{"leaid":"2608580","lea_name":"Center Line Public Schools","fips":26,"city_mailing":"CENTER LINE","state_mailing":"MI","zip_mailing":"48015","latitude":42.488132,"longitude":-83.021361,"enrollment":2584,"teachers_total_fte":163.02,"number_of_schools":6,"agency_type":1,"lowest_grade_offered":-1,"highest_grade_offered":12,"county_name":"Macomb County","phone":"(586)510-2000"},{"leaid":"2617760","lea_name":"Harper Woods City Schools","fips":26,"city_mailing":"HARPER WOODS","state_mailing":"MI","zip_mailing":"48225","latitude":42.449343,"longitude":-82.924994,"enrollment":2581,"teachers_total_fte":102.6,"number_of_schools":7,"agency_type":1,"lowest_grade_offered":-1,"highest_grade_offered":12,"county_name":"Wayne County","phone":"(586)209-2400"},{"leaid":"2633720","lea_name":"Tecumseh Public Schools","fips":26,"city_mailing":"TECUMSEH","state_mailing":"MI","zip_mailing":"49286","latitude":42.012021,"longitude":-83.958318,"enrollment":2563,"teachers_total_fte":156.3,"number_of_schools":7,"agency_type":1,"lowest_grade_offered":-1,"highest_grade_offered":12,"county_name":"Lenawee County","phone":"(517)424-7318"},{"leaid":"2617940","lea_name":"Haslett Public Schools","fips":26,"city_mailing":"HASLETT","state_mailing":"MI","zip_mailing":"48840","latitude":42.743365,"longitude":-84.407031,"enrollment":2563,"teachers_total_fte":189.23,"number_of_schools":5,"agency_type":1,"lowest_grade_offered":-1,"highest_grade_offered":12,"county_name":"Ingham County","phone":"(517)339-8242"},{"leaid":"2610830","lea_name":"Coopersville Public School District","fips":26,"city_mailing":"COOPERSVILLE","state_mailing":"MI","zip_mailing":"49404","latitude":43.063782,"longitude":-85.923931,"enrollment":2554,"teachers_total_fte":149.75,"number_of_schools":6,"agency_type":1,"lowest_grade_offered":-1,"highest_grade_offered":12,"county_name":"Ottawa County","phone":"(616)997-3200"},{"leaid":"2617970","lea_name":"Hastings Area School District","fips":26,"city_mailing":"Hastings","state_mailing":"MI","zip_mailing":"49058","latitude":42.644472,"longitude":-85.290027,"enrollment":2550,"teachers_total_fte":145.46,"number_of_schools":6,"agency_type":1,"lowest_grade_offered":0,"highest_grade_offered":12,"county_name":"Barry County","phone":"(269)945-6137"},{"leaid":"2618930","lea_name":"Huron School District","fips":26,"city_mailing":"NEW BOSTON","state_mailing":"MI","zip_mailing":"48164","latitude":42.124133,"longitude":-83.348621,"enrollment":2541,"teachers_total_fte":151.49,"number_of_schools":8,"agency_type":1,"lowest_grade_offered":-1,"highest_grade_offered":12,"county_name":"Wayne County","phone":"(734)782-2441"},{"leaid":"2611610","lea_name":"Dearborn Heights School District 7","fips":26,"city_mailing":"DEARBORN HEIGHTS","state_mailing":"MI","zip_mailing":"48125","latitude":42.276556,"longitude":-83.239164,"enrollment":2539,"teachers_total_fte":171.7,"number_of_schools":6,"agency_type":1,"lowest_grade_offered":-1,"highest_grade_offered":12,"county_name":"Wayne County","phone":"(313)203-3180"},{"leaid":"2627930","lea_name":"Public Schools of Petoskey","fips":26,"city_mailing":"PETOSKEY","state_mailing":"MI","zip_mailing":"49770","latitude":45.36583,"longitude":-84.956181,"enrollment":2526,"teachers_total_fte":152.48,"number_of_schools":7,"agency_type":1,"lowest_grade_offered":-1,"highest_grade_offered":12,"county_name":"Emmet County","phone":"(231)348-2100"},{"leaid":"2633900","lea_name":"Trenton Public Schools","fips":26,"city_mailing":"TRENTON","state_mailing":"MI","zip_mailing":"48183","latitude":42.14242,"longitude":-83.201411,"enrollment":2501,"teachers_total_fte":162.35,"number_of_schools":4,"agency_type":1,"lowest_grade_offered":-1,"highest_grade_offered":12,"county_name":"Wayne County","phone":"(734)676-8600"},{"leaid":"2621690","lea_name":"Linden Community Schools","fips":26,"city_mailing":"LINDEN","state_mailing":"MI","zip_mailing":"48451","latitude":42.808941,"longitude":-83.816138,"enrollment":2468,"teachers_total_fte":133.86,"number_of_schools":5,"agency_type":1,"lowest_grade_offered":-1,"highest_grade_offered":12,"county_name":"Genesee County","phone":"(810)591-0980"},{"leaid":"2629760","lea_name":"River Rouge School District","fips":26,"city_mailing":"RIVER ROUGE","state_mailing":"MI","zip_mailing":"48218","latitude":42.274994,"longitude":-83.13689,"enrollment":2464,"teachers_total_fte":105.62,"number_of_schools":5,"agency_type":1,"lowest_grade_offered":-1,"highest_grade_offered":12,"county_name":"Wayne County","phone":"(313)297-9600"},{"leaid":"2632370","lea_name":"Sparta Area Schools","fips":26,"city_mailing":"SPARTA","state_mailing":"MI","zip_mailing":"49345","latitude":43.1503,"longitude":-85.704701,"enrollment":2433,"teachers_total_fte":140.16,"number_of_schools":4,"agency_type":1,"lowest_grade_offered":-1,"highest_grade_offered":12,"county_name":"Kent County","phone":"(616)887-8253"},{"leaid":"2625680","lea_name":"North Branch Area Schools","fips":26,"city_mailing":"NORTH BRANCH","state_mailing":"MI","zip_mailing":"48461","latitude":43.22738,"longitude":-83.198041,"enrollment":2382,"teachers_total_fte":126.32,"number_of_schools":4,"agency_type":1,"lowest_grade_offered":-1,"highest_grade_offered":12,"county_name":"Lapeer County","phone":"(810)688-3570"},{"leaid":"2608770","lea_name":"Charlotte Public Schools","fips":26,"city_mailing":"CHARLOTTE","state_mailing":"MI","zip_mailing":"48813","latitude":42.558235,"longitude":-84.850833,"enrollment":2378,"teachers_total_fte":138.29,"number_of_schools":7,"agency_type":1,"lowest_grade_offered":-1,"highest_grade_offered":12,"county_name":"Eaton County","phone":"(517)541-5100"},{"leaid":"2627060","lea_name":"Otsego Public Schools","fips":26,"city_mailing":"OTSEGO","state_mailing":"MI","zip_mailing":"49078","latitude":42.456116,"longitude":-85.707985,"enrollment":2363,"teachers_total_fte":133.93,"number_of_schools":6,"agency_type":1,"lowest_grade_offered":-1,"highest_grade_offered":12,"county_name":"Allegan County","phone":"(269)694-7900"},{"leaid":"2605780","lea_name":"Big Rapids Public Schools","fips":26,"city_mailing":"BIG RAPIDS","state_mailing":"MI","zip_mailing":"49307","latitude":43.683971,"longitude":-85.504763,"enrollment":2363,"teachers_total_fte":110.6,"number_of_schools":5,"agency_type":1,"lowest_grade_offered":-1,"highest_grade_offered":12,"county_name":"Mecosta County","phone":"(231)796-2627"},{"leaid":"2621120","lea_name":"Lamphere Public Schools","fips":26,"city_mailing":"MADISON HEIGHTS","state_mailing":"MI","zip_mailing":"48071","latitude":42.52158,"longitude":-83.124471,"enrollment":2341,"teachers_total_fte":152.11,"number_of_schools":7,"agency_type":1,"lowest_grade_offered":-1,"highest_grade_offered":12,"county_name":"Oakland County","phone":"(248)589-1990"},{"leaid":"2632550","lea_name":"Spring Lake Public Schools","fips":26,"city_mailing":"SPRING LAKE","state_mailing":"MI","zip_mailing":"49456","latitude":43.071952,"longitude":-86.190625,"enrollment":2331,"teachers_total_fte":140.46,"number_of_schools":6,"agency_type":1,"lowest_grade_offered":-1,"highest_grade_offered":12,"county_name":"Ottawa County","phone":"(616)847-7919"},{"leaid":"2633840","lea_name":"Three Rivers Community Schools","fips":26,"city_mailing":"THREE RIVERS","state_mailing":"MI","zip_mailing":"49093","latitude":41.946882,"longitude":-85.613395,"enrollment":2323,"teachers_total_fte":148.41,"number_of_schools":6,"agency_type":1,"lowest_grade_offered":-1,"highest_grade_offered":12,"county_name":"St. Joseph County","phone":"(269)279-1100"},{"leaid":"2608940","lea_name":"Chelsea School District","fips":26,"city_mailing":"CHELSEA","state_mailing":"MI","zip_mailing":"48118","latitude":42.31132,"longitude":-84.008721,"enrollment":2300,"teachers_total_fte":143.5,"number_of_schools":4,"agency_type":1,"lowest_grade_offered":-1,"highest_grade_offered":12,"county_name":"Washtenaw County","phone":"(734)433-2208"},{"leaid":"2630120","lea_name":"Romulus Community Schools","fips":26,"city_mailing":"ROMULUS","state_mailing":"MI","zip_mailing":"48174","latitude":42.2187,"longitude":-83.397061,"enrollment":2281,"teachers_total_fte":138.0,"number_of_schools":8,"agency_type":1,"lowest_grade_offered":-1,"highest_grade_offered":12,"county_name":"Wayne County","phone":"(734)532-1610"},{"leaid":"2620160","lea_name":"Kelloggsville Public Schools","fips":26,"city_mailing":"GRAND RAPIDS","state_mailing":"MI","zip_mailing":"49548","latitude":42.8664,"longitude":-85.658311,"enrollment":2272,"teachers_total_fte":127.47,"number_of_schools":7,"agency_type":1,"lowest_grade_offered":-1,"highest_grade_offered":12,"county_name":"Kent County","phone":"(616)538-7460"},{"leaid":"2612450","lea_name":"Eastpointe Community Schools","fips":26,"city_mailing":"Eastpointe","state_mailing":"MI","zip_mailing":"48021","latitude":42.476994,"longitude":-82.927845,"enrollment":2261,"teachers_total_fte":145.98,"number_of_schools":8,"agency_type":1,"lowest_grade_offered":-1,"highest_grade_offered":12,"county_name":"Macomb County","phone":"(586)533-3023"},{"leaid":"2614460","lea_name":"Fitzgerald Public Schools","fips":26,"city_mailing":"WARREN","state_mailing":"MI","zip_mailing":"48091","latitude":42.464785,"longitude":-83.063554,"enrollment":2202,"teachers_total_fte":178.8,"number_of_schools":6,"agency_type":1,"lowest_grade_offered":-1,"highest_grade_offered":12,"county_name":"Macomb County","phone":"(586)757-1750"},{"leaid":"2602220","lea_name":"Allegan Public Schools","fips":26,"city_mailing":"ALLEGAN","state_mailing":"MI","zip_mailing":"49010","latitude":42.522971,"longitude":-85.842699,"enrollment":2198,"teachers_total_fte":129.0,"number_of_schools":8,"agency_type":1,"lowest_grade_offered":-1,"highest_grade_offered":12,"county_name":"Allegan County","phone":"(269)673-5431"},{"leaid":"2627660","lea_name":"Paw Paw Public School District","fips":26,"city_mailing":"Paw Paw","state_mailing":"MI","zip_mailing":"49079","latitude":42.21179,"longitude":-85.900621,"enrollment":2191,"teachers_total_fte":128.48,"number_of_schools":5,"agency_type":1,"lowest_grade_offered":-1,"highest_grade_offered":12,"county_name":"Van Buren County","phone":"(269)415-5200"},{"leaid":"2626760","lea_name":"Orchard View Schools","fips":26,"city_mailing":"MUSKEGON","state_mailing":"MI","zip_mailing":"49442","latitude":43.251516,"longitude":-86.184717,"enrollment":2171,"teachers_total_fte":120.5,"number_of_schools":5,"agency_type":1,"lowest_grade_offered":-1,"highest_grade_offered":12,"county_name":"Muskegon County","phone":"(231)760-1310"},{"leaid":"2628140","lea_name":"Pinckney Community Schools","fips":26,"city_mailing":"PINCKNEY","state_mailing":"MI","zip_mailing":"48169","latitude":42.459831,"longitude":-83.903612,"enrollment":2132,"teachers_total_fte":121.9,"number_of_schools":6,"agency_type":1,"lowest_grade_offered":-1,"highest_grade_offered":12,"county_name":"Livingston County","phone":"(810)225-3900"},{"leaid":"2613500","lea_name":"Escanaba Area Public Schools","fips":26,"city_mailing":"ESCANABA","state_mailing":"MI","zip_mailing":"49829","latitude":45.74581,"longitude":-87.06878,"enrollment":2129,"teachers_total_fte":119.52,"number_of_schools":5,"agency_type":1,"lowest_grade_offered":0,"highest_grade_offered":12,"county_name":"Delta County","phone":"(906)786-5411"},{"leaid":"2606570","lea_name":"Brandon School District","fips":26,"city_mailing":"ORTONVILLE","state_mailing":"MI","zip_mailing":"48462","latitude":42.837743,"longitude":-83.440848,"enrollment":2128,"teachers_total_fte":161.37,"number_of_schools":5,"agency_type":1,"lowest_grade_offered":-1,"highest_grade_offered":12,"county_name":"Oakland County","phone":"(248)627-1802"},{"leaid":"2615150","lea_name":"Fremont Public School District","fips":26,"city_mailing":"Fremont","state_mailing":"MI","zip_mailing":"49412","latitude":43.46211,"longitude":-85.936231,"enrollment":2092,"teachers_total_fte":119.4,"number_of_schools":5,"agency_type":1,"lowest_grade_offered":-1,"highest_grade_offered":12,"county_name":"Newaygo County","phone":"(231)924-2350"},{"leaid":"2629460","lea_name":"Redford Union School District","fips":26,"city_mailing":"Redford","state_mailing":"MI","zip_mailing":"48240","latitude":42.4202,"longitude":-83.289081,"enrollment":2075,"teachers_total_fte":133.87,"number_of_schools":8,"agency_type":1,"lowest_grade_offered":-1,"highest_grade_offered":12,"county_name":"Wayne County","phone":"(313)242-6000"},{"leaid":"2622200","lea_name":"Ludington Area School District","fips":26,"city_mailing":"LUDINGTON","state_mailing":"MI","zip_mailing":"49431","latitude":43.9633,"longitude":-86.4387,"enrollment":2072,"teachers_total_fte":116.52,"number_of_schools":3,"agency_type":1,"lowest_grade_offered":-1,"highest_grade_offered":12,"county_name":"Mason County","phone":"(231)845-7303"},{"leaid":"2615060","lea_name":"Freeland Community School District","fips":26,"city_mailing":"FREELAND","state_mailing":"MI","zip_mailing":"48623","latitude":43.517998,"longitude":-84.114336,"enrollment":2051,"teachers_total_fte":100.58,"number_of_schools":3,"agency_type":1,"lowest_grade_offered":-1,"highest_grade_offered":12,"county_name":"Saginaw County","phone":"(989)695-5527"},{"leaid":"2629120","lea_name":"Portland Public School District","fips":26,"city_mailing":"PORTLAND","state_mailing":"MI","zip_mailing":"48875","latitude":42.881121,"longitude":-84.918723,"enrollment":2036,"teachers_total_fte":125.32,"number_of_schools":4,"agency_type":1,"lowest_grade_offered":-1,"highest_grade_offered":12,"county_name":"Ionia County","phone":"(517)647-4161"},{"leaid":"2616110","lea_name":"Godwin Heights Public Schools","fips":26,"city_mailing":"GRAND RAPIDS","state_mailing":"MI","zip_mailing":"49548","latitude":42.8987,"longitude":-85.6659,"enrollment":2026,"teachers_total_fte":118.58,"number_of_schools":5,"agency_type":1,"lowest_grade_offered":-1,"highest_grade_offered":12,"county_name":"Kent County","phone":"(616)252-2090"},{"leaid":"2620670","lea_name":"Lake Fenton Community Schools","fips":26,"city_mailing":"FENTON","state_mailing":"MI","zip_mailing":"48430","latitude":42.859911,"longitude":-83.727001,"enrollment":2005,"teachers_total_fte":111.09,"number_of_schools":4,"agency_type":1,"lowest_grade_offered":-1,"highest_grade_offered":12,"county_name":"Genesee County","phone":"(810)591-2532"},{"leaid":"2634680","lea_name":"Van Dyke Public Schools","fips":26,"city_mailing":"WARREN","state_mailing":"MI","zip_mailing":"48089","latitude":42.46768,"longitude":-83.018171,"enrollment":2004,"teachers_total_fte":156.85,"number_of_schools":6,"agency_type":1,"lowest_grade_offered":-1,"highest_grade_offered":12,"county_name":"Macomb County","phone":"(586)758-8334"},{"leaid":"2627810","lea_name":"Pennfield School District","fips":26,"city_mailing":"BATTLE CREEK","state_mailing":"MI","zip_mailing":"49017","latitude":42.370615,"longitude":-85.133219,"enrollment":1986,"teachers_total_fte":101.15,"number_of_schools":5,"agency_type":1,"lowest_grade_offered":0,"highest_grade_offered":12,"county_name":"Calhoun County","phone":"(269)961-9781"},{"leaid":"2612690","lea_name":"Eaton Rapids Public Schools","fips":26,"city_mailing":"EATON RAPIDS","state_mailing":"MI","zip_mailing":"48827","latitude":42.50273,"longitude":-84.640573,"enrollment":1981,"teachers_total_fte":129.97,"number_of_schools":6,"agency_type":1,"lowest_grade_offered":-1,"highest_grade_offered":12,"county_name":"Eaton County","phone":"(517)663-8155"},{"leaid":"2606720","lea_name":"Breitung Township Schools","fips":26,"city_mailing":"KINGSFORD","state_mailing":"MI","zip_mailing":"49802","latitude":45.805267,"longitude":-88.10397,"enrollment":1972,"teachers_total_fte":111.77,"number_of_schools":3,"agency_type":1,"lowest_grade_offered":0,"highest_grade_offered":12,"county_name":"Dickinson County","phone":"(906)779-2650"},{"leaid":"2636300","lea_name":"Whitehall School District","fips":26,"city_mailing":"WHITEHALL","state_mailing":"MI","zip_mailing":"49461","latitude":43.406459,"longitude":-86.338344,"enrollment":1957,"teachers_total_fte":138.19,"number_of_schools":5,"agency_type":1,"lowest_grade_offered":-1,"highest_grade_offered":12,"county_name":"Muskegon County","phone":"(231)893-1005"},{"leaid":"2630990","lea_name":"Sault Ste. Marie Area Schools","fips":26,"city_mailing":"SAULT SAINTE MARIE","state_mailing":"MI","zip_mailing":"49783","latitude":46.480174,"longitude":-84.343907,"enrollment":1953,"teachers_total_fte":117.82,"number_of_schools":6,"agency_type":1,"lowest_grade_offered":-1,"highest_grade_offered":12,"county_name":"Chippewa County","phone":"(906)632-5653"},{"leaid":"2616320","lea_name":"Goodrich Area Schools","fips":26,"city_mailing":"GOODRICH","state_mailing":"MI","zip_mailing":"48438","latitude":42.916113,"longitude":-83.532357,"enrollment":1932,"teachers_total_fte":95.7,"number_of_schools":4,"agency_type":1,"lowest_grade_offered":-1,"highest_grade_offered":12,"county_name":"Genesee County","phone":"(810)591-2201"},{"leaid":"2623850","lea_name":"Milan Area Schools","fips":26,"city_mailing":"MILAN","state_mailing":"MI","zip_mailing":"48160","latitude":42.07939,"longitude":-83.703031,"enrollment":1918,"teachers_total_fte":122.65,"number_of_schools":6,"agency_type":1,"lowest_grade_offered":-1,"highest_grade_offered":12,"county_name":"Monroe County","phone":"(734)439-5050"},{"leaid":"2635970","lea_name":"Westwood Heights Schools","fips":26,"city_mailing":"Flint","state_mailing":"MI","zip_mailing":"48504","latitude":43.05783,"longitude":-83.751081,"enrollment":1907,"teachers_total_fte":89.17,"number_of_schools":5,"agency_type":1,"lowest_grade_offered":-1,"highest_grade_offered":12,"county_name":"Genesee County","phone":"(810)591-0870"},{"leaid":"2612150","lea_name":"Dowagiac Union Schools","fips":26,"city_mailing":"Dowagiac","state_mailing":"MI","zip_mailing":"49047","latitude":41.981186,"longitude":-86.109648,"enrollment":1900,"teachers_total_fte":112.15,"number_of_schools":7,"agency_type":1,"lowest_grade_offered":-1,"highest_grade_offered":12,"county_name":"Cass County","phone":"(269)782-4402"},{"leaid":"2626220","lea_name":"Oakridge Public Schools","fips":26,"city_mailing":"MUSKEGON","state_mailing":"MI","zip_mailing":"49442","latitude":43.247397,"longitude":-86.107784,"enrollment":1880,"teachers_total_fte":121.09,"number_of_schools":5,"agency_type":1,"lowest_grade_offered":-1,"highest_grade_offered":12,"county_name":"Muskegon County","phone":"(231)788-7100"},{"leaid":"2602640","lea_name":"Alma Public Schools","fips":26,"city_mailing":"ALMA","state_mailing":"MI","zip_mailing":"48801","latitude":43.391136,"longitude":-84.655339,"enrollment":1873,"teachers_total_fte":119.77,"number_of_schools":5,"agency_type":1,"lowest_grade_offered":-1,"highest_grade_offered":12,"county_name":"Gratiot County","phone":"(989)463-3111"},{"leaid":"2635850","lea_name":"West Branch-Rose City Area Schools","fips":26,"city_mailing":"West Branch","state_mailing":"MI","zip_mailing":"48661","latitude":44.306387,"longitude":-84.127663,"enrollment":1871,"teachers_total_fte":110.48,"number_of_schools":4,"agency_type":1,"lowest_grade_offered":-1,"highest_grade_offered":12,"county_name":"Ogemaw County","phone":"(989)343-2000"},{"leaid":"2611140","lea_name":"Croswell-Lexington Community School District","fips":26,"city_mailing":"CROSWELL","state_mailing":"MI","zip_mailing":"48422","latitude":43.26652,"longitude":-82.603946,"enrollment":1868,"teachers_total_fte":105.75,"number_of_schools":5,"agency_type":1,"lowest_grade_offered":-1,"highest_grade_offered":12,"county_name":"Sanilac County","phone":"(810)679-1000"},{"leaid":"2636420","lea_name":"Williamston Community Schools","fips":26,"city_mailing":"WILLIAMSTON","state_mailing":"MI","zip_mailing":"48895","latitude":42.69172,"longitude":-84.274921,"enrollment":1846,"teachers_total_fte":105.57,"number_of_schools":4,"agency_type":1,"lowest_grade_offered":-1,"highest_grade_offered":12,"county_name":"Ingham County","phone":"(517)655-4361"},{"leaid":"2610080","lea_name":"Clintondale Community Schools","fips":26,"city_mailing":"CLINTON TOWNSHIP","state_mailing":"MI","zip_mailing":"48035","latitude":42.555768,"longitude":-82.909849,"enrollment":1823,"teachers_total_fte":110.46,"number_of_schools":6,"agency_type":1,"lowest_grade_offered":-1,"highest_grade_offered":12,"county_name":"Macomb County","phone":"(586)791-6300"},{"leaid":"2605820","lea_name":"Birch Run Area School District","fips":26,"city_mailing":"BIRCH RUN","state_mailing":"MI","zip_mailing":"48415","latitude":43.243479,"longitude":-83.795961,"enrollment":1817,"teachers_total_fte":93.93,"number_of_schools":4,"agency_type":1,"lowest_grade_offered":-1,"highest_grade_offered":12,"county_name":"Saginaw County","phone":"(989)624-9307"},{"leaid":"2609560","lea_name":"Chippewa Hills School District","fips":26,"city_mailing":"REMUS","state_mailing":"MI","zip_mailing":"49340","latitude":43.664008,"longitude":-85.15138,"enrollment":1814,"teachers_total_fte":104.03,"number_of_schools":6,"agency_type":1,"lowest_grade_offered":-1,"highest_grade_offered":12,"county_name":"Mecosta County","phone":"(989)967-2000"},{"leaid":"2632300","lea_name":"South Haven Public Schools","fips":26,"city_mailing":"SOUTH HAVEN","state_mailing":"MI","zip_mailing":"49090","latitude":42.39678,"longitude":-86.272071,"enrollment":1798,"teachers_total_fte":128.38,"number_of_schools":6,"agency_type":1,"lowest_grade_offered":-1,"highest_grade_offered":12,"county_name":"Van Buren County","phone":"(269)637-0521"},{"leaid":"2612300","lea_name":"Dundee Community Schools","fips":26,"city_mailing":"DUNDEE","state_mailing":"MI","zip_mailing":"48131","latitude":41.96043,"longitude":-83.658694,"enrollment":1795,"teachers_total_fte":89.97,"number_of_schools":4,"agency_type":1,"lowest_grade_offered":-1,"highest_grade_offered":12,"county_name":"Monroe County","phone":"(734)529-2350"},{"leaid":"2610590","lea_name":"Comstock Public Schools","fips":26,"city_mailing":"KALAMAZOO","state_mailing":"MI","zip_mailing":"49048","latitude":42.31296,"longitude":-85.541411,"enrollment":1794,"teachers_total_fte":110.53,"number_of_schools":5,"agency_type":1,"lowest_grade_offered":-1,"highest_grade_offered":12,"county_name":"Kalamazoo County","phone":"(269)250-8900"},{"leaid":"2633410","lea_name":"Swan Valley School District","fips":26,"city_mailing":"SAGINAW","state_mailing":"MI","zip_mailing":"48609","latitude":43.409163,"longitude":-84.077471,"enrollment":1790,"teachers_total_fte":98.61,"number_of_schools":5,"agency_type":1,"lowest_grade_offered":-1,"highest_grade_offered":12,"county_name":"Saginaw County","phone":"(989)921-3701"},{"leaid":"2631380","lea_name":"Shepherd Public School District","fips":26,"city_mailing":"SHEPHERD","state_mailing":"MI","zip_mailing":"48883","latitude":43.52452,"longitude":-84.694331,"enrollment":1785,"teachers_total_fte":96.85,"number_of_schools":5,"agency_type":1,"lowest_grade_offered":0,"highest_grade_offered":12,"county_name":"Isabella County","phone":"(989)828-5520"},{"leaid":"2610620","lea_name":"Comstock Park Public Schools","fips":26,"city_mailing":"COMSTOCK PARK","state_mailing":"MI","zip_mailing":"49321","latitude":43.03645,"longitude":-85.664401,"enrollment":1776,"teachers_total_fte":124.49,"number_of_schools":5,"agency_type":1,"lowest_grade_offered":-1,"highest_grade_offered":12,"county_name":"Kent County","phone":"(616)254-5002"},{"leaid":"2609840","lea_name":"Clarenceville School District","fips":26,"city_mailing":"LIVONIA","state_mailing":"MI","zip_mailing":"48152","latitude":42.43712,"longitude":-83.33625,"enrollment":1773,"teachers_total_fte":104.65,"number_of_schools":4,"agency_type":1,"lowest_grade_offered":-1,"highest_grade_offered":12,"county_name":"Wayne County","phone":"(248)919-0400"},{"leaid":"2607080","lea_name":"Flat Rock Community Schools","fips":26,"city_mailing":"FLAT ROCK","state_mailing":"MI","zip_mailing":"48134","latitude":42.09549,"longitude":-83.289101,"enrollment":1772,"teachers_total_fte":96.5,"number_of_schools":5,"agency_type":1,"lowest_grade_offered":-1,"highest_grade_offered":12,"county_name":"Wayne County","phone":"(734)535-6500"},{"leaid":"2619100","lea_name":"Imlay City Community Schools","fips":26,"city_mailing":"IMLAY CITY","state_mailing":"MI","zip_mailing":"48444","latitude":43.013814,"longitude":-83.085686,"enrollment":1770,"teachers_total_fte":98.78,"number_of_schools":5,"agency_type":1,"lowest_grade_offered":-1,"highest_grade_offered":12,"county_name":"Lapeer County","phone":"(810)724-9861"},{"leaid":"2636600","lea_name":"Yale Public Schools","fips":26,"city_mailing":"YALE","state_mailing":"MI","zip_mailing":"48097","latitude":43.126351,"longitude":-82.803337,"enrollment":1758,"teachers_total_fte":98.42,"number_of_schools":6,"agency_type":1,"lowest_grade_offered":-1,"highest_grade_offered":12,"county_name":"St. Clair County","phone":"(810)387-3231"},{"leaid":"2603240","lea_name":"Armada Area Schools","fips":26,"city_mailing":"ARMADA","state_mailing":"MI","zip_mailing":"48005","latitude":42.8467,"longitude":-82.8833,"enrollment":1746,"teachers_total_fte":103.04,"number_of_schools":4,"agency_type":1,"lowest_grade_offered":-1,"highest_grade_offered":12,"county_name":"Macomb County","phone":"(586)784-2112"},{"leaid":"2633930","lea_name":"Tri County Area Schools","fips":26,"city_mailing":"SAND LAKE","state_mailing":"MI","zip_mailing":"49343","latitude":43.290037,"longitude":-85.51927,"enrollment":1719,"teachers_total_fte":105.01,"number_of_schools":4,"agency_type":1,"lowest_grade_offered":-1,"highest_grade_offered":12,"county_name":"Kent County","phone":"(616)636-5454"},{"leaid":"2607320","lea_name":"Bullock Creek School District","fips":26,"city_mailing":"MIDLAND","state_mailing":"MI","zip_mailing":"48640","latitude":43.56985,"longitude":-84.293898,"enrollment":1697,"teachers_total_fte":102.67,"number_of_schools":5,"agency_type":1,"lowest_grade_offered":-1,"highest_grade_offered":12,"county_name":"Midland County","phone":"(989)631-9022"},{"leaid":"2608070","lea_name":"Carrollton School District","fips":26,"city_mailing":"SAGINAW","state_mailing":"MI","zip_mailing":"48604","latitude":43.463058,"longitude":-83.941497,"enrollment":1681,"teachers_total_fte":103.8,"number_of_schools":5,"agency_type":1,"lowest_grade_offered":-1,"highest_grade_offered":12,"county_name":"Saginaw County","phone":"(989)754-1475"},{"leaid":"2604530","lea_name":"Belding Area School District","fips":26,"city_mailing":"Belding","state_mailing":"MI","zip_mailing":"48809","latitude":43.091147,"longitude":-85.221608,"enrollment":1662,"teachers_total_fte":106.4,"number_of_schools":4,"agency_type":1,"lowest_grade_offered":-1,"highest_grade_offered":12,"county_name":"Ionia County","phone":"(616)794-4700"},{"leaid":"2620980","lea_name":"Lakewood Public Schools","fips":26,"city_mailing":"Woodland","state_mailing":"MI","zip_mailing":"48897","latitude":42.726434,"longitude":-85.138411,"enrollment":1653,"teachers_total_fte":83.06,"number_of_schools":4,"agency_type":1,"lowest_grade_offered":-1,"highest_grade_offered":12,"county_name":"Barry County","phone":"(616)374-8043"},{"leaid":"2616080","lea_name":"Godfrey-Lee Public Schools","fips":26,"city_mailing":"WYOMING","state_mailing":"MI","zip_mailing":"49509","latitude":42.928,"longitude":-85.6998,"enrollment":1650,"teachers_total_fte":108.99,"number_of_schools":5,"agency_type":1,"lowest_grade_offered":-1,"highest_grade_offered":12,"county_name":"Kent County","phone":"(616)241-4722"},{"leaid":"2611030","lea_name":"Crawford AuSable Schools","fips":26,"city_mailing":"GRAYLING","state_mailing":"MI","zip_mailing":"49738","latitude":44.700696,"longitude":-84.730509,"enrollment":1647,"teachers_total_fte":100.61,"number_of_schools":4,"agency_type":1,"lowest_grade_offered":-1,"highest_grade_offered":12,"county_name":"Crawford County","phone":"(989)344-3500"},{"leaid":"2622320","lea_name":"Madison School District","fips":26,"city_mailing":"ADRIAN","state_mailing":"MI","zip_mailing":"49221","latitude":41.868559,"longitude":-84.020029,"enrollment":1644,"teachers_total_fte":92.53,"number_of_schools":3,"agency_type":1,"lowest_grade_offered":-1,"highest_grade_offered":12,"county_name":"Lenawee County","phone":"(517)263-0741"},{"leaid":"2610860","lea_name":"Corunna Public School District","fips":26,"city_mailing":"CORUNNA","state_mailing":"MI","zip_mailing":"48817","latitude":42.98065,"longitude":-84.117491,"enrollment":1642,"teachers_total_fte":104.05,"number_of_schools":4,"agency_type":1,"lowest_grade_offered":-1,"highest_grade_offered":12,"county_name":"Shiawassee County","phone":"(989)743-6338"},{"leaid":"2616500","lea_name":"Grant Public School District","fips":26,"city_mailing":"Grant","state_mailing":"MI","zip_mailing":"49327","latitude":43.333927,"longitude":-85.802152,"enrollment":1638,"teachers_total_fte":93.13,"number_of_schools":5,"agency_type":1,"lowest_grade_offered":0,"highest_grade_offered":12,"county_name":"Newaygo County","phone":"(231)834-5621"},{"leaid":"2609750","lea_name":"Clare Public Schools","fips":26,"city_mailing":"CLARE","state_mailing":"MI","zip_mailing":"48617","latitude":43.823034,"longitude":-84.765842,"enrollment":1605,"teachers_total_fte":92.0,"number_of_schools":4,"agency_type":1,"lowest_grade_offered":0,"highest_grade_offered":12,"county_name":"Clare County","phone":"(989)386-9945"},{"leaid":"2615990","lea_name":"Gladwin Community Schools","fips":26,"city_mailing":"GLADWIN","state_mailing":"MI","zip_mailing":"48624","latitude":43.983899,"longitude":-84.491988,"enrollment":1605,"teachers_total_fte":83.33,"number_of_schools":5,"agency_type":1,"lowest_grade_offered":-1,"highest_grade_offered":12,"county_name":"Gladwin County","phone":"(989)426-9255"},{"leaid":"2617220","lea_name":"Grosse Ile Township Schools","fips":26,"city_mailing":"GROSSE ILE","state_mailing":"MI","zip_mailing":"48138","latitude":42.13504,"longitude":-83.140754,"enrollment":1594,"teachers_total_fte":90.48,"number_of_schools":4,"agency_type":1,"lowest_grade_offered":-1,"highest_grade_offered":12,"county_name":"Wayne County","phone":"(734)362-2581"},{"leaid":"2627420","lea_name":"Parchment School District","fips":26,"city_mailing":"KALAMAZOO","state_mailing":"MI","zip_mailing":"49004","latitude":42.330996,"longitude":-85.559313,"enrollment":1586,"teachers_total_fte":94.64,"number_of_schools":6,"agency_type":1,"lowest_grade_offered":-1,"highest_grade_offered":12,"county_name":"Kalamazoo County","phone":"(269)488-1050"},{"leaid":"2629670","lea_name":"Richmond Community Schools","fips":26,"city_mailing":"RICHMOND","state_mailing":"MI","zip_mailing":"48062","latitude":42.808451,"longitude":-82.761365,"enrollment":1585,"teachers_total_fte":91.8,"number_of_schools":3,"agency_type":1,"lowest_grade_offered":-1,"highest_grade_offered":12,"county_name":"Macomb County","phone":"(586)727-3565"},{"leaid":"2607140","lea_name":"Buchanan Community School District","fips":26,"city_mailing":"BUCHANAN","state_mailing":"MI","zip_mailing":"49107","latitude":41.824408,"longitude":-86.367466,"enrollment":1566,"teachers_total_fte":90.7,"number_of_schools":6,"agency_type":1,"lowest_grade_offered":-1,"highest_grade_offered":12,"county_name":"Berrien County","phone":"(269)695-8401"},{"leaid":"2624720","lea_name":"Mount Morris Consolidated School District","fips":26,"city_mailing":"MOUNT MORRIS","state_mailing":"MI","zip_mailing":"48458","latitude":43.12378,"longitude":-83.69007,"enrollment":1555,"teachers_total_fte":85.43,"number_of_schools":9,"agency_type":1,"lowest_grade_offered":-1,"highest_grade_offered":12,"county_name":"Genesee County","phone":"(810)591-8760"},{"leaid":"2625020","lea_name":"Negaunee Public Schools","fips":26,"city_mailing":"NEGAUNEE","state_mailing":"MI","zip_mailing":"49866","latitude":46.499412,"longitude":-87.608905,"enrollment":1552,"teachers_total_fte":90.42,"number_of_schools":3,"agency_type":1,"lowest_grade_offered":-1,"highest_grade_offered":12,"county_name":"Marquette County","phone":"(906)475-4157"},{"leaid":"2625320","lea_name":"Newaygo Public School District","fips":26,"city_mailing":"NEWAYGO","state_mailing":"MI","zip_mailing":"49337","latitude":43.41172,"longitude":-85.800271,"enrollment":1536,"teachers_total_fte":84.95,"number_of_schools":3,"agency_type":1,"lowest_grade_offered":0,"highest_grade_offered":12,"county_name":"Newaygo County","phone":"(231)652-6984"},{"leaid":"2632940","lea_name":"Standish-Sterling Community School District","fips":26,"city_mailing":"STANDISH","state_mailing":"MI","zip_mailing":"48658","latitude":44.010871,"longitude":-83.96114,"enrollment":1505,"teachers_total_fte":82.89,"number_of_schools":3,"agency_type":1,"lowest_grade_offered":-1,"highest_grade_offered":12,"county_name":"Arenac County","phone":"(989)846-3670"},{"leaid":"2608910","lea_name":"Cheboygan Area Schools","fips":26,"city_mailing":"Cheboygan","state_mailing":"MI","zip_mailing":"49721","latitude":45.571477,"longitude":-84.524096,"enrollment":1505,"teachers_total_fte":94.73,"number_of_schools":5,"agency_type":1,"lowest_grade_offered":0,"highest_grade_offered":12,"county_name":"Cheboygan County","phone":"(231)627-4436"},{"leaid":"2613530","lea_name":"Essexville-Hampton Public Schools","fips":26,"city_mailing":"ESSEXVILLE","state_mailing":"MI","zip_mailing":"48732","latitude":43.60691,"longitude":-83.836721,"enrollment":1500,"teachers_total_fte":102.11,"number_of_schools":4,"agency_type":1,"lowest_grade_offered":-1,"highest_grade_offered":12,"county_name":"Bay County","phone":"(989)894-9700"},{"leaid":"2608040","lea_name":"Caro Community Schools","fips":26,"city_mailing":"CARO","state_mailing":"MI","zip_mailing":"48723","latitude":43.491616,"longitude":-83.41032,"enrollment":1496,"teachers_total_fte":85.16,"number_of_schools":5,"agency_type":1,"lowest_grade_offered":-1,"highest_grade_offered":12,"county_name":"Tuscola County","phone":"(989)673-3160"},{"leaid":"2632220","lea_name":"South Lake Schools","fips":26,"city_mailing":"SAINT CLAIR SHORES","state_mailing":"MI","zip_mailing":"48080","latitude":42.46758,"longitude":-82.913081,"enrollment":1496,"teachers_total_fte":88.86,"number_of_schools":4,"agency_type":1,"lowest_grade_offered":-1,"highest_grade_offered":12,"county_name":"Macomb County","phone":"(586)435-1600"},{"leaid":"2620380","lea_name":"Kingsley Area Schools","fips":26,"city_mailing":"KINGSLEY","state_mailing":"MI","zip_mailing":"49649","latitude":44.58123,"longitude":-85.540401,"enrollment":1493,"teachers_total_fte":88.46,"number_of_schools":3,"agency_type":1,"lowest_grade_offered":-1,"highest_grade_offered":12,"county_name":"Grand Traverse County","phone":"(231)263-5261"},{"leaid":"2611640","lea_name":"Westwood Community Schools","fips":26,"city_mailing":"DEARBORN HEIGHTS","state_mailing":"MI","zip_mailing":"48125","latitude":42.28658,"longitude":-83.289821,"enrollment":1491,"teachers_total_fte":88.92,"number_of_schools":6,"agency_type":1,"lowest_grade_offered":-1,"highest_grade_offered":12,"county_name":"Wayne County","phone":"(313)565-1900"},{"leaid":"2615970","lea_name":"Gladstone Area Schools","fips":26,"city_mailing":"GLADSTONE","state_mailing":"MI","zip_mailing":"49837","latitude":45.842182,"longitude":-87.020909,"enrollment":1490,"teachers_total_fte":83.89,"number_of_schools":4,"agency_type":1,"lowest_grade_offered":0,"highest_grade_offered":12,"county_name":"Delta County","phone":"(906)428-2417"},{"leaid":"2606990","lea_name":"Columbia School District","fips":26,"city_mailing":"BROOKLYN","state_mailing":"MI","zip_mailing":"49230","latitude":42.092021,"longitude":-84.282169,"enrollment":1485,"teachers_total_fte":85.9,"number_of_schools":4,"agency_type":1,"lowest_grade_offered":-1,"highest_grade_offered":12,"county_name":"Jackson County","phone":"(517)592-6641"},{"leaid":"2618570","lea_name":"Hopkins Public Schools","fips":26,"city_mailing":"HOPKINS","state_mailing":"MI","zip_mailing":"49328","latitude":42.62156,"longitude":-85.757351,"enrollment":1480,"teachers_total_fte":83.58,"number_of_schools":4,"agency_type":1,"lowest_grade_offered":-1,"highest_grade_offered":12,"county_name":"Allegan County","phone":"(269)793-7261"},{"leaid":"2624420","lea_name":"Montrose Community Schools","fips":26,"city_mailing":"MONTROSE","state_mailing":"MI","zip_mailing":"48457","latitude":43.18405,"longitude":-83.884361,"enrollment":1466,"teachers_total_fte":85.6,"number_of_schools":4,"agency_type":1,"lowest_grade_offered":-1,"highest_grade_offered":12,"county_name":"Genesee County","phone":"(810)591-8811"},{"leaid":"2635460","lea_name":"Watervliet School District","fips":26,"city_mailing":"WATERVLIET","state_mailing":"MI","zip_mailing":"49098","latitude":42.187638,"longitude":-86.250851,"enrollment":1452,"teachers_total_fte":80.63,"number_of_schools":5,"agency_type":1,"lowest_grade_offered":-1,"highest_grade_offered":12,"county_name":"Berrien County","phone":"(269)463-0300"},{"leaid":"2606780","lea_name":"Bridgeport-Spaulding Community School District","fips":26,"city_mailing":"Bridgeport","state_mailing":"MI","zip_mailing":"48722","latitude":43.355172,"longitude":-83.868999,"enrollment":1452,"teachers_total_fte":72.9,"number_of_schools":4,"agency_type":1,"lowest_grade_offered":-1,"highest_grade_offered":12,"county_name":"Saginaw County","phone":"(989)777-1770"},{"leaid":"2604830","lea_name":"Benton Harbor Area Schools","fips":26,"city_mailing":"BENTON HARBOR","state_mailing":"MI","zip_mailing":"49022","latitude":42.102659,"longitude":-86.457062,"enrollment":1448,"teachers_total_fte":70.27,"number_of_schools":6,"agency_type":1,"lowest_grade_offered":-1,"highest_grade_offered":12,"county_name":"Berrien County","phone":"(269)605-1000"},{"leaid":"2628890","lea_name":"Houghton-Portage Township Schools","fips":26,"city_mailing":"HOUGHTON","state_mailing":"MI","zip_mailing":"49931","latitude":47.108969,"longitude":-88.566223,"enrollment":1445,"teachers_total_fte":79.52,"number_of_schools":3,"agency_type":1,"lowest_grade_offered":0,"highest_grade_offered":12,"county_name":"Houghton County","phone":"(906)482-0451"},{"leaid":"2625230","lea_name":"New Haven Community Schools","fips":26,"city_mailing":"NEW HAVEN","state_mailing":"MI","zip_mailing":"48048","latitude":42.73663,"longitude":-82.807741,"enrollment":1442,"teachers_total_fte":81.7,"number_of_schools":4,"agency_type":1,"lowest_grade_offered":-1,"highest_grade_offered":12,"county_name":"Macomb County","phone":"(586)749-5123"},{"leaid":"2619050","lea_name":"Ida Public School District","fips":26,"city_mailing":"IDA","state_mailing":"MI","zip_mailing":"48140","latitude":41.906194,"longitude":-83.571497,"enrollment":1440,"teachers_total_fte":81.21,"number_of_schools":3,"agency_type":1,"lowest_grade_offered":-1,"highest_grade_offered":12,"county_name":"Monroe County","phone":"(734)269-9003"},{"leaid":"2609150","lea_name":"Chesaning Union Schools","fips":26,"city_mailing":"CHESANING","state_mailing":"MI","zip_mailing":"48616","latitude":43.192885,"longitude":-84.127952,"enrollment":1419,"teachers_total_fte":86.9,"number_of_schools":4,"agency_type":1,"lowest_grade_offered":-1,"highest_grade_offered":12,"county_name":"Saginaw County","phone":"(989)845-7020"},{"leaid":"2602670","lea_name":"Almont Community Schools","fips":26,"city_mailing":"ALMONT","state_mailing":"MI","zip_mailing":"48003","latitude":42.930417,"longitude":-83.04392,"enrollment":1402,"teachers_total_fte":69.41,"number_of_schools":3,"agency_type":1,"lowest_grade_offered":-1,"highest_grade_offered":12,"county_name":"Lapeer County","phone":"(810)798-8561"},{"leaid":"2629490","lea_name":"Reed City Area Public Schools","fips":26,"city_mailing":"Reed City","state_mailing":"MI","zip_mailing":"49677","latitude":43.866514,"longitude":-85.512644,"enrollment":1394,"teachers_total_fte":78.71,"number_of_schools":4,"agency_type":1,"lowest_grade_offered":-1,"highest_grade_offered":12,"county_name":"Osceola County","phone":"(231)832-2201"},{"leaid":"2620050","lea_name":"Kalkaska Public Schools","fips":26,"city_mailing":"Kalkaska","state_mailing":"MI","zip_mailing":"49646","latitude":44.732614,"longitude":-85.181101,"enrollment":1393,"teachers_total_fte":93.5,"number_of_schools":5,"agency_type":1,"lowest_grade_offered":-1,"highest_grade_offered":12,"county_name":"Kalkaska County","phone":"(231)258-9109"},{"leaid":"2614760","lea_name":"Frankenmuth School District","fips":26,"city_mailing":"FRANKENMUTH","state_mailing":"MI","zip_mailing":"48734","latitude":43.335042,"longitude":-83.732336,"enrollment":1374,"teachers_total_fte":63.09,"number_of_schools":3,"agency_type":1,"lowest_grade_offered":-1,"highest_grade_offered":12,"county_name":"Saginaw County","phone":"(989)652-9958"},{"leaid":"2608640","lea_name":"Central Montcalm Public Schools","fips":26,"city_mailing":"STANTON","state_mailing":"MI","zip_mailing":"48888","latitude":43.274591,"longitude":-85.076351,"enrollment":1374,"teachers_total_fte":79.7,"number_of_schools":3,"agency_type":1,"lowest_grade_offered":-1,"highest_grade_offered":12,"county_name":"Montcalm County","phone":"(989)831-2001"},{"leaid":"2602190","lea_name":"Algonac Community School District","fips":26,"city_mailing":"CLAY","state_mailing":"MI","zip_mailing":"48001","latitude":42.626915,"longitude":-82.582519,"enrollment":1364,"teachers_total_fte":72.51,"number_of_schools":4,"agency_type":1,"lowest_grade_offered":-1,"highest_grade_offered":12,"county_name":"St. Clair County","phone":"(810)794-9364"},{"leaid":"2617880","lea_name":"Hartford Public School District","fips":26,"city_mailing":"HARTFORD","state_mailing":"MI","zip_mailing":"49057","latitude":42.211587,"longitude":-86.166177,"enrollment":1364,"teachers_total_fte":72.56,"number_of_schools":4,"agency_type":1,"lowest_grade_offered":0,"highest_grade_offered":12,"county_name":"Van Buren County","phone":"(269)621-7001"},{"leaid":"2607690","lea_name":"Calumet Public Schools","fips":26,"city_mailing":"CALUMET","state_mailing":"MI","zip_mailing":"49913","latitude":47.244776,"longitude":-88.447391,"enrollment":1359,"teachers_total_fte":84.1,"number_of_schools":4,"agency_type":1,"lowest_grade_offered":0,"highest_grade_offered":12,"county_name":"Houghton County","phone":"(906)337-0311"},{"leaid":"2619800","lea_name":"Jefferson Schools","fips":26,"city_mailing":"NEWPORT","state_mailing":"MI","zip_mailing":"48166","latitude":41.956588,"longitude":-83.311695,"enrollment":1357,"teachers_total_fte":68.52,"number_of_schools":4,"agency_type":1,"lowest_grade_offered":-1,"highest_grade_offered":12,"county_name":"Monroe County","phone":"(734)322-2551"},{"leaid":"2624180","lea_name":"Montague Area Public Schools","fips":26,"city_mailing":"MONTAGUE","state_mailing":"MI","zip_mailing":"49437","latitude":43.422632,"longitude":-86.363075,"enrollment":1353,"teachers_total_fte":85.99,"number_of_schools":4,"agency_type":1,"lowest_grade_offered":-1,"highest_grade_offered":12,"county_name":"Muskegon County","phone":"(231)893-1515"},{"leaid":"2623580","lea_name":"Meridian Public Schools","fips":26,"city_mailing":"SANFORD","state_mailing":"MI","zip_mailing":"48657","latitude":43.710234,"longitude":-84.369372,"enrollment":1347,"teachers_total_fte":82.38,"number_of_schools":3,"agency_type":1,"lowest_grade_offered":-1,"highest_grade_offered":12,"county_name":"Midland County","phone":"(989)687-3200"},