[{"leaid":"3174820","lea_name":"Omaha Public Schools","fips":31,"city_mailing":"OMAHA","state_mailing":"NE","zip_mailing":"68131","latitude":41.267518,"longitude":-95.960099,"enrollment":51754,"teachers_total_fte":3194.33,"number_of_schools":111,"agency_type":1,"lowest_grade_offered":-1,"highest_grade_offered":12,"county_name":"Douglas County","phone":"(531)299-0220"},{"leaid":"3172840","lea_name":"Lincoln Public Schools","fips":31,"city_mailing":"LINCOLN","state_mailing":"NE","zip_mailing":"68510","latitude":40.812957,"longitude":-96.640734,"enrollment":41850,"teachers_total_fte":3023.83,"number_of_schools":76,"agency_type":1,"lowest_grade_offered":-1,"highest_grade_offered":12,"county_name":"Lancaster County","phone":"(402)436-1000"},{"leaid":"3173740","lea_name":"Millard Public Schools","fips":31,"city_mailing":"OMAHA","state_mailing":"NE","zip_mailing":"68137","latitude":41.202068,"longitude":-96.143263,"enrollment":23637,"teachers_total_fte":1510.31,"number_of_schools":36,"agency_type":1,"lowest_grade_offered":-1,"highest_grade_offered":12,"county_name":"Douglas County","phone":"(402)715-8200"},{"leaid":"3175270","lea_name":"Papillion-La Vista Community Schools","fips":31,"city_mailing":"PAPILLION","state_mailing":"NE","zip_mailing":"68046","latitude":41.153062,"longitude":-96.043834,"enrollment":12031,"teachers_total_fte":819.3,"number_of_schools":22,"agency_type":1,"lowest_grade_offered":-1,"highest_grade_offered":12,"county_name":"Sarpy County","phone":"(402)537-9998"},{"leaid":"3170110","lea_name":"Elkhorn Public Schools","fips":31,"city_mailing":"ELKHORN","state_mailing":"NE","zip_mailing":"68022","latitude":41.285018,"longitude":-96.23909,"enrollment":11319,"teachers_total_fte":770.83,"number_of_schools":20,"agency_type":1,"lowest_grade_offered":-1,"highest_grade_offered":12,"county_name":"Douglas County","phone":"(402)289-2579"},{"leaid":"3100016","lea_name":"Grand Island Public Schools","fips":31,"city_mailing":"GRAND ISLAND","state_mailing":"NE","zip_mailing":"68803","latitude":40.916334,"longitude":-98.37677,"enrollment":9990,"teachers_total_fte":648.51,"number_of_schools":23,"agency_type":1,"lowest_grade_offered":-1,"highest_grade_offered":12,"county_name":"Hall County","phone":"(308)385-5900"},{"leaid":"3103810","lea_name":"Bellevue Public Schools","fips":31,"city_mailing":"BELLEVUE","state_mailing":"NE","zip_mailing":"68005","latitude":41.141562,"longitude":-95.927746,"enrollment":9498,"teachers_total_fte":660.1,"number_of_schools":21,"agency_type":1,"lowest_grade_offered":-1,"highest_grade_offered":12,"county_name":"Sarpy County","phone":"(402)293-4000"},{"leaid":"3171220","lea_name":"Gretna Public Schools","fips":31,"city_mailing":"GRETNA","state_mailing":"NE","zip_mailing":"68028","latitude":41.132982,"longitude":-96.252636,"enrollment":6529,"teachers_total_fte":417.78,"number_of_schools":10,"agency_type":1,"lowest_grade_offered":-1,"highest_grade_offered":12,"county_name":"Sarpy County","phone":"(402)332-3265"},{"leaid":"3178660","lea_name":"Westside Community Schools","fips":31,"city_mailing":"OMAHA","state_mailing":"NE","zip_mailing":"68114","latitude":41.25018,"longitude":-96.030912,"enrollment":6271,"teachers_total_fte":441.3,"number_of_schools":14,"agency_type":1,"lowest_grade_offered":-1,"highest_grade_offered":12,"county_name":"Douglas County","phone":"(402)390-2100"},{"leaid":"3172390","lea_name":"Kearney Public Schools","fips":31,"city_mailing":"KEARNEY","state_mailing":"NE","zip_mailing":"68845","latitude":40.699172,"longitude":-99.086761,"enrollment":6152,"teachers_total_fte":380.73,"number_of_schools":15,"agency_type":1,"lowest_grade_offered":-1,"highest_grade_offered":12,"county_name":"Buffalo County","phone":"(308)698-8000"},{"leaid":"3170710","lea_name":"Fremont Public Schools","fips":31,"city_mailing":"FREMONT","state_mailing":"NE","zip_mailing":"68025","latitude":41.438234,"longitude":-96.496261,"enrollment":5217,"teachers_total_fte":314.8,"number_of_schools":14,"agency_type":1,"lowest_grade_offered":-1,"highest_grade_offered":12,"county_name":"Dodge County","phone":"(402)727-3000"},{"leaid":"3174430","lea_name":"Norfolk Public Schools","fips":31,"city_mailing":"NORFOLK","state_mailing":"NE","zip_mailing":"68701","latitude":42.030674,"longitude":-97.414824,"enrollment":4518,"teachers_total_fte":307.6,"number_of_schools":12,"agency_type":1,"lowest_grade_offered":-1,"highest_grade_offered":12,"county_name":"Madison County","phone":"(402)644-2500"},{"leaid":"3103990","lea_name":"Bennington Public Schools","fips":31,"city_mailing":"BENNINGTON","state_mailing":"NE","zip_mailing":"68007","latitude":41.365424,"longitude":-96.159086,"enrollment":4154,"teachers_total_fte":277.3,"number_of_schools":8,"agency_type":1,"lowest_grade_offered":-1,"highest_grade_offered":12,"county_name":"Douglas County","phone":"(402)238-3044"},{"leaid":"3105340","lea_name":"Columbus Public Schools","fips":31,"city_mailing":"COLUMBUS","state_mailing":"NE","zip_mailing":"68602","latitude":41.442604,"longitude":-97.357984,"enrollment":4111,"teachers_total_fte":256.01,"number_of_schools":9,"agency_type":1,"lowest_grade_offered":-1,"highest_grade_offered":12,"county_name":"Platte County","phone":"(402)563-7000"},{"leaid":"3176860","lea_name":"South Sioux City Community Schools","fips":31,"city_mailing":"SO SIOUX CITY","state_mailing":"NE","zip_mailing":"68776","latitude":42.451061,"longitude":-96.415537,"enrollment":3783,"teachers_total_fte":275.68,"number_of_schools":8,"agency_type":1,"lowest_grade_offered":-1,"highest_grade_offered":12,"county_name":"Dakota County","phone":"(402)494-2425"},{"leaid":"3100022","lea_name":"North Platte Public Schools","fips":31,"city_mailing":"NORTH PLATTE","state_mailing":"NE","zip_mailing":"69101","latitude":41.129606,"longitude":-100.767249,"enrollment":3782,"teachers_total_fte":249.05,"number_of_schools":12,"agency_type":1,"lowest_grade_offered":-1,"highest_grade_offered":12,"county_name":"Lincoln County","phone":"(308)535-7100"},{"leaid":"3171580","lea_name":"Hastings Public Schools","fips":31,"city_mailing":"HASTINGS","state_mailing":"NE","zip_mailing":"68901","latitude":40.591202,"longitude":-98.40225,"enrollment":3644,"teachers_total_fte":270.33,"number_of_schools":8,"agency_type":1,"lowest_grade_offered":-1,"highest_grade_offered":12,"county_name":"Adams County","phone":"(402)461-7500"},{"leaid":"3176470","lea_name":"Scottsbluff Public Schools","fips":31,"city_mailing":"SCOTTSBLUFF","state_mailing":"NE","zip_mailing":"69361","latitude":41.864123,"longitude":-103.661647,"enrollment":3519,"teachers_total_fte":226.02,"number_of_schools":8,"agency_type":1,"lowest_grade_offered":-1,"highest_grade_offered":12,"county_name":"Scotts Bluff County","phone":"(308)635-6200"},{"leaid":"3175900","lea_name":"Ralston Public Schools","fips":31,"city_mailing":"RALSTON","state_mailing":"NE","zip_mailing":"68127","latitude":41.201067,"longitude":-96.045793,"enrollment":3352,"teachers_total_fte":236.45,"number_of_schools":8,"agency_type":1,"lowest_grade_offered":-1,"highest_grade_offered":12,"county_name":"Douglas County","phone":"(402)331-4700"},{"leaid":"3172810","lea_name":"Lexington Public Schools","fips":31,"city_mailing":"LEXINGTON","state_mailing":"NE","zip_mailing":"68850","latitude":40.774855,"longitude":-99.741137,"enrollment":3221,"teachers_total_fte":216.53,"number_of_schools":8,"agency_type":1,"lowest_grade_offered":-1,"highest_grade_offered":12,"county_name":"Dawson County","phone":"(308)324-4681"},{"leaid":"3100088","lea_name":"Norris School District 160","fips":31,"city_mailing":"FIRTH","state_mailing":"NE","zip_mailing":"68358","latitude":40.563136,"longitude":-96.630294,"enrollment":2483,"teachers_total_fte":153.95,"number_of_schools":4,"agency_type":1,"lowest_grade_offered":-1,"highest_grade_offered":12,"county_name":"Lancaster County","phone":"(402)791-0000"},{"leaid":"3104100","lea_name":"Blair Community Schools","fips":31,"city_mailing":"BLAIR","state_mailing":"NE","zip_mailing":"68008","latitude":41.55537,"longitude":-96.148198,"enrollment":2274,"teachers_total_fte":150.9,"number_of_schools":6,"agency_type":1,"lowest_grade_offered":-1,"highest_grade_offered":12,"county_name":"Washington County","phone":"(402)426-2610"},{"leaid":"3100095","lea_name":"Crete Public Schools","fips":31,"city_mailing":"CRETE","state_mailing":"NE","zip_mailing":"68333","latitude":40.62222,"longitude":-96.960727,"enrollment":2230,"teachers_total_fte":145.8,"number_of_schools":6,"agency_type":1,"lowest_grade_offered":-1,"highest_grade_offered":12,"county_name":"Saline County","phone":"(402)826-5855"},{"leaid":"3100021","lea_name":"Waverly School District 145","fips":31,"city_mailing":"WAVERLY","state_mailing":"NE","zip_mailing":"68462","latitude":40.914107,"longitude":-96.524685,"enrollment":2165,"teachers_total_fte":145.95,"number_of_schools":5,"agency_type":1,"lowest_grade_offered":-1,"highest_grade_offered":12,"county_name":"Lancaster County","phone":"(402)786-2321"},{"leaid":"3103600","lea_name":"Beatrice Public Schools","fips":31,"city_mailing":"BEATRICE","state_mailing":"NE","zip_mailing":"68310","latitude":40.268748,"longitude":-96.747464,"enrollment":2090,"teachers_total_fte":137.39,"number_of_schools":6,"agency_type":1,"lowest_grade_offered":-1,"highest_grade_offered":12,"county_name":"Gage County","phone":"(402)223-1500"},{"leaid":"3100098","lea_name":"Gering Public Schools","fips":31,"city_mailing":"GERING","state_mailing":"NE","zip_mailing":"69341","latitude":41.824385,"longitude":-103.660647,"enrollment":2023,"teachers_total_fte":121.47,"number_of_schools":6,"agency_type":1,"lowest_grade_offered":-1,"highest_grade_offered":12,"county_name":"Scotts Bluff County","phone":"(308)436-3125"},{"leaid":"3176450","lea_name":"Schuyler Community Schools","fips":31,"city_mailing":"SCHUYLER","state_mailing":"NE","zip_mailing":"68661","latitude":41.458482,"longitude":-97.061033,"enrollment":1984,"teachers_total_fte":138.53,"number_of_schools":8,"agency_type":1,"lowest_grade_offered":-1,"highest_grade_offered":12,"county_name":"Colfax County","phone":"(402)352-3527"},{"leaid":"3179050","lea_name":"York Public Schools","fips":31,"city_mailing":"YORK","state_mailing":"NE","zip_mailing":"68467","latitude":40.878071,"longitude":-97.579266,"enrollment":1620,"teachers_total_fte":94.57,"number_of_schools":4,"agency_type":1,"lowest_grade_offered":-1,"highest_grade_offered":12,"county_name":"York County","phone":"(402)362-6655"},{"leaid":"3175660","lea_name":"Plattsmouth Community Schools","fips":31,"city_mailing":"PLATTSMOUTH","state_mailing":"NE","zip_mailing":"68048","latitude":41.00021,"longitude":-95.904729,"enrollment":1504,"teachers_total_fte":111.88,"number_of_schools":4,"agency_type":1,"lowest_grade_offered":-1,"highest_grade_offered":12,"county_name":"Cass County","phone":"(402)296-3361"},{"leaid":"3176560","lea_name":"Seward Public Schools","fips":31,"city_mailing":"SEWARD","state_mailing":"NE","zip_mailing":"68434","latitude":40.906238,"longitude":-97.096981,"enrollment":1496,"teachers_total_fte":107.56,"number_of_schools":3,"agency_type":1,"lowest_grade_offered":-1,"highest_grade_offered":12,"county_name":"Seward County","phone":"(402)643-2941"},{"leaid":"3174580","lea_name":"Northwest Public Schools","fips":31,"city_mailing":"GRAND ISLAND","state_mailing":"NE","zip_mailing":"68803","latitude":40.952082,"longitude":-98.399264,"enrollment":1465,"teachers_total_fte":106.2,"number_of_schools":5,"agency_type":1,"lowest_grade_offered":-1,"highest_grade_offered":12,"county_name":"Hall County","phone":"(308)385-6398"},{"leaid":"3174160","lea_name":"Nebraska City Public Schools","fips":31,"city_mailing":"NEBRASKA CITY","state_mailing":"NE","zip_mailing":"68410","latitude":40.690118,"longitude":-95.865812,"enrollment":1428,"teachers_total_fte":98.66,"number_of_schools":4,"agency_type":1,"lowest_grade_offered":-1,"highest_grade_offered":12,"county_name":"Otoe County","phone":"(402)873-6033"},{"leaid":"3173470","lea_name":"McCook Public Schools","fips":31,"city_mailing":"MC COOK","state_mailing":"NE","zip_mailing":"69001","latitude":40.203606,"longitude":-100.635659,"enrollment":1376,"teachers_total_fte":95.93,"number_of_schools":5,"agency_type":1,"lowest_grade_offered":-1,"highest_grade_offered":12,"county_name":"Red Willow County","phone":"(308)345-2510"},{"leaid":"3102910","lea_name":"Alliance Public Schools","fips":31,"city_mailing":"ALLIANCE","state_mailing":"NE","zip_mailing":"69301","latitude":42.110308,"longitude":-102.868645,"enrollment":1345,"teachers_total_fte":92.08,"number_of_schools":5,"agency_type":1,"lowest_grade_offered":-1,"highest_grade_offered":12,"county_name":"Box Butte County","phone":"(308)762-5475"},{"leaid":"3176710","lea_name":"Sidney Public Schools","fips":31,"city_mailing":"SIDNEY","state_mailing":"NE","zip_mailing":"69162","latitude":41.142217,"longitude":-102.990461,"enrollment":1276,"teachers_total_fte":89.18,"number_of_schools":6,"agency_type":1,"lowest_grade_offered":-1,"highest_grade_offered":12,"county_name":"Cheyenne County","phone":"(308)254-5855"},{"leaid":"3103360","lea_name":"Aurora Public Schools","fips":31,"city_mailing":"AURORA","state_mailing":"NE","zip_mailing":"68818","latitude":40.866131,"longitude":-98.014478,"enrollment":1226,"teachers_total_fte":99.73,"number_of_schools":4,"agency_type":1,"lowest_grade_offered":-1,"highest_grade_offered":12,"county_name":"Hamilton County","phone":"(402)694-6923"},{"leaid":"3175630","lea_name":"Springfield Platteview Community Schools","fips":31,"city_mailing":"SPRINGFIELD","state_mailing":"NE","zip_mailing":"68059","latitude":41.091765,"longitude":-96.07951,"enrollment":1203,"teachers_total_fte":96.88,"number_of_schools":4,"agency_type":1,"lowest_grade_offered":-1,"highest_grade_offered":12,"county_name":"Sarpy County","phone":"(402)592-1300"},{"leaid":"3100034","lea_name":"Ashland-Greenwood Public Schools","fips":31,"city_mailing":"ASHLAND","state_mailing":"NE","zip_mailing":"68003","latitude":41.045895,"longitude":-96.374197,"enrollment":1099,"teachers_total_fte":80.17,"number_of_schools":4,"agency_type":1,"lowest_grade_offered":-1,"highest_grade_offered":12,"county_name":"Saunders County","phone":"(402)944-2128"},{"leaid":"3178210","lea_name":"Wahoo Public Schools","fips":31,"city_mailing":"WAHOO","state_mailing":"NE","zip_mailing":"68066","latitude":41.225862,"longitude":-96.626783,"enrollment":1085,"teachers_total_fte":77.31,"number_of_schools":4,"agency_type":1,"lowest_grade_offered":-1,"highest_grade_offered":12,"county_name":"Saunders County","phone":"(402)443-3051"},{"leaid":"3100165","lea_name":"Douglas County West Community Schools","fips":31,"city_mailing":"VALLEY","state_mailing":"NE","zip_mailing":"68064","latitude":41.309305,"longitude":-96.343112,"enrollment":1053,"teachers_total_fte":81.55,"number_of_schools":4,"agency_type":1,"lowest_grade_offered":-1,"highest_grade_offered":12,"county_name":"Douglas County","phone":"(402)359-2583"},{"leaid":"3103330","lea_name":"Auburn Public Schools","fips":31,"city_mailing":"AUBURN","state_mailing":"NE","zip_mailing":"68305","latitude":40.3871,"longitude":-95.8381,"enrollment":1051,"teachers_total_fte":64.96,"number_of_schools":4,"agency_type":1,"lowest_grade_offered":-1,"highest_grade_offered":12,"county_name":"Nemaha County","phone":"(402)274-4830"},{"leaid":"3171940","lea_name":"Holdrege Public Schools","fips":31,"city_mailing":"HOLDREGE","state_mailing":"NE","zip_mailing":"68949","latitude":40.449241,"longitude":-99.373389,"enrollment":1014,"teachers_total_fte":83.18,"number_of_schools":4,"agency_type":1,"lowest_grade_offered":-1,"highest_grade_offered":12,"county_name":"Phelps County","phone":"(308)995-8663"},{"leaid":"3102770","lea_name":"Adams Central Public Schools","fips":31,"city_mailing":"HASTINGS","state_mailing":"NE","zip_mailing":"68901","latitude":40.569523,"longitude":-98.460303,"enrollment":1004,"teachers_total_fte":75.2,"number_of_schools":3,"agency_type":1,"lowest_grade_offered":-1,"highest_grade_offered":12,"county_name":"Adams County","phone":"(402)463-3285"},{"leaid":"3178520","lea_name":"Wayne Community Schools","fips":31,"city_mailing":"WAYNE","state_mailing":"NE","zip_mailing":"68787","latitude":42.234782,"longitude":-97.025688,"enrollment":997,"teachers_total_fte":61.45,"number_of_schools":4,"agency_type":1,"lowest_grade_offered":-1,"highest_grade_offered":12,"county_name":"Wayne County","phone":"(402)375-3150"},{"leaid":"3100112","lea_name":"Lakeview Community Schools","fips":31,"city_mailing":"COLUMBUS","state_mailing":"NE","zip_mailing":"68601","latitude":41.497723,"longitude":-97.374634,"enrollment":952,"teachers_total_fte":67.46,"number_of_schools":4,"agency_type":1,"lowest_grade_offered":-1,"highest_grade_offered":12,"county_name":"Platte County","phone":"(402)563-2345"},{"leaid":"3105460","lea_name":"Cozad Community Schools","fips":31,"city_mailing":"COZAD","state_mailing":"NE","zip_mailing":"69130","latitude":40.871099,"longitude":-99.9846,"enrollment":949,"teachers_total_fte":76.22,"number_of_schools":4,"agency_type":1,"lowest_grade_offered":-1,"highest_grade_offered":12,"county_name":"Dawson County","phone":"(308)784-2745"},{"leaid":"3104980","lea_name":"Chadron Public Schools","fips":31,"city_mailing":"CHADRON","state_mailing":"NE","zip_mailing":"69337","latitude":42.821867,"longitude":-102.994604,"enrollment":941,"teachers_total_fte":76.14,"number_of_schools":4,"agency_type":1,"lowest_grade_offered":-1,"highest_grade_offered":12,"county_name":"Dawes County","phone":"(308)432-0700"},{"leaid":"3170440","lea_name":"Fairbury Public Schools","fips":31,"city_mailing":"FAIRBURY","state_mailing":"NE","zip_mailing":"68352","latitude":40.138703,"longitude":-97.17154,"enrollment":909,"teachers_total_fte":75.88,"number_of_schools":3,"agency_type":1,"lowest_grade_offered":-1,"highest_grade_offered":12,"county_name":"Jefferson County","phone":"(402)729-6104"},{"leaid":"3100011","lea_name":"Broken Bow Public Schools","fips":31,"city_mailing":"BROKEN BOW","state_mailing":"NE","zip_mailing":"68822","latitude":41.407761,"longitude":-99.638568,"enrollment":890,"teachers_total_fte":59.87,"number_of_schools":5,"agency_type":1,"lowest_grade_offered":-1,"highest_grade_offered":12,"county_name":"Custer County","phone":"(308)872-6821"},{"leaid":"3170530","lea_name":"Falls City Public Schools","fips":31,"city_mailing":"FALLS CITY","state_mailing":"NE","zip_mailing":"68355","latitude":40.059634,"longitude":-95.59975,"enrollment":880,"teachers_total_fte":66.56,"number_of_schools":4,"agency_type":1,"lowest_grade_offered":-1,"highest_grade_offered":12,"county_name":"Richardson County","phone":"(402)245-2825"},{"leaid":"3171100","lea_name":"Gothenburg Public Schools","fips":31,"city_mailing":"GOTHENBURG","state_mailing":"NE","zip_mailing":"69138","latitude":40.93207,"longitude":-100.155311,"enrollment":847,"teachers_total_fte":63.35,"number_of_schools":3,"agency_type":1,"lowest_grade_offered":-1,"highest_grade_offered":12,"county_name":"Dawson County","phone":"(308)537-3651"},{"leaid":"3174760","lea_name":"Ogallala Public Schools","fips":31,"city_mailing":"OGALLALA","state_mailing":"NE","zip_mailing":"69153","latitude":41.13137,"longitude":-101.699971,"enrollment":845,"teachers_total_fte":75.29,"number_of_schools":2,"agency_type":1,"lowest_grade_offered":-1,"highest_grade_offered":12,"county_name":"Keith County","phone":"(308)284-4060"},{"leaid":"3174850","lea_name":"O'Neill Public Schools","fips":31,"city_mailing":"O'NEILL","state_mailing":"NE","zip_mailing":"68763","latitude":42.460458,"longitude":-98.647051,"enrollment":829,"teachers_total_fte":73.89,"number_of_schools":2,"agency_type":1,"lowest_grade_offered":-1,"highest_grade_offered":12,"county_name":"Holt County","phone":"(402)336-3775"},{"leaid":"3170650","lea_name":"Fort Calhoun Community Schools","fips":31,"city_mailing":"FORT CALHOUN","state_mailing":"NE","zip_mailing":"68023","latitude":41.463706,"longitude":-96.028384,"enrollment":825,"teachers_total_fte":52.88,"number_of_schools":2,"agency_type":1,"lowest_grade_offered":-1,"highest_grade_offered":12,"county_name":"Washington County","phone":"(402)468-5596"},{"leaid":"3173830","lea_name":"Minden Public Schools","fips":31,"city_mailing":"MINDEN","state_mailing":"NE","zip_mailing":"68959","latitude":40.49801,"longitude":-98.957286,"enrollment":820,"teachers_total_fte":-9.0,"number_of_schools":3,"agency_type":1,"lowest_grade_offered":-1,"highest_grade_offered":12,"county_name":"Kearney County","phone":"(308)832-2440"},{"leaid":"3173710","lea_name":"Milford Public Schools","fips":31,"city_mailing":"MILFORD","state_mailing":"NE","zip_mailing":"68405","latitude":40.775034,"longitude":-97.062242,"enrollment":819,"teachers_total_fte":60.53,"number_of_schools":2,"agency_type":1,"lowest_grade_offered":-1,"highest_grade_offered":12,"county_name":"Seward County","phone":"(402)761-3321"},{"leaid":"3177550","lea_name":"Syracuse-Dunbar-Avoca Schools","fips":31,"city_mailing":"SYRACUSE","state_mailing":"NE","zip_mailing":"68446","latitude":40.666147,"longitude":-96.180331,"enrollment":793,"teachers_total_fte":58.7,"number_of_schools":3,"agency_type":1,"lowest_grade_offered":-1,"highest_grade_offered":12,"county_name":"Otoe County","phone":"(402)269-2383"},{"leaid":"3104920","lea_name":"Central City Public Schools","fips":31,"city_mailing":"CENTRAL CITY","state_mailing":"NE","zip_mailing":"68826","latitude":41.104016,"longitude":-97.999949,"enrollment":767,"teachers_total_fte":63.8,"number_of_schools":3,"agency_type":1,"lowest_grade_offered":-1,"highest_grade_offered":12,"county_name":"Merrick County","phone":"(308)946-3055"},{"leaid":"3104950","lea_name":"Raymond Central Public Schools","fips":31,"city_mailing":"RAYMOND","state_mailing":"NE","zip_mailing":"68428","latitude":41.022805,"longitude":-96.746884,"enrollment":742,"teachers_total_fte":54.75,"number_of_schools":5,"agency_type":1,"lowest_grade_offered":-1,"highest_grade_offered":12,"county_name":"Lancaster County","phone":"(402)785-2615"},{"leaid":"3100006","lea_name":"West Point Public Schools","fips":31,"city_mailing":"WEST POINT","state_mailing":"NE","zip_mailing":"68788","latitude":41.839936,"longitude":-96.69363,"enrollment":728,"teachers_total_fte":63.64,"number_of_schools":3,"agency_type":1,"lowest_grade_offered":-1,"highest_grade_offered":12,"county_name":"Cuming County","phone":"(402)372-5860"},{"leaid":"3100122","lea_name":"South Central Nebraska Unified 5","fips":31,"city_mailing":"FAIRFIELD","state_mailing":"NE","zip_mailing":"68938","latitude":40.43312,"longitude":-98.052788,"enrollment":714,"teachers_total_fte":67.04,"number_of_schools":8,"agency_type":1,"lowest_grade_offered":-1,"highest_grade_offered":12,"county_name":"Clay County","phone":"(402)726-2412"},{"leaid":"3175210","lea_name":"Palmyra District OR-1","fips":31,"city_mailing":"PALMYRA","state_mailing":"NE","zip_mailing":"68418","latitude":40.703855,"longitude":-96.393827,"enrollment":711,"teachers_total_fte":47.88,"number_of_schools":3,"agency_type":1,"lowest_grade_offered":-1,"highest_grade_offered":12,"county_name":"Otoe County","phone":"(402)780-5327"},{"leaid":"3174200","lea_name":"Conestoga Public Schools","fips":31,"city_mailing":"MURRAY","state_mailing":"NE","zip_mailing":"68409","latitude":40.913735,"longitude":-95.980588,"enrollment":709,"teachers_total_fte":60.0,"number_of_schools":2,"agency_type":1,"lowest_grade_offered":-1,"highest_grade_offered":12,"county_name":"Cass County","phone":"(402)235-2992"},{"leaid":"3100085","lea_name":"St. Paul Public Schools","fips":31,"city_mailing":"ST. PAUL","state_mailing":"NE","zip_mailing":"68873","latitude":41.212805,"longitude":-98.466063,"enrollment":705,"teachers_total_fte":53.13,"number_of_schools":2,"agency_type":1,"lowest_grade_offered":-1,"highest_grade_offered":12,"county_name":"Howard County","phone":"(308)754-4433"},{"leaid":"3173050","lea_name":"Louisville Public Schools","fips":31,"city_mailing":"LOUISVILLE","state_mailing":"NE","zip_mailing":"68037","latitude":41.000127,"longitude":-96.164779,"enrollment":702,"teachers_total_fte":51.5,"number_of_schools":3,"agency_type":1,"lowest_grade_offered":-1,"highest_grade_offered":12,"county_name":"Cass County","phone":"(402)234-3585"},{"leaid":"3103130","lea_name":"Arlington Public Schools","fips":31,"city_mailing":"ARLINGTON","state_mailing":"NE","zip_mailing":"68002","latitude":41.457578,"longitude":-96.360093,"enrollment":691,"teachers_total_fte":58.18,"number_of_schools":2,"agency_type":1,"lowest_grade_offered":-1,"highest_grade_offered":12,"county_name":"Washington County","phone":"(402)478-4173"},{"leaid":"3175510","lea_name":"Pierce Public Schools","fips":31,"city_mailing":"PIERCE","state_mailing":"NE","zip_mailing":"68767","latitude":42.199747,"longitude":-97.539737,"enrollment":690,"teachers_total_fte":48.75,"number_of_schools":2,"agency_type":1,"lowest_grade_offered":-1,"highest_grade_offered":12,"county_name":"Pierce County","phone":"(402)329-4677"},{"leaid":"3100002","lea_name":"David City Public Schools","fips":31,"city_mailing":"DAVID CITY","state_mailing":"NE","zip_mailing":"68632","latitude":41.253149,"longitude":-97.12495,"enrollment":676,"teachers_total_fte":64.16,"number_of_schools":3,"agency_type":1,"lowest_grade_offered":-1,"highest_grade_offered":12,"county_name":"Butler County","phone":"(402)367-4590"},{"leaid":"3102820","lea_name":"Boone Central Schools","fips":31,"city_mailing":"ALBION","state_mailing":"NE","zip_mailing":"68620","latitude":41.687848,"longitude":-98.003457,"enrollment":649,"teachers_total_fte":50.0,"number_of_schools":3,"agency_type":1,"lowest_grade_offered":-1,"highest_grade_offered":12,"county_name":"Boone County","phone":"(402)395-2134"},{"leaid":"3173290","lea_name":"Malcolm Public Schools","fips":31,"city_mailing":"MALCOLM","state_mailing":"NE","zip_mailing":"68402","latitude":40.913501,"longitude":-96.870601,"enrollment":644,"teachers_total_fte":43.48,"number_of_schools":2,"agency_type":1,"lowest_grade_offered":-1,"highest_grade_offered":12,"county_name":"Lancaster County","phone":"(402)796-2151"},{"leaid":"3119560","lea_name":"Umo N Ho N Nation Public Schools","fips":31,"city_mailing":"MACY","state_mailing":"NE","zip_mailing":"68039","latitude":42.113326,"longitude":-96.355144,"enrollment":631,"teachers_total_fte":73.16,"number_of_schools":3,"agency_type":1,"lowest_grade_offered":-1,"highest_grade_offered":12,"county_name":"Thurston County","phone":"(402)837-5622"},{"leaid":"3178810","lea_name":"Winnebago Public Schools","fips":31,"city_mailing":"WINNEBAGO","state_mailing":"NE","zip_mailing":"68071","latitude":42.238637,"longitude":-96.473897,"enrollment":629,"teachers_total_fte":66.34,"number_of_schools":2,"agency_type":1,"lowest_grade_offered":-1,"highest_grade_offered":12,"county_name":"Thurston County","phone":"(402)878-2224"},{"leaid":"3100163","lea_name":"Chase County Schools","fips":31,"city_mailing":"IMPERIAL","state_mailing":"NE","zip_mailing":"69033","latitude":40.520729,"longitude":-101.634291,"enrollment":625,"teachers_total_fte":49.5,"number_of_schools":2,"agency_type":1,"lowest_grade_offered":-1,"highest_grade_offered":12,"county_name":"Chase County","phone":"(308)882-4304"},{"leaid":"3178720","lea_name":"Wilber-Clatonia Public Schools","fips":31,"city_mailing":"WILBER","state_mailing":"NE","zip_mailing":"68465","latitude":40.475532,"longitude":-96.968742,"enrollment":624,"teachers_total_fte":44.84,"number_of_schools":3,"agency_type":1,"lowest_grade_offered":-1,"highest_grade_offered":12,"county_name":"Saline County","phone":"(402)821-2266"},{"leaid":"3178020","lea_name":"Valentine Community Schools","fips":31,"city_mailing":"VALENTINE","state_mailing":"NE","zip_mailing":"69201","latitude":42.877148,"longitude":-100.540298,"enrollment":623,"teachers_total_fte":64.27,"number_of_schools":5,"agency_type":1,"lowest_grade_offered":-1,"highest_grade_offered":12,"county_name":"Cherry County","phone":"(402)376-1780"},{"leaid":"3173890","lea_name":"Mitchell Public Schools","fips":31,"city_mailing":"MITCHELL","state_mailing":"NE","zip_mailing":"69357","latitude":41.946243,"longitude":-103.812555,"enrollment":620,"teachers_total_fte":48.49,"number_of_schools":3,"agency_type":1,"lowest_grade_offered":-1,"highest_grade_offered":12,"county_name":"Scotts Bluff County","phone":"(308)623-1707"},{"leaid":"3100118","lea_name":"Fillmore Central Public Schools","fips":31,"city_mailing":"GENEVA","state_mailing":"NE","zip_mailing":"68361","latitude":40.532765,"longitude":-97.593539,"enrollment":609,"teachers_total_fte":49.19,"number_of_schools":3,"agency_type":1,"lowest_grade_offered":-1,"highest_grade_offered":12,"county_name":"Fillmore County","phone":"(402)759-4955"},{"leaid":"3100114","lea_name":"Logan View Public Schools","fips":31,"city_mailing":"HOOPER","state_mailing":"NE","zip_mailing":"68031","latitude":41.653083,"longitude":-96.503838,"enrollment":590,"teachers_total_fte":44.48,"number_of_schools":2,"agency_type":1,"lowest_grade_offered":-1,"highest_grade_offered":12,"county_name":"Dodge County","phone":"(402)654-3317"},{"leaid":"3100115","lea_name":"North Bend Central Public Schools","fips":31,"city_mailing":"NORTH BEND","state_mailing":"NE","zip_mailing":"68649","latitude":41.469483,"longitude":-96.786428,"enrollment":586,"teachers_total_fte":46.84,"number_of_schools":3,"agency_type":1,"lowest_grade_offered":-1,"highest_grade_offered":12,"county_name":"Dodge County","phone":"(402)652-3268"},{"leaid":"3178240","lea_name":"Wakefield Public Schools","fips":31,"city_mailing":"WAKEFIELD","state_mailing":"NE","zip_mailing":"68784","latitude":42.262751,"longitude":-96.868426,"enrollment":567,"teachers_total_fte":45.94,"number_of_schools":2,"agency_type":1,"lowest_grade_offered":-1,"highest_grade_offered":12,"county_name":"Wayne County","phone":"(402)287-2012"},{"leaid":"3103540","lea_name":"Battle Creek Public Schools","fips":31,"city_mailing":"BATTLE CREEK","state_mailing":"NE","zip_mailing":"68715","latitude":41.994793,"longitude":-97.606189,"enrollment":566,"teachers_total_fte":40.06,"number_of_schools":2,"agency_type":1,"lowest_grade_offered":-1,"highest_grade_offered":12,"county_name":"Madison County","phone":"(402)675-6905"},{"leaid":"3174940","lea_name":"Ord Public Schools","fips":31,"city_mailing":"ORD","state_mailing":"NE","zip_mailing":"68862","latitude":41.604941,"longitude":-98.932427,"enrollment":562,"teachers_total_fte":47.31,"number_of_schools":2,"agency_type":1,"lowest_grade_offered":-1,"highest_grade_offered":12,"county_name":"Valley County","phone":"(308)728-5013"},{"leaid":"3171820","lea_name":"Hershey Public Schools","fips":31,"city_mailing":"HERSHEY","state_mailing":"NE","zip_mailing":"69143","latitude":41.156103,"longitude":-101.001311,"enrollment":557,"teachers_total_fte":40.75,"number_of_schools":2,"agency_type":1,"lowest_grade_offered":-1,"highest_grade_offered":12,"county_name":"Lincoln County","phone":"(308)368-5574"},{"leaid":"3170980","lea_name":"Gibbon Public Schools","fips":31,"city_mailing":"GIBBON","state_mailing":"NE","zip_mailing":"68840","latitude":40.738332,"longitude":-98.847993,"enrollment":554,"teachers_total_fte":42.44,"number_of_schools":2,"agency_type":1,"lowest_grade_offered":-1,"highest_grade_offered":12,"county_name":"Buffalo County","phone":"(308)468-6555"},{"leaid":"3100170","lea_name":"Gordon-Rushville Public Schools","fips":31,"city_mailing":"GORDON","state_mailing":"NE","zip_mailing":"69343","latitude":42.812838,"longitude":-102.205279,"enrollment":550,"teachers_total_fte":57.03,"number_of_schools":4,"agency_type":1,"lowest_grade_offered":-1,"highest_grade_offered":12,"county_name":"Sheridan County","phone":"(308)282-1322"},{"leaid":"3173230","lea_name":"Madison Public Schools","fips":31,"city_mailing":"MADISON","state_mailing":"NE","zip_mailing":"68748","latitude":41.824052,"longitude":-97.457904,"enrollment":543,"teachers_total_fte":45.92,"number_of_schools":4,"agency_type":1,"lowest_grade_offered":-1,"highest_grade_offered":12,"county_name":"Madison County","phone":"(402)454-3336"},{"leaid":"3100071","lea_name":"Tekamah-Herman Community Schools","fips":31,"city_mailing":"TEKAMAH","state_mailing":"NE","zip_mailing":"68061","latitude":41.778946,"longitude":-96.221707,"enrollment":527,"teachers_total_fte":49.03,"number_of_schools":2,"agency_type":1,"lowest_grade_offered":-1,"highest_grade_offered":12,"county_name":"Burt County","phone":"(402)374-2157"},{"leaid":"3178940","lea_name":"Wood River Rural Schools","fips":31,"city_mailing":"WOOD RIVER","state_mailing":"NE","zip_mailing":"68883","latitude":40.830876,"longitude":-98.605349,"enrollment":510,"teachers_total_fte":51.14,"number_of_schools":3,"agency_type":1,"lowest_grade_offered":-1,"highest_grade_offered":12,"county_name":"Hall County","phone":"(308)583-2249"},{"leaid":"3100105","lea_name":"Bridgeport Public Schools","fips":31,"city_mailing":"BRIDGEPORT","state_mailing":"NE","zip_mailing":"69336","latitude":41.667203,"longitude":-103.093298,"enrollment":506,"teachers_total_fte":40.55,"number_of_schools":2,"agency_type":1,"lowest_grade_offered":-1,"highest_grade_offered":12,"county_name":"Morrill County","phone":"(308)262-1470"},{"leaid":"3179080","lea_name":"Yutan Public Schools","fips":31,"city_mailing":"YUTAN","state_mailing":"NE","zip_mailing":"68073","latitude":41.236856,"longitude":-96.396137,"enrollment":506,"teachers_total_fte":40.8,"number_of_schools":2,"agency_type":1,"lowest_grade_offered":-1,"highest_grade_offered":12,"county_name":"Saunders County","phone":"(402)625-2243"},{"leaid":"3101992","lea_name":"Elmwood-Murdock Public Schools","fips":31,"city_mailing":"MURDOCK","state_mailing":"NE","zip_mailing":"68407","latitude":40.926254,"longitude":-96.284292,"enrollment":498,"teachers_total_fte":41.5,"number_of_schools":2,"agency_type":1,"lowest_grade_offered":-1,"highest_grade_offered":12,"county_name":"Cass County","phone":"(402)867-2341"},{"leaid":"3100176","lea_name":"Johnson County Central Public Schools","fips":31,"city_mailing":"TECUMSEH","state_mailing":"NE","zip_mailing":"68450","latitude":40.371755,"longitude":-96.190553,"enrollment":497,"teachers_total_fte":48.02,"number_of_schools":4,"agency_type":1,"lowest_grade_offered":-1,"highest_grade_offered":12,"county_name":"Johnson County","phone":"(402)335-3320"},{"leaid":"3100099","lea_name":"Centennial Public Schools","fips":31,"city_mailing":"UTICA","state_mailing":"NE","zip_mailing":"68456","latitude":40.888958,"longitude":-97.351518,"enrollment":496,"teachers_total_fte":-9.0,"number_of_schools":3,"agency_type":1,"lowest_grade_offered":-1,"highest_grade_offered":12,"county_name":"Seward County","phone":"(402)534-2291"},{"leaid":"3162950","lea_name":"Centura Public Schools","fips":31,"city_mailing":"CAIRO","state_mailing":"NE","zip_mailing":"68824","latitude":41.06229,"longitude":-98.617079,"enrollment":481,"teachers_total_fte":44.9,"number_of_schools":2,"agency_type":1,"lowest_grade_offered":-1,"highest_grade_offered":12,"county_name":"Howard County","phone":"(308)485-4258"},{"leaid":"3100116","lea_name":"Freeman Public Schools","fips":31,"city_mailing":"ADAMS","state_mailing":"NE","zip_mailing":"68301","latitude":40.457628,"longitude":-96.511981,"enrollment":477,"teachers_total_fte":36.39,"number_of_schools":2,"agency_type":1,"lowest_grade_offered":-1,"highest_grade_offered":12,"county_name":"Gage County","phone":"(402)988-2525"},{"leaid":"3104870","lea_name":"Cedar Bluffs Public Schools","fips":31,"city_mailing":"CEDAR BLUFFS","state_mailing":"NE","zip_mailing":"68015","latitude":41.397438,"longitude":-96.608447,"enrollment":469,"teachers_total_fte":36.5,"number_of_schools":2,"agency_type":1,"lowest_grade_offered":-1,"highest_grade_offered":12,"county_name":"Saunders County","phone":"(402)628-2060"},{"leaid":"3100172","lea_name":"West Holt Public Schools","fips":31,"city_mailing":"ATKINSON","state_mailing":"NE","zip_mailing":"68713","latitude":42.540597,"longitude":-98.978321,"enrollment":459,"teachers_total_fte":41.69,"number_of_schools":3,"agency_type":1,"lowest_grade_offered":-1,"highest_grade_offered":12,"county_name":"Holt County","phone":"(402)925-2890"},{"leaid":"3100121","lea_name":"Doniphan-Trumbull Public Schools","fips":31,"city_mailing":"DONIPHAN","state_mailing":"NE","zip_mailing":"68832","latitude":40.772324,"longitude":-98.372313,"enrollment":450,"teachers_total_fte":43.82,"number_of_schools":2,"agency_type":1,"lowest_grade_offered":-1,"highest_grade_offered":12,"county_name":"Hall County","phone":"(402)845-2282"},{"leaid":"3100025","lea_name":"Elkhorn Valley Schools","fips":31,"city_mailing":"TILDEN","state_mailing":"NE","zip_mailing":"68781","latitude":42.041615,"longitude":-97.832167,"enrollment":446,"teachers_total_fte":37.12,"number_of_schools":2,"agency_type":1,"lowest_grade_offered":-1,"highest_grade_offered":12,"county_name":"Madison County","phone":"(402)368-5301"},{"leaid":"3175390","lea_name":"Pender Public Schools","fips":31,"city_mailing":"PENDER","state_mailing":"NE","zip_mailing":"68047","latitude":42.111582,"longitude":-96.710678,"enrollment":443,"teachers_total_fte":35.2,"number_of_schools":2,"agency_type":1,"lowest_grade_offered":-1,"highest_grade_offered":12,"county_name":"Thurston County","phone":"(402)385-3244"},{"leaid":"3175770","lea_name":"Ponca Public Schools","fips":31,"city_mailing":"PONCA","state_mailing":"NE","zip_mailing":"68770","latitude":42.5643,"longitude":-96.712859,"enrollment":442,"teachers_total_fte":39.34,"number_of_schools":3,"agency_type":1,"lowest_grade_offered":-1,"highest_grade_offered":12,"county_name":"Dixon County","phone":"(402)755-5700"},{"leaid":"3100132","lea_name":"Thayer Central Community Schools","fips":31,"city_mailing":"HEBRON","state_mailing":"NE","zip_mailing":"68370","latitude":40.170914,"longitude":-97.581389,"enrollment":440,"teachers_total_fte":34.16,"number_of_schools":2,"agency_type":1,"lowest_grade_offered":-1,"highest_grade_offered":12,"county_name":"Thayer County","phone":"(402)768-6117"},{"leaid":"3100008","lea_name":"Wisner-Pilger Public Schools","fips":31,"city_mailing":"WISNER","state_mailing":"NE","zip_mailing":"68791","latitude":41.995414,"longitude":-96.924422,"enrollment":437,"teachers_total_fte":41.88,"number_of_schools":2,"agency_type":1,"lowest_grade_offered":-1,"highest_grade_offered":12,"county_name":"Cuming County","phone":"(402)529-3249"},{"leaid":"3100189","lea_name":"Summerland Public Schools","fips":31,"city_mailing":"EWING","state_mailing":"NE","zip_mailing":"68735","latitude":42.24983,"longitude":-98.244848,"enrollment":437,"teachers_total_fte":39.35,"number_of_schools":2,"agency_type":1,"lowest_grade_offered":-1,"highest_grade_offered":12,"county_name":"Antelope County","phone":"(402)626-7534"},{"leaid":"3105970","lea_name":"Tri County Public Schools","fips":31,"city_mailing":"DEWITT","state_mailing":"NE","zip_mailing":"68341","latitude":40.336834,"longitude":-96.917564,"enrollment":430,"teachers_total_fte":38.33,"number_of_schools":2,"agency_type":1,"lowest_grade_offered":-1,"highest_grade_offered":12,"county_name":"Jefferson County","phone":"(402)683-2037"},{"leaid":"3172000","lea_name":"Homer Community Schools","fips":31,"city_mailing":"HOMER","state_mailing":"NE","zip_mailing":"68030","latitude":42.319067,"longitude":-96.494194,"enrollment":428,"teachers_total_fte":36.27,"number_of_schools":2,"agency_type":1,"lowest_grade_offered":-1,"highest_grade_offered":12,"county_name":"Dakota County","phone":"(402)698-2377"},{"leaid":"3177520","lea_name":"Sutton Public Schools","fips":31,"city_mailing":"SUTTON","state_mailing":"NE","zip_mailing":"68979","latitude":40.61784,"longitude":-97.859784,"enrollment":420,"teachers_total_fte":38.68,"number_of_schools":2,"agency_type":1,"lowest_grade_offered":-1,"highest_grade_offered":12,"county_name":"Clay County","phone":"(402)773-5569"},{"leaid":"3100157","lea_name":"Perkins County Schools","fips":31,"city_mailing":"GRANT","state_mailing":"NE","zip_mailing":"69140","latitude":40.846129,"longitude":-101.730141,"enrollment":419,"teachers_total_fte":35.5,"number_of_schools":2,"agency_type":1,"lowest_grade_offered":-1,"highest_grade_offered":12,"county_name":"Perkins County","phone":"(308)352-4735"},{"leaid":"3174640","lea_name":"Oakland Craig Public Schools","fips":31,"city_mailing":"OAKLAND","state_mailing":"NE","zip_mailing":"68045","latitude":41.836219,"longitude":-96.463786,"enrollment":416,"teachers_total_fte":38.45,"number_of_schools":2,"agency_type":1,"lowest_grade_offered":-1,"highest_grade_offered":12,"county_name":"Burt County","phone":"(402)685-5661"},{"leaid":"3100004","lea_name":"Laurel-Concord-Coleridge School","fips":31,"city_mailing":"LAUREL","state_mailing":"NE","zip_mailing":"68745","latitude":42.426087,"longitude":-97.095025,"enrollment":415,"teachers_total_fte":41.66,"number_of_schools":3,"agency_type":1,"lowest_grade_offered":-1,"highest_grade_offered":12,"county_name":"Cedar County","phone":"(402)256-3133"},{"leaid":"3175960","lea_name":"Ravenna Public Schools","fips":31,"city_mailing":"RAVENNA","state_mailing":"NE","zip_mailing":"68869","latitude":41.030198,"longitude":-98.924004,"enrollment":413,"teachers_total_fte":40.73,"number_of_schools":2,"agency_type":1,"lowest_grade_offered":-1,"highest_grade_offered":12,"county_name":"Buffalo County","phone":"(308)452-3249"},{"leaid":"3176590","lea_name":"Shelby-Rising City Public Schools","fips":31,"city_mailing":"SHELBY","state_mailing":"NE","zip_mailing":"68662","latitude":41.1987,"longitude":-97.42426,"enrollment":411,"teachers_total_fte":37.0,"number_of_schools":3,"agency_type":1,"lowest_grade_offered":-1,"highest_grade_offered":12,"county_name":"Polk County","phone":"(402)527-5946"},{"leaid":"3100029","lea_name":"Superior Public Schools","fips":31,"city_mailing":"SUPERIOR","state_mailing":"NE","zip_mailing":"68978","latitude":40.023404,"longitude":-98.078536,"enrollment":410,"teachers_total_fte":42.35,"number_of_schools":3,"agency_type":1,"lowest_grade_offered":-1,"highest_grade_offered":12,"county_name":"Nuckolls County","phone":"(402)879-3257"},{"leaid":"3100129","lea_name":"Twin River Public Schools","fips":31,"city_mailing":"GENOA","state_mailing":"NE","zip_mailing":"68640","latitude":41.449173,"longitude":-97.735708,"enrollment":409,"teachers_total_fte":39.53,"number_of_schools":2,"agency_type":1,"lowest_grade_offered":-1,"highest_grade_offered":12,"county_name":"Nance County","phone":"(402)993-2274"},{"leaid":"3102790","lea_name":"Ainsworth Community Schools","fips":31,"city_mailing":"AINSWORTH","state_mailing":"NE","zip_mailing":"69210","latitude":42.547374,"longitude":-99.856161,"enrollment":407,"teachers_total_fte":44.05,"number_of_schools":4,"agency_type":1,"lowest_grade_offered":-1,"highest_grade_offered":12,"county_name":"Brown County","phone":"(402)387-2333"},{"leaid":"3171520","lea_name":"Hartington Newcastle Public Schools","fips":31,"city_mailing":"HARTINGTON","state_mailing":"NE","zip_mailing":"68739","latitude":42.615304,"longitude":-97.263939,"enrollment":400,"teachers_total_fte":34.08,"number_of_schools":2,"agency_type":1,"lowest_grade_offered":-1,"highest_grade_offered":12,"county_name":"Cedar County","phone":"(402)254-3947"},{"leaid":"3171730","lea_name":"Hemingford Public Schools","fips":31,"city_mailing":"HEMINGFORD","state_mailing":"NE","zip_mailing":"69348","latitude":42.322023,"longitude":-103.078461,"enrollment":395,"teachers_total_fte":38.93,"number_of_schools":2,"agency_type":1,"lowest_grade_offered":-1,"highest_grade_offered":12,"county_name":"Box Butte County","phone":"(308)487-3328"},{"leaid":"3100070","lea_name":"Amherst Public Schools","fips":31,"city_mailing":"AMHERST","state_mailing":"NE","zip_mailing":"68812","latitude":40.837842,"longitude":-99.265154,"enrollment":394,"teachers_total_fte":28.55,"number_of_schools":2,"agency_type":1,"lowest_grade_offered":-1,"highest_grade_offered":12,"county_name":"Buffalo County","phone":"(308)826-3131"},{"leaid":"3172570","lea_name":"Kimball Public Schools","fips":31,"city_mailing":"KIMBALL","state_mailing":"NE","zip_mailing":"69145","latitude":41.226997,"longitude":-103.655164,"enrollment":394,"teachers_total_fte":36.58,"number_of_schools":2,"agency_type":1,"lowest_grade_offered":-1,"highest_grade_offered":12,"county_name":"Kimball County","phone":"(308)235-2188"},{"leaid":"3100041","lea_name":"Stanton Community Schools","fips":31,"city_mailing":"STANTON","state_mailing":"NE","zip_mailing":"68779","latitude":41.951879,"longitude":-97.224495,"enrollment":383,"teachers_total_fte":37.83,"number_of_schools":2,"agency_type":1,"lowest_grade_offered":-1,"highest_grade_offered":12,"county_name":"Stanton County","phone":"(402)439-2233"},{"leaid":"3100109","lea_name":"Southern Valley Schools","fips":31,"city_mailing":"OXFORD","state_mailing":"NE","zip_mailing":"68967","latitude":40.145342,"longitude":-99.642407,"enrollment":383,"teachers_total_fte":36.47,"number_of_schools":2,"agency_type":1,"lowest_grade_offered":-1,"highest_grade_offered":12,"county_name":"Furnas County","phone":"(308)868-2222"},{"leaid":"3177180","lea_name":"Southern School District 1","fips":31,"city_mailing":"WYMORE","state_mailing":"NE","zip_mailing":"68466","latitude":40.121806,"longitude":-96.668398,"enrollment":379,"teachers_total_fte":35.2,"number_of_schools":3,"agency_type":1,"lowest_grade_offered":-1,"highest_grade_offered":12,"county_name":"Gage County","phone":"(402)645-3326"},{"leaid":"3170140","lea_name":"Elm Creek Public Schools","fips":31,"city_mailing":"ELM CREEK","state_mailing":"NE","zip_mailing":"68836","latitude":40.720001,"longitude":-99.370925,"enrollment":374,"teachers_total_fte":28.05,"number_of_schools":2,"agency_type":1,"lowest_grade_offered":-1,"highest_grade_offered":12,"county_name":"Buffalo County","phone":"(308)856-4300"},{"leaid":"3100130","lea_name":"Cross County Community Schools","fips":31,"city_mailing":"STROMSBURG","state_mailing":"NE","zip_mailing":"68666","latitude":41.078409,"longitude":-97.603255,"enrollment":367,"teachers_total_fte":37.04,"number_of_schools":3,"agency_type":1,"lowest_grade_offered":-1,"highest_grade_offered":12,"county_name":"Polk County","phone":"(402)764-5521"},{"leaid":"3172335","lea_name":"Johnson-Brock Public Schools","fips":31,"city_mailing":"JOHNSON","state_mailing":"NE","zip_mailing":"68378","latitude":40.412034,"longitude":-95.997128,"enrollment":363,"teachers_total_fte":25.63,"number_of_schools":2,"agency_type":1,"lowest_grade_offered":-1,"highest_grade_offered":12,"county_name":"Nemaha County","phone":"(402)868-5235"},{"leaid":"3100080","lea_name":"Alma Public Schools","fips":31,"city_mailing":"ALMA","state_mailing":"NE","zip_mailing":"68920","latitude":40.102992,"longitude":-99.361645,"enrollment":359,"teachers_total_fte":34.85,"number_of_schools":2,"agency_type":1,"lowest_grade_offered":-1,"highest_grade_offered":12,"county_name":"Harlan County","phone":"(308)928-2131"},{"leaid":"3105630","lea_name":"Crofton Community Schools","fips":31,"city_mailing":"CROFTON","state_mailing":"NE","zip_mailing":"68730","latitude":42.736785,"longitude":-97.50441,"enrollment":358,"teachers_total_fte":31.54,"number_of_schools":2,"agency_type":1,"lowest_grade_offered":-1,"highest_grade_offered":12,"county_name":"Knox County","phone":"(402)388-2440"},{"leaid":"3100117","lea_name":"Heartland Community Schools","fips":31,"city_mailing":"HENDERSON","state_mailing":"NE","zip_mailing":"68371","latitude":40.782792,"longitude":-97.810443,"enrollment":353,"teachers_total_fte":28.53,"number_of_schools":2,"agency_type":1,"lowest_grade_offered":-1,"highest_grade_offered":12,"county_name":"York County","phone":"(402)723-4434"},{"leaid":"3174220","lea_name":"Neligh-Oakdale Schools","fips":31,"city_mailing":"NELIGH","state_mailing":"NE","zip_mailing":"68756","latitude":42.130936,"longitude":-98.024986,"enrollment":351,"teachers_total_fte":36.35,"number_of_schools":3,"agency_type":1,"lowest_grade_offered":-1,"highest_grade_offered":12,"county_name":"Antelope County","phone":"(402)887-4166"},{"leaid":"3175570","lea_name":"Plainview Public Schools","fips":31,"city_mailing":"PLAINVIEW","state_mailing":"NE","zip_mailing":"68769","latitude":42.352693,"longitude":-97.791487,"enrollment":346,"teachers_total_fte":31.65,"number_of_schools":2,"agency_type":1,"lowest_grade_offered":-1,"highest_grade_offered":12,"county_name":"Pierce County","phone":"(402)582-4993"},{"leaid":"3100090","lea_name":"Bayard Public Schools","fips":31,"city_mailing":"BAYARD","state_mailing":"NE","zip_mailing":"69334","latitude":41.758379,"longitude":-103.318396,"enrollment":337,"teachers_total_fte":29.56,"number_of_schools":2,"agency_type":1,"lowest_grade_offered":-1,"highest_grade_offered":12,"county_name":"Morrill County","phone":"(308)586-1325"},{"leaid":"3103090","lea_name":"Arapahoe Public Schools","fips":31,"city_mailing":"ARAPAHOE","state_mailing":"NE","zip_mailing":"68922","latitude":40.309266,"longitude":-99.896414,"enrollment":335,"teachers_total_fte":26.51,"number_of_schools":2,"agency_type":1,"lowest_grade_offered":-1,"highest_grade_offered":12,"county_name":"Furnas County","phone":"(308)962-5458"},{"leaid":"3103420","lea_name":"Axtell Community Schools","fips":31,"city_mailing":"AXTELL","state_mailing":"NE","zip_mailing":"68924","latitude":40.480878,"longitude":-99.125723,"enrollment":335,"teachers_total_fte":28.21,"number_of_schools":2,"agency_type":1,"lowest_grade_offered":-1,"highest_grade_offered":12,"county_name":"Kearney County","phone":"(308)743-2414"},{"leaid":"3100187","lea_name":"Boyd County Schools","fips":31,"city_mailing":"SPENCER","state_mailing":"NE","zip_mailing":"68777","latitude":42.875616,"longitude":-98.70061,"enrollment":333,"teachers_total_fte":32.3,"number_of_schools":4,"agency_type":1,"lowest_grade_offered":-1,"highest_grade_offered":12,"county_name":"Boyd County","phone":"(402)589-1333"},{"leaid":"3100097","lea_name":"Morrill Public Schools","fips":31,"city_mailing":"MORRILL","state_mailing":"NE","zip_mailing":"69358","latitude":41.966413,"longitude":-103.924145,"enrollment":330,"teachers_total_fte":36.08,"number_of_schools":3,"agency_type":1,"lowest_grade_offered":-1,"highest_grade_offered":12,"county_name":"Scotts Bluff County","phone":"(308)247-3414"},{"leaid":"3173090","lea_name":"Loup City Public Schools","fips":31,"city_mailing":"LOUP CITY","state_mailing":"NE","zip_mailing":"68853","latitude":41.282761,"longitude":-98.967847,"enrollment":330,"teachers_total_fte":33.33,"number_of_schools":2,"agency_type":1,"lowest_grade_offered":-1,"highest_grade_offered":12,"county_name":"Sherman County","phone":"(308)745-0120"},{"leaid":"3100185","lea_name":"Central Valley Public Schools","fips":31,"city_mailing":"GREELEY","state_mailing":"NE","zip_mailing":"68842","latitude":41.550882,"longitude":-98.529926,"enrollment":327,"teachers_total_fte":38.75,"number_of_schools":3,"agency_type":1,"lowest_grade_offered":-1,"highest_grade_offered":12,"county_name":"Greeley County","phone":"(308)428-3145"},{"leaid":"3100089","lea_name":"Palmer Public Schools","fips":31,"city_mailing":"PALMER","state_mailing":"NE","zip_mailing":"68864","latitude":41.223016,"longitude":-98.266139,"enrollment":322,"teachers_total_fte":25.19,"number_of_schools":2,"agency_type":1,"lowest_grade_offered":-1,"highest_grade_offered":12,"county_name":"Merrick County","phone":"(308)894-3065"},{"leaid":"3172150","lea_name":"Humphrey Public Schools","fips":31,"city_mailing":"HUMPHREY","state_mailing":"NE","zip_mailing":"68642","latitude":41.688543,"longitude":-97.490278,"enrollment":319,"teachers_total_fte":24.55,"number_of_schools":3,"agency_type":1,"lowest_grade_offered":-1,"highest_grade_offered":12,"county_name":"Platte County","phone":"(402)923-1230"},{"leaid":"3104200","lea_name":"Blue Hill Public Schools","fips":31,"city_mailing":"BLUE HILL","state_mailing":"NE","zip_mailing":"68930","latitude":40.326765,"longitude":-98.450186,"enrollment":318,"teachers_total_fte":32.6,"number_of_schools":2,"agency_type":1,"lowest_grade_offered":-1,"highest_grade_offered":12,"county_name":"Webster County","phone":"(402)756-2085"},{"leaid":"3103440","lea_name":"Bancroft-Rosalie Community Schools","fips":31,"city_mailing":"BANCROFT","state_mailing":"NE","zip_mailing":"68004","latitude":42.009118,"longitude":-96.572119,"enrollment":311,"teachers_total_fte":29.95,"number_of_schools":2,"agency_type":1,"lowest_grade_offered":-1,"highest_grade_offered":12,"county_name":"Cuming County","phone":"(402)648-3336"},{"leaid":"3100120","lea_name":"Hitchcock County School System","fips":31,"city_mailing":"TRENTON","state_mailing":"NE","zip_mailing":"69044","latitude":40.175425,"longitude":-101.016348,"enrollment":310,"teachers_total_fte":26.02,"number_of_schools":2,"agency_type":1,"lowest_grade_offered":-1,"highest_grade_offered":12,"county_name":"Hitchcock County","phone":"(308)334-5575"},{"leaid":"3178540","lea_name":"Weeping Water Public Schools","fips":31,"city_mailing":"WEEPING WATER","state_mailing":"NE","zip_mailing":"68463","latitude":40.865669,"longitude":-96.141045,"enrollment":310,"teachers_total_fte":29.7,"number_of_schools":3,"agency_type":1,"lowest_grade_offered":-1,"highest_grade_offered":12,"county_name":"Cass County","phone":"(402)267-2445"},{"leaid":"3100024","lea_name":"Sutherland Public Schools","fips":31,"city_mailing":"SUTHERLAND","state_mailing":"NE","zip_mailing":"69165","latitude":41.159992,"longitude":-101.125848,"enrollment":305,"teachers_total_fte":27.72,"number_of_schools":2,"agency_type":1,"lowest_grade_offered":-1,"highest_grade_offered":12,"county_name":"Lincoln County","phone":"(308)386-4656"},{"leaid":"3175690","lea_name":"Pleasanton Public Schools","fips":31,"city_mailing":"PLEASANTON","state_mailing":"NE","zip_mailing":"68866","latitude":40.97021,"longitude":-99.089719,"enrollment":304,"teachers_total_fte":22.76,"number_of_schools":2,"agency_type":1,"lowest_grade_offered":-1,"highest_grade_offered":12,"county_name":"Buffalo County","phone":"(308)388-2041"},{"leaid":"3100183","lea_name":"Howells-Dodge Consolidated Schools","fips":31,"city_mailing":"HOWELLS","state_mailing":"NE","zip_mailing":"68641","latitude":41.72414,"longitude":-97.005846,"enrollment":301,"teachers_total_fte":27.45,"number_of_schools":3,"agency_type":1,"lowest_grade_offered":-1,"highest_grade_offered":12,"county_name":"Colfax County","phone":"(402)986-1621"},{"leaid":"3100179","lea_name":"Humboldt Table Rock Steinauer Public Schools","fips":31,"city_mailing":"HUMBOLDT","state_mailing":"NE","zip_mailing":"68376","latitude":40.168403,"longitude":-95.946783,"enrollment":300,"teachers_total_fte":43.51,"number_of_schools":3,"agency_type":1,"lowest_grade_offered":-1,"highest_grade_offered":12,"county_name":"Richardson County","phone":"(402)862-2235"},{"leaid":"3100091","lea_name":"Fullerton Public Schools","fips":31,"city_mailing":"FULLERTON","state_mailing":"NE","zip_mailing":"68638","latitude":41.362901,"longitude":-97.97213,"enrollment":299,"teachers_total_fte":27.0,"number_of_schools":2,"agency_type":1,"lowest_grade_offered":-1,"highest_grade_offered":12,"county_name":"Nance County","phone":"(308)536-2431"},{"leaid":"3100003","lea_name":"East Butler Public Schools","fips":31,"city_mailing":"BRAINARD","state_mailing":"NE","zip_mailing":"68626","latitude":41.181737,"longitude":-97.001969,"enrollment":297,"teachers_total_fte":36.02,"number_of_schools":3,"agency_type":1,"lowest_grade_offered":-1,"highest_grade_offered":12,"county_name":"Butler County","phone":"(402)545-2081"},{"leaid":"3100178","lea_name":"Southwest Public Schools","fips":31,"city_mailing":"BARTLEY","state_mailing":"NE","zip_mailing":"69020","latitude":40.257527,"longitude":-100.307572,"enrollment":294,"teachers_total_fte":34.95,"number_of_schools":2,"agency_type":1,"lowest_grade_offered":-1,"highest_grade_offered":12,"county_name":"Red Willow County","phone":"(308)692-3223"},{"leaid":"3104640","lea_name":"Burwell Public Schools","fips":31,"city_mailing":"BURWELL","state_mailing":"NE","zip_mailing":"68823","latitude":41.778971,"longitude":-99.12748,"enrollment":293,"teachers_total_fte":28.05,"number_of_schools":2,"agency_type":1,"lowest_grade_offered":-1,"highest_grade_offered":12,"county_name":"Garfield County","phone":"(308)346-4150"},{"leaid":"3100065","lea_name":"Franklin Public Schools","fips":31,"city_mailing":"FRANKLIN","state_mailing":"NE","zip_mailing":"68939","latitude":40.095797,"longitude":-98.95868,"enrollment":290,"teachers_total_fte":30.1,"number_of_schools":3,"agency_type":1,"lowest_grade_offered":-1,"highest_grade_offered":12,"county_name":"Franklin County","phone":"(308)425-6283"},{"leaid":"3100077","lea_name":"Dundy County Stratton Public Schools","fips":31,"city_mailing":"BENKELMAN","state_mailing":"NE","zip_mailing":"69021","latitude":40.052509,"longitude":-101.538065,"enrollment":290,"teachers_total_fte":29.86,"number_of_schools":2,"agency_type":1,"lowest_grade_offered":-1,"highest_grade_offered":12,"county_name":"Dundy County","phone":"(308)423-2738"},{"leaid":"3105550","lea_name":"Creighton Community Public Schools","fips":31,"city_mailing":"CREIGHTON","state_mailing":"NE","zip_mailing":"68729","latitude":42.456655,"longitude":-97.905667,"enrollment":290,"teachers_total_fte":32.08,"number_of_schools":2,"agency_type":1,"lowest_grade_offered":-1,"highest_grade_offered":12,"county_name":"Knox County","phone":"(402)358-5000"},{"leaid":"3100015","lea_name":"Cambridge Public Schools","fips":31,"city_mailing":"CAMBRIDGE","state_mailing":"NE","zip_mailing":"69022","latitude":40.283374,"longitude":-100.173819,"enrollment":288,"teachers_total_fte":27.6,"number_of_schools":3,"agency_type":1,"lowest_grade_offered":-1,"highest_grade_offered":12,"county_name":"Furnas County","phone":"(308)697-3322"},{"leaid":"3172420","lea_name":"Kenesaw Public Schools","fips":31,"city_mailing":"KENESAW","state_mailing":"NE","zip_mailing":"68956","latitude":40.621282,"longitude":-98.651734,"enrollment":283,"teachers_total_fte":28.59,"number_of_schools":2,"agency_type":1,"lowest_grade_offered":-1,"highest_grade_offered":12,"county_name":"Adams County","phone":"(402)752-3215"},{"leaid":"3173590","lea_name":"Mead Public Schools","fips":31,"city_mailing":"MEAD","state_mailing":"NE","zip_mailing":"68041","latitude":41.23212,"longitude":-96.491521,"enrollment":283,"teachers_total_fte":24.7,"number_of_schools":2,"agency_type":1,"lowest_grade_offered":-1,"highest_grade_offered":12,"county_name":"Saunders County","phone":"(402)624-2745"},{"leaid":"3178300","lea_name":"Walthill Public Schools","fips":31,"city_mailing":"WALTHILL","state_mailing":"NE","zip_mailing":"68067","latitude":42.14776,"longitude":-96.49421,"enrollment":281,"teachers_total_fte":34.47,"number_of_schools":2,"agency_type":1,"lowest_grade_offered":-1,"highest_grade_offered":12,"county_name":"Thurston County","phone":"(402)846-5432"},{"leaid":"3172990","lea_name":"Loomis Public Schools","fips":31,"city_mailing":"LOOMIS","state_mailing":"NE","zip_mailing":"68958","latitude":40.475433,"longitude":-99.512893,"enrollment":278,"teachers_total_fte":24.28,"number_of_schools":2,"agency_type":1,"lowest_grade_offered":-1,"highest_grade_offered":12,"county_name":"Phelps County","phone":"(308)876-2111"},{"leaid":"3175060","lea_name":"Overton Public Schools","fips":31,"city_mailing":"OVERTON","state_mailing":"NE","zip_mailing":"68863","latitude":40.741137,"longitude":-99.537308,"enrollment":277,"teachers_total_fte":28.02,"number_of_schools":2,"agency_type":1,"lowest_grade_offered":-1,"highest_grade_offered":12,"county_name":"Dawson County","phone":"(308)987-2424"},{"leaid":"3172720","lea_name":"Leigh Community Schools","fips":31,"city_mailing":"LEIGH","state_mailing":"NE","zip_mailing":"68643","latitude":41.70821,"longitude":-97.240184,"enrollment":276,"teachers_total_fte":22.84,"number_of_schools":2,"agency_type":1,"lowest_grade_offered":-1,"highest_grade_offered":12,"county_name":"Colfax County","phone":"(402)487-3301"},{"leaid":"3173210","lea_name":"Lyons-Decatur Northeast Schools","fips":31,"city_mailing":"LYONS","state_mailing":"NE","zip_mailing":"68038","latitude":41.933875,"longitude":-96.472453,"enrollment":274,"teachers_total_fte":27.15,"number_of_schools":2,"agency_type":1,"lowest_grade_offered":-1,"highest_grade_offered":12,"county_name":"Burt County","phone":"(402)687-2363"},{"leaid":"3104140","lea_name":"Bloomfield Community Schools","fips":31,"city_mailing":"BLOOMFIELD","state_mailing":"NE","zip_mailing":"68718","latitude":42.59491,"longitude":-97.643085,"enrollment":271,"teachers_total_fte":25.91,"number_of_schools":2,"agency_type":1,"lowest_grade_offered":-1,"highest_grade_offered":12,"county_name":"Knox County","phone":"(402)373-4800"},{"leaid":"3175990","lea_name":"Red Cloud Community Schools","fips":31,"city_mailing":"RED CLOUD","state_mailing":"NE","zip_mailing":"68970","latitude":40.088177,"longitude":-98.525632,"enrollment":269,"teachers_total_fte":25.21,"number_of_schools":2,"agency_type":1,"lowest_grade_offered":-1,"highest_grade_offered":12,"county_name":"Webster County","phone":"(402)746-3413"},{"leaid":"3176620","lea_name":"Shelton Public Schools","fips":31,"city_mailing":"SHELTON","state_mailing":"NE","zip_mailing":"68876","latitude":40.770789,"longitude":-98.7341,"enrollment":269,"teachers_total_fte":23.77,"number_of_schools":2,"agency_type":1,"lowest_grade_offered":-1,"highest_grade_offered":12,"county_name":"Buffalo County","phone":"(308)647-6742"},{"leaid":"3175330","lea_name":"Pawnee City Public Schools","fips":31,"city_mailing":"PAWNEE CITY","state_mailing":"NE","zip_mailing":"68420","latitude":40.110093,"longitude":-96.156105,"enrollment":268,"teachers_total_fte":25.78,"number_of_schools":2,"agency_type":1,"lowest_grade_offered":-1,"highest_grade_offered":12,"county_name":"Pawnee County","phone":"(402)852-2988"},{"leaid":"3175930","lea_name":"Randolph Public Schools","fips":31,"city_mailing":"RANDOLPH","state_mailing":"NE","zip_mailing":"68771","latitude":42.380271,"longitude":-97.359426,"enrollment":260,"teachers_total_fte":24.57,"number_of_schools":2,"agency_type":1,"lowest_grade_offered":-1,"highest_grade_offered":12,"county_name":"Cedar County","phone":"(402)337-0252"},{"leaid":"3100023","lea_name":"Maxwell Public Schools","fips":31,"city_mailing":"MAXWELL","state_mailing":"NE","zip_mailing":"69151","latitude":41.077958,"longitude":-100.519063,"enrollment":258,"teachers_total_fte":24.13,"number_of_schools":2,"agency_type":1,"lowest_grade_offered":-1,"highest_grade_offered":12,"county_name":"Lincoln County","phone":"(308)582-4585"},{"leaid":"3100141","lea_name":"Emerson-Hubbard Public Schools","fips":31,"city_mailing":"EMERSON","state_mailing":"NE","zip_mailing":"68733","latitude":42.280636,"longitude":-96.72756,"enrollment":253,"teachers_total_fte":24.37,"number_of_schools":3,"agency_type":1,"lowest_grade_offered":-1,"highest_grade_offered":12,"county_name":"Dixon County","phone":"(402)695-2621"},{"leaid":"3100096","lea_name":"Friend Public Schools","fips":31,"city_mailing":"FRIEND","state_mailing":"NE","zip_mailing":"68359","latitude":40.650564,"longitude":-97.288139,"enrollment":251,"teachers_total_fte":22.83,"number_of_schools":2,"agency_type":1,"lowest_grade_offered":-1,"highest_grade_offered":12,"county_name":"Saline County","phone":"(402)947-2781"},{"leaid":"3171010","lea_name":"Giltner Public Schools","fips":31,"city_mailing":"GILTNER","state_mailing":"NE","zip_mailing":"68841","latitude":40.771259,"longitude":-98.150925,"enrollment":246,"teachers_total_fte":21.52,"number_of_schools":2,"agency_type":1,"lowest_grade_offered":-1,"highest_grade_offered":12,"county_name":"Hamilton County","phone":"(402)849-2238"},{"leaid":"3100010","lea_name":"Anselmo-Merna Public Schools","fips":31,"city_mailing":"MERNA","state_mailing":"NE","zip_mailing":"68856","latitude":41.48587,"longitude":-99.767612,"enrollment":245,"teachers_total_fte":24.12,"number_of_schools":2,"agency_type":1,"lowest_grade_offered":-1,"highest_grade_offered":12,"county_name":"Custer County","phone":"(308)643-2224"},{"leaid":"3175000","lea_name":"Osceola Public Schools","fips":31,"city_mailing":"OSCEOLA","state_mailing":"NE","zip_mailing":"68651","latitude":41.172283,"longitude":-97.544554,"enrollment":244,"teachers_total_fte":23.88,"number_of_schools":3,"agency_type":1,"lowest_grade_offered":-1,"highest_grade_offered":12,"county_name":"Polk County","phone":"(402)747-3121"},{"leaid":"3178840","lea_name":"Winside Public Schools","fips":31,"city_mailing":"WINSIDE","state_mailing":"NE","zip_mailing":"68790","latitude":42.178218,"longitude":-97.179535,"enrollment":244,"teachers_total_fte":29.0,"number_of_schools":2,"agency_type":1,"lowest_grade_offered":-1,"highest_grade_offered":12,"county_name":"Wayne County","phone":"(402)286-4466"},{"leaid":"3104020","lea_name":"Bertrand Public Schools","fips":31,"city_mailing":"BERTRAND","state_mailing":"NE","zip_mailing":"68927","latitude":40.522401,"longitude":-99.63168,"enrollment":243,"teachers_total_fte":24.57,"number_of_schools":2,"agency_type":1,"lowest_grade_offered":-1,"highest_grade_offered":12,"county_name":"Phelps County","phone":"(308)472-3427"},{"leaid":"3100184","lea_name":"Riverside Public Schools","fips":31,"city_mailing":"SPALDING","state_mailing":"NE","zip_mailing":"68665","latitude":41.68855,"longitude":-98.36001,"enrollment":242,"teachers_total_fte":29.32,"number_of_schools":4,"agency_type":1,"lowest_grade_offered":-1,"highest_grade_offered":12,"county_name":"Greeley County","phone":"(308)497-2431"},{"leaid":"3105910","lea_name":"Deshler Public Schools","fips":31,"city_mailing":"DESHLER","state_mailing":"NE","zip_mailing":"68340","latitude":40.134195,"longitude":-97.723535,"enrollment":242,"teachers_total_fte":25.74,"number_of_schools":2,"agency_type":1,"lowest_grade_offered":-1,"highest_grade_offered":12,"county_name":"Thayer County","phone":"(402)365-7272"},{"leaid":"3173500","lea_name":"McCool Junction Public Schools","fips":31,"city_mailing":"MCCOOL JUNCTION","state_mailing":"NE","zip_mailing":"68401","latitude":40.74261,"longitude":-97.596697,"enrollment":240,"teachers_total_fte":22.76,"number_of_schools":2,"agency_type":1,"lowest_grade_offered":-1,"highest_grade_offered":12,"county_name":"York County","phone":"(402)724-2231"},{"leaid":"3176400","lea_name":"Santee Community Schools","fips":31,"city_mailing":"NIOBRARA","state_mailing":"NE","zip_mailing":"68760","latitude":42.838871,"longitude":-97.849566,"enrollment":239,"teachers_total_fte":33.05,"number_of_schools":3,"agency_type":1,"lowest_grade_offered":-1,"highest_grade_offered":12,"county_name":"Knox County","phone":"(402)857-2741"},{"leaid":"3176170","lea_name":"Rock County Public Schools","fips":31,"city_mailing":"BASSETT","state_mailing":"NE","zip_mailing":"68714","latitude":42.578183,"longitude":-99.532173,"enrollment":238,"teachers_total_fte":23.77,"number_of_schools":2,"agency_type":1,"lowest_grade_offered":-1,"highest_grade_offered":12,"county_name":"Rock County","phone":"(402)684-3411"},{"leaid":"3100125","lea_name":"Diller-Odell Public Schools","fips":31,"city_mailing":"ODELL","state_mailing":"NE","zip_mailing":"68415","latitude":40.052415,"longitude":-96.802191,"enrollment":236,"teachers_total_fte":26.28,"number_of_schools":2,"agency_type":1,"lowest_grade_offered":-1,"highest_grade_offered":12,"county_name":"Gage County","phone":"(402)766-4171"},{"leaid":"3169840","lea_name":"Dorchester Public Schools","fips":31,"city_mailing":"DORCHESTER","state_mailing":"NE","zip_mailing":"68343","latitude":40.649346,"longitude":-97.11959,"enrollment":235,"teachers_total_fte":23.15,"number_of_schools":2,"agency_type":1,"lowest_grade_offered":-1,"highest_grade_offered":12,"county_name":"Saline County","phone":"(402)946-2781"},{"leaid":"3100134","lea_name":"Wilcox-Hildreth Public Schools","fips":31,"city_mailing":"WILCOX","state_mailing":"NE","zip_mailing":"68982","latitude":40.365333,"longitude":-99.165349,"enrollment":234,"teachers_total_fte":25.88,"number_of_schools":3,"agency_type":1,"lowest_grade_offered":-1,"highest_grade_offered":12,"county_name":"Kearney County","phone":"(308)478-5265"},{"leaid":"3100018","lea_name":"Wauneta-Palisade Public Schools","fips":31,"city_mailing":"WAUNETA","state_mailing":"NE","zip_mailing":"69045","latitude":40.41889,"longitude":-101.374553,"enrollment":230,"teachers_total_fte":20.2,"number_of_schools":3,"agency_type":1,"lowest_grade_offered":-1,"highest_grade_offered":12,"county_name":"Chase County","phone":"(308)394-5700"},{"leaid":"3100066","lea_name":"Silver Lake Public Schools","fips":31,"city_mailing":"ROSELAND","state_mailing":"NE","zip_mailing":"68973","latitude":40.46825,"longitude":-98.558172,"enrollment":226,"teachers_total_fte":26.72,"number_of_schools":2,"agency_type":1,"lowest_grade_offered":-1,"highest_grade_offered":12,"county_name":"Adams County","phone":"(402)756-6611"},{"leaid":"3105160","lea_name":"Clarkson Public Schools","fips":31,"city_mailing":"CLARKSON","state_mailing":"NE","zip_mailing":"68629","latitude":41.719656,"longitude":-97.123818,"enrollment":224,"teachers_total_fte":24.45,"number_of_schools":2,"agency_type":1,"lowest_grade_offered":-1,"highest_grade_offered":12,"county_name":"Colfax County","phone":"(402)892-3454"},{"leaid":"3173660","lea_name":"Meridian Public Schools","fips":31,"city_mailing":"DAYKIN","state_mailing":"NE","zip_mailing":"68338","latitude":40.320069,"longitude":-97.330052,"enrollment":224,"teachers_total_fte":22.23,"number_of_schools":2,"agency_type":1,"lowest_grade_offered":-1,"highest_grade_offered":12,"county_name":"Jefferson County","phone":"(402)446-7265"},{"leaid":"3177190","lea_name":"Sterling Public Schools","fips":31,"city_mailing":"STERLING","state_mailing":"NE","zip_mailing":"68443","latitude":40.460139,"longitude":-96.375649,"enrollment":224,"teachers_total_fte":21.46,"number_of_schools":2,"agency_type":1,"lowest_grade_offered":-1,"highest_grade_offered":12,"county_name":"Johnson County","phone":"(402)866-4761"},{"leaid":"3100123","lea_name":"High Plains Community Schools","fips":31,"city_mailing":"POLK","state_mailing":"NE","zip_mailing":"68654","latitude":41.073353,"longitude":-97.781588,"enrollment":223,"teachers_total_fte":25.53,"number_of_schools":2,"agency_type":1,"lowest_grade_offered":-1,"highest_grade_offered":12,"county_name":"Polk County","phone":"(402)765-2271"},{"leaid":"3177340","lea_name":"Sumner-Eddyville-Miller Schools","fips":31,"city_mailing":"SUMNER","state_mailing":"NE","zip_mailing":"68878","latitude":40.950132,"longitude":-99.50657,"enrollment":222,"teachers_total_fte":21.67,"number_of_schools":2,"agency_type":1,"lowest_grade_offered":-1,"highest_grade_offered":12,"county_name":"Dawson County","phone":"(308)752-2925"},{"leaid":"3174340","lea_name":"Newman Grove Public Schools","fips":31,"city_mailing":"NEWMAN GROVE","state_mailing":"NE","zip_mailing":"68758","latitude":41.746269,"longitude":-97.773933,"enrollment":219,"teachers_total_fte":20.69,"number_of_schools":2,"agency_type":1,"lowest_grade_offered":-1,"highest_grade_offered":12,"county_name":"Madison County","phone":"(402)447-2721"},{"leaid":"3100110","lea_name":"South Platte Public Schools","fips":31,"city_mailing":"BIG SPRINGS","state_mailing":"NE","zip_mailing":"69122","latitude":41.066784,"longitude":-102.069204,"enrollment":218,"teachers_total_fte":20.0,"number_of_schools":2,"agency_type":1,"lowest_grade_offered":-1,"highest_grade_offered":12,"county_name":"Deuel County","phone":"(308)889-3622"},{"leaid":"3178450","lea_name":"Wausa Public Schools","fips":31,"city_mailing":"WAUSA","state_mailing":"NE","zip_mailing":"68786","latitude":42.497198,"longitude":-97.542927,"enrollment":216,"teachers_total_fte":18.94,"number_of_schools":2,"agency_type":1,"lowest_grade_offered":-1,"highest_grade_offered":12,"county_name":"Knox County","phone":"(402)586-2255"},{"leaid":"3174370","lea_name":"Niobrara Public Schools","fips":31,"city_mailing":"NIOBRARA","state_mailing":"NE","zip_mailing":"68760","latitude":42.752207,"longitude":-98.028488,"enrollment":214,"teachers_total_fte":21.97,"number_of_schools":2,"agency_type":1,"lowest_grade_offered":-1,"highest_grade_offered":12,"county_name":"Knox County","phone":"(402)857-3323"},{"leaid":"3173600","lea_name":"Medicine Valley Public Schools","fips":31,"city_mailing":"CURTIS","state_mailing":"NE","zip_mailing":"69025","latitude":40.633095,"longitude":-100.522733,"enrollment":209,"teachers_total_fte":20.2,"number_of_schools":2,"agency_type":1,"lowest_grade_offered":-1,"highest_grade_offered":12,"county_name":"Frontier County","phone":"(308)367-4106"},{"leaid":"3171550","lea_name":"Harvard Public Schools","fips":31,"city_mailing":"HARVARD","state_mailing":"NE","zip_mailing":"68944","latitude":40.622206,"longitude":-98.090857,"enrollment":207,"teachers_total_fte":24.27,"number_of_schools":3,"agency_type":1,"lowest_grade_offered":-1,"highest_grade_offered":12,"county_name":"Clay County","phone":"(402)772-2171"},{"leaid":"3175360","lea_name":"Paxton Consolidated Schools","fips":31,"city_mailing":"PAXTON","state_mailing":"NE","zip_mailing":"69155","latitude":41.12533,"longitude":-101.36239,"enrollment":207,"teachers_total_fte":18.63,"number_of_schools":2,"agency_type":1,"lowest_grade_offered":-1,"highest_grade_offered":12,"county_name":"Keith County","phone":"(308)239-4283"},{"leaid":"3171610","lea_name":"Hay Springs Public Schools","fips":31,"city_mailing":"HAY SPRINGS","state_mailing":"NE","zip_mailing":"69347","latitude":42.687206,"longitude":-102.688135,"enrollment":201,"teachers_total_fte":19.23,"number_of_schools":4,"agency_type":1,"lowest_grade_offered":-1,"highest_grade_offered":12,"county_name":"Sheridan County","phone":"(308)638-4434"},{"leaid":"3100082","lea_name":"Stuart Public Schools","fips":31,"city_mailing":"STUART","state_mailing":"NE","zip_mailing":"68780","latitude":42.600031,"longitude":-99.137933,"enrollment":200,"teachers_total_fte":21.84,"number_of_schools":2,"agency_type":1,"lowest_grade_offered":-1,"highest_grade_offered":12,"county_name":"Holt County","phone":"(402)924-3302"},{"leaid":"3103060","lea_name":"Ansley Public Schools","fips":31,"city_mailing":"ANSLEY","state_mailing":"NE","zip_mailing":"68814","latitude":41.291196,"longitude":-99.378778,"enrollment":200,"teachers_total_fte":21.54,"number_of_schools":2,"agency_type":1,"lowest_grade_offered":-1,"highest_grade_offered":12,"county_name":"Custer County","phone":"(308)935-1121"},{"leaid":"3170220","lea_name":"Elwood Public Schools","fips":31,"city_mailing":"ELWOOD","state_mailing":"NE","zip_mailing":"68937","latitude":40.588197,"longitude":-99.864948,"enrollment":198,"teachers_total_fte":23.03,"number_of_schools":2,"agency_type":1,"lowest_grade_offered":-1,"highest_grade_offered":12,"county_name":"Gosper County","phone":"(308)785-2491"},{"leaid":"3170050","lea_name":"Elgin Public Schools","fips":31,"city_mailing":"ELGIN","state_mailing":"NE","zip_mailing":"68636","latitude":41.983585,"longitude":-98.080395,"enrollment":197,"teachers_total_fte":22.67,"number_of_schools":2,"agency_type":1,"lowest_grade_offered":-1,"highest_grade_offered":12,"county_name":"Antelope County","phone":"(402)843-2455"},{"leaid":"3173440","lea_name":"Maywood Public Schools","fips":31,"city_mailing":"MAYWOOD","state_mailing":"NE","zip_mailing":"69038","latitude":40.653749,"longitude":-100.618873,"enrollment":196,"teachers_total_fte":20.44,"number_of_schools":2,"agency_type":1,"lowest_grade_offered":-1,"highest_grade_offered":12,"county_name":"Frontier County","phone":"(308)362-4223"},{"leaid":"3170800","lea_name":"Garden County Schools","fips":31,"city_mailing":"OSHKOSH","state_mailing":"NE","zip_mailing":"69154","latitude":41.404572,"longitude":-102.350643,"enrollment":193,"teachers_total_fte":22.52,"number_of_schools":2,"agency_type":1,"lowest_grade_offered":-1,"highest_grade_offered":12,"county_name":"Garden County","phone":"(308)772-3242"},{"leaid":"3100073","lea_name":"Arnold Public Schools","fips":31,"city_mailing":"ARNOLD","state_mailing":"NE","zip_mailing":"69120","latitude":41.42576,"longitude":-100.191892,"enrollment":192,"teachers_total_fte":19.55,"number_of_schools":2,"agency_type":1,"lowest_grade_offered":-1,"highest_grade_offered":12,"county_name":"Custer County","phone":"(308)848-2226"},{"leaid":"3171370","lea_name":"Hampton Public Schools","fips":31,"city_mailing":"HAMPTON","state_mailing":"NE","zip_mailing":"68843","latitude":40.882529,"longitude":-97.889237,"enrollment":191,"teachers_total_fte":20.75,"number_of_schools":2,"agency_type":1,"lowest_grade_offered":-1,"highest_grade_offered":12,"county_name":"Hamilton County","phone":"(402)725-3117"},{"leaid":"3178990","lea_name":"Wynot Public Schools","fips":31,"city_mailing":"WYNOT","state_mailing":"NE","zip_mailing":"68792","latitude":42.742575,"longitude":-97.1705,"enrollment":187,"teachers_total_fte":19.95,"number_of_schools":3,"agency_type":1,"lowest_grade_offered":-1,"highest_grade_offered":12,"county_name":"Cedar County","phone":"(402)357-2121"},{"leaid":"3104290","lea_name":"Brady Public Schools","fips":31,"city_mailing":"BRADY","state_mailing":"NE","zip_mailing":"69123","latitude":41.024172,"longitude":-100.364071,"enrollment":184,"teachers_total_fte":20.14,"number_of_schools":2,"agency_type":1,"lowest_grade_offered":-1,"highest_grade_offered":12,"county_name":"Lincoln County","phone":"(308)584-3317"},{"leaid":"3178260","lea_name":"Wallace Public School District 65 R","fips":31,"city_mailing":"WALLACE","state_mailing":"NE","zip_mailing":"69169","latitude":40.840035,"longitude":-101.170415,"enrollment":183,"teachers_total_fte":22.73,"number_of_schools":2,"agency_type":1,"lowest_grade_offered":-1,"highest_grade_offered":12,"county_name":"Lincoln County","phone":"(308)387-4323"},{"leaid":"3100012","lea_name":"Callaway Public Schools","fips":31,"city_mailing":"CALLAWAY","state_mailing":"NE","zip_mailing":"68825","latitude":41.291574,"longitude":-99.919079,"enrollment":180,"teachers_total_fte":23.6,"number_of_schools":2,"agency_type":1,"lowest_grade_offered":-1,"highest_grade_offered":12,"county_name":"Custer County","phone":"(308)836-2272"},{"leaid":"3177100","lea_name":"Stapleton Public Schools","fips":31,"city_mailing":"STAPLETON","state_mailing":"NE","zip_mailing":"69163","latitude":41.476601,"longitude":-100.513461,"enrollment":180,"teachers_total_fte":19.48,"number_of_schools":2,"agency_type":1,"lowest_grade_offered":-1,"highest_grade_offered":12,"county_name":"Logan County","phone":"(308)636-2252"},{"leaid":"3100124","lea_name":"Bruning-Davenport Unified School System","fips":31,"city_mailing":"DAVENPORT","state_mailing":"NE","zip_mailing":"68335","latitude":40.313404,"longitude":-97.809943,"enrollment":178,"teachers_total_fte":25.81,"number_of_schools":4,"agency_type":1,"lowest_grade_offered":-1,"highest_grade_offered":12,"county_name":"Thayer County","phone":"(402)364-2225"},{"leaid":"3172780","lea_name":"Lewiston Consolidated Schools","fips":31,"city_mailing":"LEWISTON","state_mailing":"NE","zip_mailing":"68380","latitude":40.243617,"longitude":-96.410209,"enrollment":177,"teachers_total_fte":23.2,"number_of_schools":2,"agency_type":1,"lowest_grade_offered":-1,"highest_grade_offered":12,"county_name":"Pawnee County","phone":"(402)865-4675"},{"leaid":"3105520","lea_name":"Crawford Public Schools","fips":31,"city_mailing":"CRAWFORD","state_mailing":"NE","zip_mailing":"69339","latitude":42.680523,"longitude":-103.407679,"enrollment":174,"teachers_total_fte":20.59,"number_of_schools":2,"agency_type":1,"lowest_grade_offered":-1,"highest_grade_offered":12,"county_name":"Dawes County","phone":"(308)665-1537"},{"leaid":"3176410","lea_name":"Sargent Public Schools","fips":31,"city_mailing":"SARGENT","state_mailing":"NE","zip_mailing":"68874","latitude":41.644483,"longitude":-99.373597,"enrollment":174,"teachers_total_fte":19.9,"number_of_schools":2,"agency_type":1,"lowest_grade_offered":-1,"highest_grade_offered":12,"county_name":"Custer County","phone":"(308)527-4119"},{"leaid":"3100140","lea_name":"Creek Valley Schools","fips":31,"city_mailing":"CHAPPELL","state_mailing":"NE","zip_mailing":"69129","latitude":41.096677,"longitude":-102.46995,"enrollment":172,"teachers_total_fte":23.36,"number_of_schools":3,"agency_type":1,"lowest_grade_offered":-1,"highest_grade_offered":12,"county_name":"Deuel County","phone":"(308)874-2911"},{"leaid":"3176980","lea_name":"St. Edward Public Schools","fips":31,"city_mailing":"ST EDWARD","state_mailing":"NE","zip_mailing":"68660","latitude":41.571456,"longitude":-97.861383,"enrollment":172,"teachers_total_fte":20.67,"number_of_schools":2,"agency_type":1,"lowest_grade_offered":-1,"highest_grade_offered":12,"county_name":"Boone County","phone":"(402)678-2282"},{"leaid":"3100076","lea_name":"Scribner-Snyder Community Schools","fips":31,"city_mailing":"SCRIBNER","state_mailing":"NE","zip_mailing":"68057","latitude":41.669978,"longitude":-96.664525,"enrollment":171,"teachers_total_fte":28.8,"number_of_schools":2,"agency_type":1,"lowest_grade_offered":-1,"highest_grade_offered":12,"county_name":"Dodge County","phone":"(402)664-2567"},{"leaid":"3175030","lea_name":"Osmond Community Schools","fips":31,"city_mailing":"OSMOND","state_mailing":"NE","zip_mailing":"68765","latitude":42.366498,"longitude":-97.599061,"enrollment":170,"teachers_total_fte":19.7,"number_of_schools":2,"agency_type":1,"lowest_grade_offered":-1,"highest_grade_offered":12,"county_name":"Pierce County","phone":"(402)748-3777"},{"leaid":"3100111","lea_name":"Eustis-Farnam Public Schools","fips":31,"city_mailing":"EUSTIS","state_mailing":"NE","zip_mailing":"69028","latitude":40.666871,"longitude":-100.02676,"enrollment":166,"teachers_total_fte":22.55,"number_of_schools":2,"agency_type":1,"lowest_grade_offered":-1,"highest_grade_offered":12,"county_name":"Frontier County","phone":"(308)486-3991"},{"leaid":"3175810","lea_name":"Potter-Dix Public Schools","fips":31,"city_mailing":"POTTER","state_mailing":"NE","zip_mailing":"69156","latitude":41.216434,"longitude":-103.307049,"enrollment":166,"teachers_total_fte":17.87,"number_of_schools":2,"agency_type":1,"lowest_grade_offered":-1,"highest_grade_offered":12,"county_name":"Cheyenne County","phone":"(308)879-4434"},{"leaid":"3100133","lea_name":"Exeter-Milligan Public Schools","fips":31,"city_mailing":"EXETER","state_mailing":"NE","zip_mailing":"68351","latitude":40.642844,"longitude":-97.445525,"enrollment":165,"teachers_total_fte":23.14,"number_of_schools":3,"agency_type":1,"lowest_grade_offered":-1,"highest_grade_offered":12,"county_name":"Fillmore County","phone":"(402)266-5911"},{"leaid":"3176650","lea_name":"Shickley Public Schools","fips":31,"city_mailing":"SHICKLEY","state_mailing":"NE","zip_mailing":"68436","latitude":40.418536,"longitude":-97.722501,"enrollment":164,"teachers_total_fte":21.65,"number_of_schools":2,"agency_type":1,"lowest_grade_offered":-1,"highest_grade_offered":12,"county_name":"Fillmore County","phone":"(402)627-3375"},{"leaid":"3174040","lea_name":"Mullen Public Schools","fips":31,"city_mailing":"MULLEN","state_mailing":"NE","zip_mailing":"69152","latitude":42.045276,"longitude":-101.045596,"enrollment":163,"teachers_total_fte":20.3,"number_of_schools":3,"agency_type":1,"lowest_grade_offered":-1,"highest_grade_offered":12,"county_name":"Hooker County","phone":"(308)546-2223"},{"leaid":"3105280","lea_name":"Cody-Kilgore Public Schools","fips":31,"city_mailing":"CODY","state_mailing":"NE","zip_mailing":"69211","latitude":42.938003,"longitude":-101.248669,"enrollment":158,"teachers_total_fte":19.7,"number_of_schools":3,"agency_type":1,"lowest_grade_offered":-1,"highest_grade_offered":12,"county_name":"Cherry County","phone":"(402)823-4190"},{"leaid":"3173800","lea_name":"Minatare Public Schools","fips":31,"city_mailing":"MINATARE","state_mailing":"NE","zip_mailing":"69356","latitude":41.8128,"longitude":-103.501192,"enrollment":152,"teachers_total_fte":22.56,"number_of_schools":3,"agency_type":1,"lowest_grade_offered":-1,"highest_grade_offered":12,"county_name":"Scotts Bluff County","phone":"(308)783-1232"},{"leaid":"3100067","lea_name":"Banner County Public Schools","fips":31,"city_mailing":"HARRISBURG","state_mailing":"NE","zip_mailing":"69345","latitude":41.558329,"longitude":-103.745483,"enrollment":151,"teachers_total_fte":22.02,"number_of_schools":3,"agency_type":1,"lowest_grade_offered":-1,"highest_grade_offered":12,"county_name":"Banner County","phone":"(308)436-5262"},{"leaid":"3109120","lea_name":"Hayes Center Public Schools","fips":31,"city_mailing":"HAYES CENTER","state_mailing":"NE","zip_mailing":"69032","latitude":40.511479,"longitude":-101.017824,"enrollment":148,"teachers_total_fte":16.39,"number_of_schools":2,"agency_type":1,"lowest_grade_offered":-1,"highest_grade_offered":12,"county_name":"Hayes County","phone":"(308)286-5600"},{"leaid":"3172210","lea_name":"Hyannis Area Schools","fips":31,"city_mailing":"HYANNIS","state_mailing":"NE","zip_mailing":"69350","latitude":41.997586,"longitude":-101.751364,"enrollment":147,"teachers_total_fte":16.0,"number_of_schools":2,"agency_type":1,"lowest_grade_offered":-1,"highest_grade_offered":12,"county_name":"Grant County","phone":"(308)458-2202"},{"leaid":"3178120","lea_name":"Verdigre Public Schools","fips":31,"city_mailing":"VERDIGRE","state_mailing":"NE","zip_mailing":"68783","latitude":42.599035,"longitude":-98.035745,"enrollment":147,"teachers_total_fte":19.52,"number_of_schools":2,"agency_type":1,"lowest_grade_offered":-1,"highest_grade_offered":12,"county_name":"Knox County","phone":"(402)668-2275"},{"leaid":"3102880","lea_name":"Allen Consolidated Schools","fips":31,"city_mailing":"ALLEN","state_mailing":"NE","zip_mailing":"68710","latitude":42.412401,"longitude":-96.843883,"enrollment":142,"teachers_total_fte":19.83,"number_of_schools":2,"agency_type":1,"lowest_grade_offered":-1,"highest_grade_offered":12,"county_name":"Dixon County","phone":"(402)635-2484"},{"leaid":"3177730","lea_name":"Thedford Public Schools","fips":31,"city_mailing":"THEDFORD","state_mailing":"NE","zip_mailing":"69166","latitude":41.979907,"longitude":-100.574763,"enrollment":137,"teachers_total_fte":19.18,"number_of_schools":2,"agency_type":1,"lowest_grade_offered":-1,"highest_grade_offered":12,"county_name":"Thomas County","phone":"(308)645-2230"},{"leaid":"3100072","lea_name":"Leyton Public Schools","fips":31,"city_mailing":"DALTON","state_mailing":"NE","zip_mailing":"69131","latitude":41.40764,"longitude":-102.971098,"enrollment":133,"teachers_total_fte":19.52,"number_of_schools":2,"agency_type":1,"lowest_grade_offered":-1,"highest_grade_offered":12,"county_name":"Cheyenne County","phone":"(308)377-2301"},{"leaid":"3178670","lea_name":"Wheeler Central Schools","fips":31,"city_mailing":"BARTLETT","state_mailing":"NE","zip_mailing":"68622","latitude":41.885863,"longitude":-98.555198,"enrollment":127,"teachers_total_fte":20.03,"number_of_schools":2,"agency_type":1,"lowest_grade_offered":-1,"highest_grade_offered":12,"county_name":"Wheeler County","phone":"(308)654-3273"},{"leaid":"3103120","lea_name":"Arcadia Public Schools","fips":31,"city_mailing":"ARCADIA","state_mailing":"NE","zip_mailing":"68815","latitude":41.425771,"longitude":-99.1291,"enrollment":124,"teachers_total_fte":16.93,"number_of_schools":2,"agency_type":1,"lowest_grade_offered":-1,"highest_grade_offered":12,"county_name":"Valley County","phone":"(308)789-6522"},{"leaid":"3170020","lea_name":"Elba Public Schools","fips":31,"city_mailing":"ELBA","state_mailing":"NE","zip_mailing":"68835","latitude":41.283486,"longitude":-98.566615,"enrollment":122,"teachers_total_fte":16.8,"number_of_schools":2,"agency_type":1,"lowest_grade_offered":-1,"highest_grade_offered":12,"county_name":"Howard County","phone":"(308)863-2228"},{"leaid":"3103210","lea_name":"Arthur County Schools","fips":31,"city_mailing":"ARTHUR","state_mailing":"NE","zip_mailing":"69121","latitude":41.568939,"longitude":-101.689204,"enrollment":120,"teachers_total_fte":16.45,"number_of_schools":2,"agency_type":1,"lowest_grade_offered":-1,"highest_grade_offered":12,"county_name":"Arthur County","phone":"(308)764-2253"},{"leaid":"3105010","lea_name":"Chambers Public Schools","fips":31,"city_mailing":"CHAMBERS","state_mailing":"NE","zip_mailing":"68725","latitude":42.203379,"longitude":-98.751062,"enrollment":119,"teachers_total_fte":19.07,"number_of_schools":2,"agency_type":1,"lowest_grade_offered":-1,"highest_grade_offered":12,"county_name":"Holt County","phone":"(402)482-5233"},{"leaid":"3172910","lea_name":"Litchfield Public Schools","fips":31,"city_mailing":"LITCHFIELD","state_mailing":"NE","zip_mailing":"68852","latitude":41.160432,"longitude":-99.155491,"enrollment":115,"teachers_total_fte":17.32,"number_of_schools":2,"agency_type":1,"lowest_grade_offered":-1,"highest_grade_offered":12,"county_name":"Sherman County","phone":"(308)446-2244"},{"leaid":"3176800","lea_name":"Sioux County Public Schools","fips":31,"city_mailing":"HARRISON","state_mailing":"NE","zip_mailing":"69346","latitude":42.690184,"longitude":-103.88091,"enrollment":89,"teachers_total_fte":18.02,"number_of_schools":4,"agency_type":1,"lowest_grade_offered":-1,"highest_grade_offered":12,"county_name":"Sioux County","phone":"(308)668-2415"},{"leaid":"3172480","lea_name":"Keya Paha County Schools","fips":31,"city_mailing":"SPRINGVIEW","state_mailing":"NE","zip_mailing":"68778","latitude":42.826449,"longitude":-99.744494,"enrollment":86,"teachers_total_fte":14.85,"number_of_schools":2,"agency_type":1,"lowest_grade_offered":-1,"highest_grade_offered":12,"county_name":"Keya Paha County","phone":"(402)497-3501"},{"leaid":"3173120","lea_name":"Loup County Public Schools","fips":31,"city_mailing":"TAYLOR","state_mailing":"NE","zip_mailing":"68879","latitude":41.768158,"longitude":-99.3846,"enrollment":83,"teachers_total_fte":14.86,"number_of_schools":2,"agency_type":1,"lowest_grade_offered":-1,"highest_grade_offered":12,"county_name":"Loup County","phone":"(308)942-6115"},{"leaid":"3176380","lea_name":"Sandhills Public Schools","fips":31,"city_mailing":"DUNNING","state_mailing":"NE","zip_mailing":"68833","latitude":41.826618,"longitude":-100.101349,"enrollment":82,"teachers_total_fte":14.6,"number_of_schools":2,"agency_type":1,"lowest_grade_offered":-1,"highest_grade_offered":12,"county_name":"Blaine County","phone":"(308)538-2224"},{"leaid":"3173560","lea_name":"McPherson County Schools","fips":31,"city_mailing":"TRYON","state_mailing":"NE","zip_mailing":"69167","latitude":41.55347,"longitude":-100.958769,"enrollment":52,"teachers_total_fte":11.06,"number_of_schools":2,"agency_type":1,"lowest_grade_offered":-1,"highest_grade_offered":12,"county_name":"McPherson County","phone":"(308)587-2262"}]