[{"leaid":"4823640","lea_name":"Houston Independent School District","fips":48,"city_mailing":"HOUSTON","state_mailing":"TX","zip_mailing":"77092","latitude":29.802507,"longitude":-95.454267,"enrollment":189934,"teachers_total_fte":10993.08,"number_of_schools":274,"agency_type":1,"lowest_grade_offered":-1,"highest_grade_offered":12,"county_name":"Harris County","phone":"(713)556-6005"},{"leaid":"4816230","lea_name":"Dallas Independent School District","fips":48,"city_mailing":"DALLAS","state_mailing":"TX","zip_mailing":"75231","latitude":32.87655,"longitude":-96.768441,"enrollment":141169,"teachers_total_fte":9952.05,"number_of_schools":240,"agency_type":1,"lowest_grade_offered":-1,"highest_grade_offered":12,"county_name":"Dallas County","phone":"(972)925-3700"},{"leaid":"4816110","lea_name":"Cypress-Fairbanks Independent School District","fips":48,"city_mailing":"HOUSTON","state_mailing":"TX","zip_mailing":"77065","latitude":29.922756,"longitude":-95.583673,"enrollment":118010,"teachers_total_fte":7842.86,"number_of_schools":91,"agency_type":1,"lowest_grade_offered":-1,"highest_grade_offered":12,"county_name":"Harris County","phone":"(281)897-4000"},{"leaid":"4833120","lea_name":"Northside Independent School District","fips":48,"city_mailing":"SAN ANTONIO","state_mailing":"TX","zip_mailing":"78253","latitude":29.50751,"longitude":-98.766713,"enrollment":102719,"teachers_total_fte":6870.86,"number_of_schools":124,"agency_type":1,"lowest_grade_offered":-1,"highest_grade_offered":12,"county_name":"Bexar County","phone":"(210)397-8500"},{"leaid":"4825170","lea_name":"Katy Independent School District","fips":48,"city_mailing":"KATY","state_mailing":"TX","zip_mailing":"77494","latitude":29.7803,"longitude":-95.8327,"enrollment":92667,"teachers_total_fte":6447.44,"number_of_schools":74,"agency_type":1,"lowest_grade_offered":-1,"highest_grade_offered":12,"county_name":"Fort Bend County","phone":"(281)396-6000"},{"leaid":"4819650","lea_name":"Fort Bend Independent School District","fips":48,"city_mailing":"SUGAR LAND","state_mailing":"TX","zip_mailing":"77479","latitude":29.58887,"longitude":-95.622211,"enrollment":79660,"teachers_total_fte":4801.86,"number_of_schools":85,"agency_type":1,"lowest_grade_offered":-1,"highest_grade_offered":12,"county_name":"Fort Bend County","phone":"(281)634-1007"},{"leaid":"4808940","lea_name":"Austin Independent School District","fips":48,"city_mailing":"AUSTIN","state_mailing":"TX","zip_mailing":"78704","latitude":30.218592,"longitude":-97.753379,"enrollment":73384,"teachers_total_fte":4433.61,"number_of_schools":124,"agency_type":1,"lowest_grade_offered":-1,"highest_grade_offered":12,"county_name":"Travis County","phone":"(512)414-1700"},{"leaid":"4819700","lea_name":"Fort Worth Independent School District","fips":48,"city_mailing":"FORT WORTH","state_mailing":"TX","zip_mailing":"76107","latitude":32.760407,"longitude":-97.360455,"enrollment":72783,"teachers_total_fte":4928.81,"number_of_schools":140,"agency_type":1,"lowest_grade_offered":-1,"highest_grade_offered":12,"county_name":"Tarrant County","phone":"(817)814-2000"},{"leaid":"4815000","lea_name":"Conroe Independent School District","fips":48,"city_mailing":"CONROE","state_mailing":"TX","zip_mailing":"77304","latitude":30.320576,"longitude":-95.486046,"enrollment":70783,"teachers_total_fte":4517.57,"number_of_schools":64,"agency_type":1,"lowest_grade_offered":-1,"highest_grade_offered":12,"county_name":"Montgomery County","phone":"(936)709-9719"},{"leaid":"4820010","lea_name":"Frisco Independent School District","fips":48,"city_mailing":"FRISCO","state_mailing":"TX","zip_mailing":"75035","latitude":33.124631,"longitude":-96.796882,"enrollment":66916,"teachers_total_fte":4518.8,"number_of_schools":75,"agency_type":1,"lowest_grade_offered":-1,"highest_grade_offered":12,"county_name":"Collin County","phone":"(469)633-6000"},{"leaid":"4807710","lea_name":"Aldine Independent School District","fips":48,"city_mailing":"HOUSTON","state_mailing":"TX","zip_mailing":"77073","latitude":30.003612,"longitude":-95.389625,"enrollment":60074,"teachers_total_fte":3510.07,"number_of_schools":79,"agency_type":1,"lowest_grade_offered":-1,"highest_grade_offered":12,"county_name":"Harris County","phone":"(281)449-1011"},{"leaid":"4832940","lea_name":"North East Independent School District","fips":48,"city_mailing":"SAN ANTONIO","state_mailing":"TX","zip_mailing":"78217","latitude":29.521666,"longitude":-98.456886,"enrollment":59007,"teachers_total_fte":4067.1,"number_of_schools":75,"agency_type":1,"lowest_grade_offered":-1,"highest_grade_offered":12,"county_name":"Bexar County","phone":"(210)407-0541"},{"leaid":"4808700","lea_name":"Arlington Independent School District","fips":48,"city_mailing":"ARLINGTON","state_mailing":"TX","zip_mailing":"76011","latitude":32.763877,"longitude":-97.101276,"enrollment":56167,"teachers_total_fte":3860.55,"number_of_schools":75,"agency_type":1,"lowest_grade_offered":-1,"highest_grade_offered":12,"county_name":"Tarrant County","phone":"(682)867-4611"},{"leaid":"4825740","lea_name":"Klein Independent School District","fips":48,"city_mailing":"KLEIN","state_mailing":"TX","zip_mailing":"77379","latitude":30.04787,"longitude":-95.533248,"enrollment":53712,"teachers_total_fte":3657.39,"number_of_schools":52,"agency_type":1,"lowest_grade_offered":-1,"highest_grade_offered":12,"county_name":"Harris County","phone":"(832)249-4000"},{"leaid":"4820340","lea_name":"Garland Independent School District","fips":48,"city_mailing":"GARLAND","state_mailing":"TX","zip_mailing":"75042","latitude":32.90868,"longitude":-96.683861,"enrollment":52767,"teachers_total_fte":3476.39,"number_of_schools":78,"agency_type":1,"lowest_grade_offered":-1,"highest_grade_offered":12,"county_name":"Dallas County","phone":"(972)494-8201"},{"leaid":"4818300","lea_name":"El Paso Independent School District","fips":48,"city_mailing":"EL PASO","state_mailing":"TX","zip_mailing":"79902","latitude":31.765784,"longitude":-106.491527,"enrollment":50031,"teachers_total_fte":3506.06,"number_of_schools":76,"agency_type":1,"lowest_grade_offered":-1,"highest_grade_offered":12,"county_name":"El Paso County","phone":"(915)230-2577"},{"leaid":"4827300","lea_name":"Lewisville Independent School District","fips":48,"city_mailing":"LEWISVILLE","state_mailing":"TX","zip_mailing":"75067","latitude":33.044284,"longitude":-97.035084,"enrollment":49060,"teachers_total_fte":3717.62,"number_of_schools":62,"agency_type":1,"lowest_grade_offered":-1,"highest_grade_offered":12,"county_name":"Denton County","phone":"(469)713-5200"},{"leaid":"4835100","lea_name":"Plano Independent School District","fips":48,"city_mailing":"PLANO","state_mailing":"TX","zip_mailing":"75075","latitude":33.018521,"longitude":-96.746043,"enrollment":48921,"teachers_total_fte":3538.24,"number_of_schools":79,"agency_type":1,"lowest_grade_offered":-1,"highest_grade_offered":12,"county_name":"Collin County","phone":"(469)752-8100"},{"leaid":"4823910","lea_name":"Humble Independent School District","fips":48,"city_mailing":"HUMBLE","state_mailing":"TX","zip_mailing":"77338","latitude":30.012879,"longitude":-95.267822,"enrollment":48758,"teachers_total_fte":3344.55,"number_of_schools":50,"agency_type":1,"lowest_grade_offered":-1,"highest_grade_offered":12,"county_name":"Harris County","phone":"(281)641-1000"},{"leaid":"4834320","lea_name":"Pasadena Independent School District","fips":48,"city_mailing":"PASADENA","state_mailing":"TX","zip_mailing":"77502","latitude":29.678147,"longitude":-95.191679,"enrollment":48726,"teachers_total_fte":3821.69,"number_of_schools":67,"agency_type":1,"lowest_grade_offered":-1,"highest_grade_offered":12,"county_name":"Harris County","phone":"(713)740-0000"},{"leaid":"4840710","lea_name":"Socorro Independent School District","fips":48,"city_mailing":"EL PASO","state_mailing":"TX","zip_mailing":"79928","latitude":31.699651,"longitude":-106.272335,"enrollment":47843,"teachers_total_fte":2885.4,"number_of_schools":51,"agency_type":1,"lowest_grade_offered":-1,"highest_grade_offered":12,"county_name":"El Paso County","phone":"(915)937-0000"},{"leaid":"4838080","lea_name":"Round Rock Independent School District","fips":48,"city_mailing":"ROUND ROCK","state_mailing":"TX","zip_mailing":"78681","latitude":30.511455,"longitude":-97.697025,"enrollment":46510,"teachers_total_fte":3226.66,"number_of_schools":60,"agency_type":1,"lowest_grade_offered":-1,"highest_grade_offered":12,"county_name":"Williamson County","phone":"(512)464-5000"},{"leaid":"4838730","lea_name":"San Antonio Independent School District","fips":48,"city_mailing":"SAN ANTONIO","state_mailing":"TX","zip_mailing":"78212","latitude":29.432176,"longitude":-98.497216,"enrollment":45255,"teachers_total_fte":3073.64,"number_of_schools":98,"agency_type":1,"lowest_grade_offered":-1,"highest_grade_offered":12,"county_name":"Bexar County","phone":"(210)554-2200"},{"leaid":"4825660","lea_name":"Killeen Independent School District","fips":48,"city_mailing":"KILLEEN","state_mailing":"TX","zip_mailing":"76543","latitude":31.115987,"longitude":-97.71063,"enrollment":43935,"teachers_total_fte":2803.42,"number_of_schools":54,"agency_type":1,"lowest_grade_offered":-1,"highest_grade_offered":12,"county_name":"Bell County","phone":"(254)336-0006"},{"leaid":"4826580","lea_name":"Lamar Consolidated Independent School District","fips":48,"city_mailing":"ROSENBERG","state_mailing":"TX","zip_mailing":"77471","latitude":29.558589,"longitude":-95.786418,"enrollment":42461,"teachers_total_fte":2375.2,"number_of_schools":45,"agency_type":1,"lowest_grade_offered":-1,"highest_grade_offered":12,"county_name":"Fort Bend County","phone":"(832)223-0000"},{"leaid":"4827030","lea_name":"Leander Independent School District","fips":48,"city_mailing":"LEANDER","state_mailing":"TX","zip_mailing":"78641","latitude":30.577659,"longitude":-97.854781,"enrollment":42415,"teachers_total_fte":2988.78,"number_of_schools":50,"agency_type":1,"lowest_grade_offered":-1,"highest_grade_offered":12,"county_name":"Williamson County","phone":"(512)570-0000"},{"leaid":"4843650","lea_name":"United Independent School District","fips":48,"city_mailing":"LAREDO","state_mailing":"TX","zip_mailing":"78045","latitude":27.574262,"longitude":-99.480042,"enrollment":41381,"teachers_total_fte":2514.66,"number_of_schools":51,"agency_type":1,"lowest_grade_offered":-1,"highest_grade_offered":12,"county_name":"Webb County","phone":"(956)473-6201"},{"leaid":"4814280","lea_name":"Clear Creek Independent School District","fips":48,"city_mailing":"LEAGUE CITY","state_mailing":"TX","zip_mailing":"77573","latitude":29.5281,"longitude":-95.0726,"enrollment":40693,"teachers_total_fte":2526.57,"number_of_schools":47,"agency_type":1,"lowest_grade_offered":-1,"highest_grade_offered":12,"county_name":"Galveston County","phone":"(281)284-0000"},{"leaid":"4807830","lea_name":"Alief Independent School District","fips":48,"city_mailing":"HOUSTON","state_mailing":"TX","zip_mailing":"77072","latitude":29.711775,"longitude":-95.596805,"enrollment":40329,"teachers_total_fte":2966.58,"number_of_schools":48,"agency_type":1,"lowest_grade_offered":-1,"highest_grade_offered":12,"county_name":"Harris County","phone":"(281)498-8110"},{"leaid":"4830390","lea_name":"Mesquite Independent School District","fips":48,"city_mailing":"MESQUITE","state_mailing":"TX","zip_mailing":"75150","latitude":32.817146,"longitude":-96.631439,"enrollment":38356,"teachers_total_fte":2613.98,"number_of_schools":51,"agency_type":1,"lowest_grade_offered":-1,"highest_grade_offered":12,"county_name":"Dallas County","phone":"(972)288-6411"},{"leaid":"4811680","lea_name":"Brownsville Independent School District","fips":48,"city_mailing":"BROWNSVILLE","state_mailing":"TX","zip_mailing":"78521","latitude":25.935024,"longitude":-97.489797,"enrollment":37898,"teachers_total_fte":2575.88,"number_of_schools":56,"agency_type":1,"lowest_grade_offered":-1,"highest_grade_offered":12,"county_name":"Cameron County","phone":"(956)548-8000"},{"leaid":"4837020","lea_name":"Richardson Independent School District","fips":48,"city_mailing":"RICHARDSON","state_mailing":"TX","zip_mailing":"75081","latitude":32.94541,"longitude":-96.732642,"enrollment":37260,"teachers_total_fte":2910.46,"number_of_schools":55,"agency_type":1,"lowest_grade_offered":-1,"highest_grade_offered":12,"county_name":"Dallas County","phone":"(469)593-0000"},{"leaid":"4846680","lea_name":"Ysleta Independent School District","fips":48,"city_mailing":"EL PASO","state_mailing":"TX","zip_mailing":"79925","latitude":31.762418,"longitude":-106.35716,"enrollment":36183,"teachers_total_fte":2485.86,"number_of_schools":52,"agency_type":1,"lowest_grade_offered":-1,"highest_grade_offered":12,"county_name":"El Paso County","phone":"(915)434-0000"},{"leaid":"4828920","lea_name":"Mansfield Independent School District","fips":48,"city_mailing":"MANSFIELD","state_mailing":"TX","zip_mailing":"76063","latitude":32.564857,"longitude":-97.136698,"enrollment":35722,"teachers_total_fte":2406.06,"number_of_schools":47,"agency_type":1,"lowest_grade_offered":-1,"highest_grade_offered":12,"county_name":"Tarrant County","phone":"(817)299-6300"},{"leaid":"4841220","lea_name":"Spring Independent School District","fips":48,"city_mailing":"HOUSTON","state_mailing":"TX","zip_mailing":"77090","latitude":30.009642,"longitude":-95.447823,"enrollment":34114,"teachers_total_fte":2262.63,"number_of_schools":42,"agency_type":1,"lowest_grade_offered":-1,"highest_grade_offered":12,"county_name":"Harris County","phone":"(281)891-6000"},{"leaid":"4825260","lea_name":"Keller Independent School District","fips":48,"city_mailing":"KELLER","state_mailing":"TX","zip_mailing":"76248","latitude":32.934159,"longitude":-97.247449,"enrollment":34078,"teachers_total_fte":2459.94,"number_of_schools":41,"agency_type":1,"lowest_grade_offered":-1,"highest_grade_offered":12,"county_name":"Tarrant County","phone":"(817)744-1000"},{"leaid":"4818180","lea_name":"Edinburg Consolidated Independent School District","fips":48,"city_mailing":"EDINBURG","state_mailing":"TX","zip_mailing":"78541","latitude":26.305549,"longitude":-98.165463,"enrollment":33911,"teachers_total_fte":2305.67,"number_of_schools":46,"agency_type":1,"lowest_grade_offered":-1,"highest_grade_offered":12,"county_name":"Hidalgo County","phone":"(956)289-2300"},{"leaid":"4841100","lea_name":"Spring Branch Independent School District","fips":48,"city_mailing":"HOUSTON","state_mailing":"TX","zip_mailing":"77024","latitude":29.782446,"longitude":-95.514571,"enrollment":33649,"teachers_total_fte":2171.32,"number_of_schools":49,"agency_type":1,"lowest_grade_offered":-1,"highest_grade_offered":12,"county_name":"Harris County","phone":"(713)464-1511"},{"leaid":"4815270","lea_name":"Corpus Christi Independent School District","fips":48,"city_mailing":"CORPUS CHRISTI","state_mailing":"TX","zip_mailing":"78401","latitude":27.79605,"longitude":-97.399008,"enrollment":33387,"teachers_total_fte":2103.46,"number_of_schools":57,"agency_type":1,"lowest_grade_offered":-1,"highest_grade_offered":12,"county_name":"Nueces County","phone":"(361)695-7405"},{"leaid":"4818000","lea_name":"Ector County Independent School District","fips":48,"city_mailing":"ODESSA","state_mailing":"TX","zip_mailing":"79760","latitude":31.850676,"longitude":-102.374332,"enrollment":33340,"teachers_total_fte":1834.7,"number_of_schools":46,"agency_type":1,"lowest_grade_offered":-1,"highest_grade_offered":12,"county_name":"Ector County","phone":"(432)456-9879"},{"leaid":"4816740","lea_name":"Denton Independent School District","fips":48,"city_mailing":"DENTON","state_mailing":"TX","zip_mailing":"76201","latitude":33.225457,"longitude":-97.133187,"enrollment":32521,"teachers_total_fte":2416.35,"number_of_schools":45,"agency_type":1,"lowest_grade_offered":-1,"highest_grade_offered":12,"county_name":"Denton County","phone":"(940)369-0000"},{"leaid":"4824420","lea_name":"Irving Independent School District","fips":48,"city_mailing":"IRVING","state_mailing":"TX","zip_mailing":"75062","latitude":32.838178,"longitude":-96.982468,"enrollment":31767,"teachers_total_fte":2143.11,"number_of_schools":40,"agency_type":1,"lowest_grade_offered":-1,"highest_grade_offered":12,"county_name":"Dallas County","phone":"(972)600-5000"},{"leaid":"4808130","lea_name":"Amarillo Independent School District","fips":48,"city_mailing":"AMARILLO","state_mailing":"TX","zip_mailing":"79106","latitude":35.187867,"longitude":-101.917377,"enrollment":30342,"teachers_total_fte":2091.57,"number_of_schools":55,"agency_type":1,"lowest_grade_offered":-1,"highest_grade_offered":12,"county_name":"Potter County","phone":"(806)326-1000"},{"leaid":"4834860","lea_name":"Pharr-San Juan-Alamo Independent School District","fips":48,"city_mailing":"PHARR","state_mailing":"TX","zip_mailing":"78577","latitude":26.191147,"longitude":-98.177723,"enrollment":30003,"teachers_total_fte":2069.14,"number_of_schools":43,"agency_type":1,"lowest_grade_offered":-1,"highest_grade_offered":12,"county_name":"Hidalgo County","phone":"(956)354-2000"},{"leaid":"4833180","lea_name":"Northwest Independent School District","fips":48,"city_mailing":"JUSTIN","state_mailing":"TX","zip_mailing":"76247","latitude":33.03023,"longitude":-97.319461,"enrollment":29248,"teachers_total_fte":1866.76,"number_of_schools":34,"agency_type":1,"lowest_grade_offered":-1,"highest_grade_offered":12,"county_name":"Denton County","phone":"(817)215-0000"},{"leaid":"4808090","lea_name":"Alvin Independent School District","fips":48,"city_mailing":"ALVIN","state_mailing":"TX","zip_mailing":"77511","latitude":29.419394,"longitude":-95.241192,"enrollment":29188,"teachers_total_fte":1863.78,"number_of_schools":33,"agency_type":1,"lowest_grade_offered":-1,"highest_grade_offered":12,"county_name":"Brazoria County","phone":"(281)388-1130"},{"leaid":"4814730","lea_name":"Comal Independent School District","fips":48,"city_mailing":"NEW BRAUNFELS","state_mailing":"TX","zip_mailing":"78130","latitude":29.7049,"longitude":-98.089,"enrollment":28511,"teachers_total_fte":1815.81,"number_of_schools":35,"agency_type":1,"lowest_grade_offered":-1,"highest_grade_offered":12,"county_name":"Comal County","phone":"(830)221-2000"},{"leaid":"4830570","lea_name":"Midland Independent School District","fips":48,"city_mailing":"MIDLAND","state_mailing":"TX","zip_mailing":"79701","latitude":31.996143,"longitude":-102.08135,"enrollment":27842,"teachers_total_fte":1592.11,"number_of_schools":40,"agency_type":1,"lowest_grade_offered":-1,"highest_grade_offered":12,"county_name":"Midland County","phone":"(432)240-1000"},{"leaid":"4821420","lea_name":"Grand Prairie Independent School District","fips":48,"city_mailing":"GRAND PRAIRIE","state_mailing":"TX","zip_mailing":"75052","latitude":32.706679,"longitude":-96.992602,"enrollment":27019,"teachers_total_fte":1839.92,"number_of_schools":39,"agency_type":1,"lowest_grade_offered":-1,"highest_grade_offered":12,"county_name":"Dallas County","phone":"(972)264-6141"},{"leaid":"4824990","lea_name":"Judson Independent School District","fips":48,"city_mailing":"SAN ANTONIO","state_mailing":"TX","zip_mailing":"78233","latitude":29.553083,"longitude":-98.329423,"enrollment":25871,"teachers_total_fte":1662.04,"number_of_schools":32,"agency_type":1,"lowest_grade_offered":-1,"highest_grade_offered":12,"county_name":"Bexar County","phone":"(210)945-5100"},{"leaid":"4834830","lea_name":"Pflugerville Independent School District","fips":48,"city_mailing":"PFLUGERVILLE","state_mailing":"TX","zip_mailing":"78660","latitude":30.446495,"longitude":-97.636603,"enrollment":25445,"teachers_total_fte":1807.17,"number_of_schools":33,"agency_type":1,"lowest_grade_offered":-1,"highest_grade_offered":12,"county_name":"Travis County","phone":"(512)594-0000"},{"leaid":"4828500","lea_name":"Lubbock Independent School District","fips":48,"city_mailing":"LUBBOCK","state_mailing":"TX","zip_mailing":"79401","latitude":33.578218,"longitude":-101.854441,"enrollment":25247,"teachers_total_fte":1887.2,"number_of_schools":49,"agency_type":1,"lowest_grade_offered":-1,"highest_grade_offered":12,"county_name":"Lubbock County","phone":"(806)219-0000"},{"leaid":"4836000","lea_name":"Prosper Independent School District","fips":48,"city_mailing":"PROSPER","state_mailing":"TX","zip_mailing":"75078","latitude":33.238801,"longitude":-96.794609,"enrollment":24983,"teachers_total_fte":1597.27,"number_of_schools":25,"agency_type":1,"lowest_grade_offered":-1,"highest_grade_offered":12,"county_name":"Collin County","phone":"(469)219-2000"},{"leaid":"4826130","lea_name":"La Joya Independent School District","fips":48,"city_mailing":"LA JOYA","state_mailing":"TX","zip_mailing":"78560","latitude":26.249055,"longitude":-98.48145,"enrollment":24804,"teachers_total_fte":1792.64,"number_of_schools":37,"agency_type":1,"lowest_grade_offered":-1,"highest_grade_offered":12,"county_name":"Hidalgo County","phone":"(956)323-2005"},{"leaid":"4813050","lea_name":"Carrollton-Farmers Branch Independent School District","fips":48,"city_mailing":"CARROLLTON","state_mailing":"TX","zip_mailing":"75006","latitude":32.956845,"longitude":-96.896255,"enrollment":24747,"teachers_total_fte":1850.08,"number_of_schools":40,"agency_type":1,"lowest_grade_offered":-1,"highest_grade_offered":12,"county_name":"Dallas County","phone":"(972)968-6100"},{"leaid":"4821150","lea_name":"Goose Creek Consolidated Independent School District","fips":48,"city_mailing":"BAYTOWN","state_mailing":"TX","zip_mailing":"77521","latitude":29.802512,"longitude":-94.989537,"enrollment":24431,"teachers_total_fte":1681.4,"number_of_schools":34,"agency_type":1,"lowest_grade_offered":-1,"highest_grade_offered":12,"county_name":"Harris County","phone":"(281)420-4800"},{"leaid":"4829850","lea_name":"McKinney Independent School District","fips":48,"city_mailing":"MCKINNEY","state_mailing":"TX","zip_mailing":"75069","latitude":33.206511,"longitude":-96.632472,"enrollment":23342,"teachers_total_fte":1589.37,"number_of_schools":32,"agency_type":1,"lowest_grade_offered":-1,"highest_grade_offered":12,"county_name":"Collin County","phone":"(469)302-4000"},{"leaid":"4817700","lea_name":"Eagle Mountain-Saginaw Independent School District","fips":48,"city_mailing":"FORT WORTH","state_mailing":"TX","zip_mailing":"76179","latitude":32.842344,"longitude":-97.394511,"enrollment":23196,"teachers_total_fte":1520.98,"number_of_schools":30,"agency_type":1,"lowest_grade_offered":-1,"highest_grade_offered":12,"county_name":"Tarrant County","phone":"(817)232-0880"},{"leaid":"4824060","lea_name":"Hurst-Euless-Bedford Independent School District","fips":48,"city_mailing":"BEDFORD","state_mailing":"TX","zip_mailing":"76022","latitude":32.835346,"longitude":-97.134415,"enrollment":22947,"teachers_total_fte":1450.08,"number_of_schools":34,"agency_type":1,"lowest_grade_offered":-1,"highest_grade_offered":12,"county_name":"Tarrant County","phone":"(817)283-4461"},{"leaid":"4810230","lea_name":"Birdville Independent School District","fips":48,"city_mailing":"HALTOM CITY","state_mailing":"TX","zip_mailing":"76117","latitude":32.806592,"longitude":-97.25215,"enrollment":22637,"teachers_total_fte":1506.98,"number_of_schools":32,"agency_type":1,"lowest_grade_offered":-1,"highest_grade_offered":12,"county_name":"Tarrant County","phone":"(817)547-5700"},{"leaid":"4800010","lea_name":"Hays Consolidated Independent School District","fips":48,"city_mailing":"KYLE","state_mailing":"TX","zip_mailing":"78640","latitude":30.007603,"longitude":-97.86261,"enrollment":22297,"teachers_total_fte":1493.74,"number_of_schools":26,"agency_type":1,"lowest_grade_offered":-1,"highest_grade_offered":12,"county_name":"Hays County","phone":"(512)268-2141"},{"leaid":"4807890","lea_name":"Allen Independent School District","fips":48,"city_mailing":"ALLEN","state_mailing":"TX","zip_mailing":"75002","latitude":33.08519,"longitude":-96.664164,"enrollment":21769,"teachers_total_fte":1343.5,"number_of_schools":25,"agency_type":1,"lowest_grade_offered":-1,"highest_grade_offered":12,"county_name":"Collin County","phone":"(972)727-0511"},{"leaid":"4842960","lea_name":"Tomball Independent School District","fips":48,"city_mailing":"TOMBALL","state_mailing":"TX","zip_mailing":"77375","latitude":30.09516,"longitude":-95.615491,"enrollment":21426,"teachers_total_fte":1368.67,"number_of_schools":22,"agency_type":1,"lowest_grade_offered":-1,"highest_grade_offered":12,"county_name":"Harris County","phone":"(281)357-3100"},{"leaid":"4820250","lea_name":"Galena Park Independent School District","fips":48,"city_mailing":"HOUSTON","state_mailing":"TX","zip_mailing":"77015","latitude":29.792708,"longitude":-95.160722,"enrollment":21392,"teachers_total_fte":1424.63,"number_of_schools":25,"agency_type":1,"lowest_grade_offered":-1,"highest_grade_offered":12,"county_name":"Harris County","phone":"(832)386-1000"},{"leaid":"4834440","lea_name":"Pearland Independent School District","fips":48,"city_mailing":"PEARLAND","state_mailing":"TX","zip_mailing":"77581","latitude":29.572934,"longitude":-95.28791,"enrollment":21237,"teachers_total_fte":1282.85,"number_of_schools":24,"agency_type":1,"lowest_grade_offered":-1,"highest_grade_offered":12,"county_name":"Brazoria County","phone":"(281)485-3203"},{"leaid":"4826790","lea_name":"Laredo Independent School District","fips":48,"city_mailing":"LAREDO","state_mailing":"TX","zip_mailing":"78040","latitude":27.521211,"longitude":-99.505092,"enrollment":20932,"teachers_total_fte":1415.98,"number_of_schools":30,"agency_type":1,"lowest_grade_offered":-1,"highest_grade_offered":12,"county_name":"Webb County","phone":"(956)273-1000"},{"leaid":"4829670","lea_name":"McAllen Independent School District","fips":48,"city_mailing":"MCALLEN","state_mailing":"TX","zip_mailing":"78501","latitude":26.223645,"longitude":-98.241764,"enrollment":20399,"teachers_total_fte":1505.22,"number_of_schools":30,"agency_type":1,"lowest_grade_offered":-1,"highest_grade_offered":12,"county_name":"Hidalgo County","phone":"(956)618-6000"},{"leaid":"4822170","lea_name":"Hallsville Independent School District","fips":48,"city_mailing":"HALLSVILLE","state_mailing":"TX","zip_mailing":"75650","latitude":32.501429,"longitude":-94.575754,"enrollment":19818,"teachers_total_fte":382.88,"number_of_schools":8,"agency_type":1,"lowest_grade_offered":-1,"highest_grade_offered":12,"county_name":"Harrison County","phone":"(903)668-5990"},{"leaid":"4846530","lea_name":"Wylie Independent School District","fips":48,"city_mailing":"WYLIE","state_mailing":"TX","zip_mailing":"75098","latitude":33.00431,"longitude":-96.539214,"enrollment":18850,"teachers_total_fte":1200.7,"number_of_schools":21,"agency_type":1,"lowest_grade_offered":-1,"highest_grade_offered":12,"county_name":"Collin County","phone":"(972)429-3000"},{"leaid":"4837650","lea_name":"Rockwall Independent School District","fips":48,"city_mailing":"ROCKWALL","state_mailing":"TX","zip_mailing":"75087","latitude":32.93548,"longitude":-96.445273,"enrollment":18384,"teachers_total_fte":1114.42,"number_of_schools":22,"agency_type":1,"lowest_grade_offered":-1,"highest_grade_offered":12,"county_name":"Rockwall County","phone":"(972)771-0605"},{"leaid":"4832400","lea_name":"New Caney Independent School District","fips":48,"city_mailing":"NEW CANEY","state_mailing":"TX","zip_mailing":"77357","latitude":30.133385,"longitude":-95.220209,"enrollment":18344,"teachers_total_fte":1166.8,"number_of_schools":21,"agency_type":1,"lowest_grade_offered":-1,"highest_grade_offered":12,"county_name":"Montgomery County","phone":"(281)577-8600"},{"leaid":"4843470","lea_name":"Tyler Independent School District","fips":48,"city_mailing":"TYLER","state_mailing":"TX","zip_mailing":"75701","latitude":32.328365,"longitude":-95.315183,"enrollment":18328,"teachers_total_fte":1218.48,"number_of_schools":25,"agency_type":1,"lowest_grade_offered":-1,"highest_grade_offered":12,"county_name":"Smith County","phone":"(903)262-1000"},{"leaid":"4822530","lea_name":"Harlingen Consolidated Independent School District","fips":48,"city_mailing":"HARLINGEN","state_mailing":"TX","zip_mailing":"78550","latitude":26.196382,"longitude":-97.681046,"enrollment":17034,"teachers_total_fte":1197.78,"number_of_schools":31,"agency_type":1,"lowest_grade_offered":-1,"highest_grade_offered":12,"county_name":"Cameron County","phone":"(956)430-9502"},{"leaid":"4809670","lea_name":"Beaumont Independent School District","fips":48,"city_mailing":"BEAUMONT","state_mailing":"TX","zip_mailing":"77706","latitude":30.088744,"longitude":-94.137933,"enrollment":16730,"teachers_total_fte":963.77,"number_of_schools":29,"agency_type":1,"lowest_grade_offered":-1,"highest_grade_offered":12,"county_name":"Jefferson County","phone":"(409)617-5000"},{"leaid":"4815910","lea_name":"Crowley Independent School District","fips":48,"city_mailing":"FORT WORTH","state_mailing":"TX","zip_mailing":"76036","latitude":32.607782,"longitude":-97.347177,"enrollment":16729,"teachers_total_fte":1253.81,"number_of_schools":23,"agency_type":1,"lowest_grade_offered":-1,"highest_grade_offered":12,"county_name":"Tarrant County","phone":"(817)297-5800"},{"leaid":"4844960","lea_name":"Weslaco Independent School District","fips":48,"city_mailing":"WESLACO","state_mailing":"TX","zip_mailing":"78596","latitude":26.157719,"longitude":-97.99378,"enrollment":16491,"teachers_total_fte":1021.94,"number_of_schools":22,"agency_type":1,"lowest_grade_offered":-1,"highest_grade_offered":12,"county_name":"Hidalgo County","phone":"(956)969-6500"},{"leaid":"4819560","lea_name":"Forney Independent School District","fips":48,"city_mailing":"FORNEY","state_mailing":"TX","zip_mailing":"75126","latitude":32.743787,"longitude":-96.476571,"enrollment":16211,"teachers_total_fte":1064.26,"number_of_schools":19,"agency_type":1,"lowest_grade_offered":-1,"highest_grade_offered":12,"county_name":"Kaufman County","phone":"(469)762-4100"},{"leaid":"4811790","lea_name":"Bryan Independent School District","fips":48,"city_mailing":"BRYAN","state_mailing":"TX","zip_mailing":"77803","latitude":30.662862,"longitude":-96.36752,"enrollment":16036,"teachers_total_fte":1197.19,"number_of_schools":26,"agency_type":1,"lowest_grade_offered":-1,"highest_grade_offered":12,"county_name":"Brazos County","phone":"(979)209-1000"},{"leaid":"4839480","lea_name":"Schertz-Cibolo-Universal City Independent School District","fips":48,"city_mailing":"SCHERTZ","state_mailing":"TX","zip_mailing":"78154","latitude":29.563298,"longitude":-98.262131,"enrollment":15528,"teachers_total_fte":997.44,"number_of_schools":16,"agency_type":1,"lowest_grade_offered":-1,"highest_grade_offered":12,"county_name":"Guadalupe County","phone":"(210)945-6200"},{"leaid":"4807440","lea_name":"Abilene Independent School District","fips":48,"city_mailing":"ABILENE","state_mailing":"TX","zip_mailing":"79601","latitude":32.451,"longitude":-99.732233,"enrollment":15253,"teachers_total_fte":1035.97,"number_of_schools":28,"agency_type":1,"lowest_grade_offered":-1,"highest_grade_offered":12,"county_name":"Taylor County","phone":"(325)677-1444"},{"leaid":"4831040","lea_name":"Mission Consolidated Independent School District","fips":48,"city_mailing":"MISSION","state_mailing":"TX","zip_mailing":"78572","latitude":26.2179,"longitude":-98.3105,"enrollment":14502,"teachers_total_fte":971.36,"number_of_schools":24,"agency_type":1,"lowest_grade_offered":-1,"highest_grade_offered":12,"county_name":"Hidalgo County","phone":"(956)323-5500"},{"leaid":"4807350","lea_name":"College Station Independent School District","fips":48,"city_mailing":"COLLEGE STATION","state_mailing":"TX","zip_mailing":"77840","latitude":30.592861,"longitude":-96.321679,"enrollment":14464,"teachers_total_fte":1008.08,"number_of_schools":21,"agency_type":1,"lowest_grade_offered":-1,"highest_grade_offered":12,"county_name":"Brazos County","phone":"(979)764-5400"},{"leaid":"4828740","lea_name":"Magnolia Independent School District","fips":48,"city_mailing":"MAGNOLIA","state_mailing":"TX","zip_mailing":"77355","latitude":30.19703,"longitude":-95.753481,"enrollment":14046,"teachers_total_fte":947.49,"number_of_schools":17,"agency_type":1,"lowest_grade_offered":-1,"highest_grade_offered":12,"county_name":"Montgomery County","phone":"(281)356-3571"},{"leaid":"4817730","lea_name":"Eagle Pass Independent School District","fips":48,"city_mailing":"EAGLE PASS","state_mailing":"TX","zip_mailing":"78852","latitude":28.711723,"longitude":-100.503288,"enrollment":13935,"teachers_total_fte":799.87,"number_of_schools":24,"agency_type":1,"lowest_grade_offered":-1,"highest_grade_offered":12,"county_name":"Maverick County","phone":"(830)773-5181"},{"leaid":"4844280","lea_name":"Waco Independent School District","fips":48,"city_mailing":"WACO","state_mailing":"TX","zip_mailing":"76701","latitude":31.55593,"longitude":-97.131251,"enrollment":13824,"teachers_total_fte":997.2,"number_of_schools":25,"agency_type":1,"lowest_grade_offered":-1,"highest_grade_offered":12,"county_name":"McLennan County","phone":"(254)755-9420"},{"leaid":"4821660","lea_name":"Grapevine-Colleyville Independent School District","fips":48,"city_mailing":"GRAPEVINE","state_mailing":"TX","zip_mailing":"76051","latitude":32.920412,"longitude":-97.115968,"enrollment":13772,"teachers_total_fte":986.11,"number_of_schools":21,"agency_type":1,"lowest_grade_offered":-1,"highest_grade_offered":12,"county_name":"Tarrant County","phone":"(817)251-5501"},{"leaid":"4840950","lea_name":"Southwest Independent School District","fips":48,"city_mailing":"SAN ANTONIO","state_mailing":"TX","zip_mailing":"78252","latitude":29.30639,"longitude":-98.667264,"enrollment":13747,"teachers_total_fte":953.45,"number_of_schools":19,"agency_type":1,"lowest_grade_offered":-1,"highest_grade_offered":12,"county_name":"Bexar County","phone":"(210)622-4731"},{"leaid":"4809860","lea_name":"Belton Independent School District","fips":48,"city_mailing":"BELTON","state_mailing":"TX","zip_mailing":"76513","latitude":31.058474,"longitude":-97.459239,"enrollment":13644,"teachers_total_fte":976.27,"number_of_schools":18,"agency_type":1,"lowest_grade_offered":-1,"highest_grade_offered":12,"county_name":"Bell County","phone":"(254)215-2000"},{"leaid":"4838700","lea_name":"San Angelo Independent School District","fips":48,"city_mailing":"SAN ANGELO","state_mailing":"TX","zip_mailing":"76904","latitude":31.432944,"longitude":-100.455226,"enrollment":13548,"teachers_total_fte":880.63,"number_of_schools":23,"agency_type":1,"lowest_grade_offered":-1,"highest_grade_offered":12,"county_name":"Tom Green County","phone":"(325)947-3838"},{"leaid":"4815210","lea_name":"Coppell Independent School District","fips":48,"city_mailing":"COPPELL","state_mailing":"TX","zip_mailing":"75019","latitude":32.965756,"longitude":-96.99305,"enrollment":13361,"teachers_total_fte":897.56,"number_of_schools":16,"agency_type":1,"lowest_grade_offered":-1,"highest_grade_offered":12,"county_name":"Dallas County","phone":"(214)496-6000"},{"leaid":"4845780","lea_name":"Wichita Falls Independent School District","fips":48,"city_mailing":"WICHITA FALLS","state_mailing":"TX","zip_mailing":"76301","latitude":33.904146,"longitude":-98.497,"enrollment":13296,"teachers_total_fte":952.72,"number_of_schools":27,"agency_type":1,"lowest_grade_offered":-1,"highest_grade_offered":12,"county_name":"Wichita County","phone":"(940)235-1000"},{"leaid":"4844150","lea_name":"Victoria Independent School District","fips":48,"city_mailing":"VICTORIA","state_mailing":"TX","zip_mailing":"77901","latitude":28.80609,"longitude":-96.979751,"enrollment":13246,"teachers_total_fte":900.86,"number_of_schools":27,"agency_type":1,"lowest_grade_offered":-1,"highest_grade_offered":12,"county_name":"Victoria County","phone":"(361)576-3131"},{"leaid":"4817390","lea_name":"Donna Independent School District","fips":48,"city_mailing":"DONNA","state_mailing":"TX","zip_mailing":"78537","latitude":26.173623,"longitude":-98.053239,"enrollment":13165,"teachers_total_fte":892.51,"number_of_schools":21,"agency_type":1,"lowest_grade_offered":-1,"highest_grade_offered":12,"county_name":"Hidalgo County","phone":"(956)464-1600"},{"leaid":"4820600","lea_name":"Georgetown Independent School District","fips":48,"city_mailing":"GEORGETOWN","state_mailing":"TX","zip_mailing":"78626","latitude":30.63397,"longitude":-97.672474,"enrollment":13155,"teachers_total_fte":949.48,"number_of_schools":21,"agency_type":1,"lowest_grade_offered":-1,"highest_grade_offered":12,"county_name":"Williamson County","phone":"(512)943-5000"},{"leaid":"4812180","lea_name":"Burleson Independent School District","fips":48,"city_mailing":"BURLESON","state_mailing":"TX","zip_mailing":"76028","latitude":32.525922,"longitude":-97.344505,"enrollment":12865,"teachers_total_fte":817.65,"number_of_schools":20,"agency_type":1,"lowest_grade_offered":-1,"highest_grade_offered":12,"county_name":"Johnson County","phone":"(817)245-1000"},{"leaid":"4809570","lea_name":"Bastrop Independent School District","fips":48,"city_mailing":"BASTROP","state_mailing":"TX","zip_mailing":"78602","latitude":30.113146,"longitude":-97.316052,"enrollment":12506,"teachers_total_fte":783.26,"number_of_schools":14,"agency_type":1,"lowest_grade_offered":-1,"highest_grade_offered":12,"county_name":"Bastrop County","phone":"(512)772-7100"},{"leaid":"4817070","lea_name":"Dickinson Independent School District","fips":48,"city_mailing":"DICKINSON","state_mailing":"TX","zip_mailing":"77539","latitude":29.459132,"longitude":-95.056663,"enrollment":12360,"teachers_total_fte":871.61,"number_of_schools":18,"agency_type":1,"lowest_grade_offered":-1,"highest_grade_offered":12,"county_name":"Galveston County","phone":"(281)229-6000"},{"leaid":"4816530","lea_name":"Deer Park Independent School District","fips":48,"city_mailing":"DEER PARK","state_mailing":"TX","zip_mailing":"77536","latitude":29.683589,"longitude":-95.130174,"enrollment":12263,"teachers_total_fte":838.59,"number_of_schools":14,"agency_type":1,"lowest_grade_offered":-1,"highest_grade_offered":12,"county_name":"Harris County","phone":"(832)668-7000"},{"leaid":"4822470","lea_name":"Harlandale Independent School District","fips":48,"city_mailing":"SAN ANTONIO","state_mailing":"TX","zip_mailing":"78214","latitude":29.349701,"longitude":-98.487267,"enrollment":12174,"teachers_total_fte":846.46,"number_of_schools":29,"agency_type":1,"lowest_grade_offered":-1,"highest_grade_offered":12,"county_name":"Bexar County","phone":"(210)989-4300"},{"leaid":"4817640","lea_name":"Duncanville Independent School District","fips":48,"city_mailing":"DUNCANVILLE","state_mailing":"TX","zip_mailing":"75137","latitude":32.645936,"longitude":-96.924682,"enrollment":11915,"teachers_total_fte":751.36,"number_of_schools":19,"agency_type":1,"lowest_grade_offered":-1,"highest_grade_offered":12,"county_name":"Dallas County","phone":"(972)708-2000"},{"leaid":"4811190","lea_name":"Brazosport Independent School District","fips":48,"city_mailing":"CLUTE","state_mailing":"TX","zip_mailing":"77531","latitude":29.024373,"longitude":-95.415302,"enrollment":11618,"teachers_total_fte":855.69,"number_of_schools":21,"agency_type":1,"lowest_grade_offered":-1,"highest_grade_offered":12,"county_name":"Brazoria County","phone":"(979)730-7000"},{"leaid":"4814370","lea_name":"Cleveland Independent School District","fips":48,"city_mailing":"CLEVELAND","state_mailing":"TX","zip_mailing":"77327","latitude":30.33819,"longitude":-95.087655,"enrollment":11567,"teachers_total_fte":786.38,"number_of_schools":11,"agency_type":1,"lowest_grade_offered":-1,"highest_grade_offered":12,"county_name":"Liberty County","phone":"(281)592-8717"},{"leaid":"4826470","lea_name":"Lake Travis Independent School District","fips":48,"city_mailing":"AUSTIN","state_mailing":"TX","zip_mailing":"78738","latitude":30.328314,"longitude":-97.97108,"enrollment":11399,"teachers_total_fte":684.92,"number_of_schools":11,"agency_type":1,"lowest_grade_offered":-1,"highest_grade_offered":12,"county_name":"Travis County","phone":"(512)533-6000"},{"leaid":"4824030","lea_name":"Huntsville Independent School District","fips":48,"city_mailing":"HUNTSVILLE","state_mailing":"TX","zip_mailing":"77320","latitude":30.741623,"longitude":-95.540242,"enrollment":11313,"teachers_total_fte":403.8,"number_of_schools":11,"agency_type":1,"lowest_grade_offered":-1,"highest_grade_offered":12,"county_name":"Walker County","phone":"(936)435-6300"},{"leaid":"4819830","lea_name":"Frenship Independent School District","fips":48,"city_mailing":"WOLFFORTH","state_mailing":"TX","zip_mailing":"79382","latitude":33.503055,"longitude":-102.011321,"enrollment":11165,"teachers_total_fte":707.54,"number_of_schools":12,"agency_type":1,"lowest_grade_offered":-1,"highest_grade_offered":12,"county_name":"Lubbock County","phone":"(806)866-9541"},{"leaid":"4816620","lea_name":"Del Valle Independent School District","fips":48,"city_mailing":"DEL VALLE","state_mailing":"TX","zip_mailing":"78617","latitude":30.176004,"longitude":-97.613364,"enrollment":11118,"teachers_total_fte":737.86,"number_of_schools":14,"agency_type":1,"lowest_grade_offered":-1,"highest_grade_offered":12,"county_name":"Travis County","phone":"(512)386-3010"},{"leaid":"4812810","lea_name":"Canyon Independent School District","fips":48,"city_mailing":"CANYON","state_mailing":"TX","zip_mailing":"79015","latitude":35.018715,"longitude":-101.920588,"enrollment":11075,"teachers_total_fte":732.51,"number_of_schools":21,"agency_type":1,"lowest_grade_offered":-1,"highest_grade_offered":12,"county_name":"Randall County","phone":"(806)677-2600"},{"leaid":"4839990","lea_name":"Sheldon Independent School District","fips":48,"city_mailing":"HOUSTON","state_mailing":"TX","zip_mailing":"77044","latitude":29.887,"longitude":-95.2087,"enrollment":10990,"teachers_total_fte":654.49,"number_of_schools":13,"agency_type":1,"lowest_grade_offered":-1,"highest_grade_offered":12,"county_name":"Harris County","phone":"(281)727-2000"},{"leaid":"4830600","lea_name":"Midlothian Independent School District","fips":48,"city_mailing":"MIDLOTHIAN","state_mailing":"TX","zip_mailing":"76065","latitude":32.474006,"longitude":-96.994478,"enrollment":10990,"teachers_total_fte":683.6,"number_of_schools":14,"agency_type":1,"lowest_grade_offered":-1,"highest_grade_offered":12,"county_name":"Ellis County","phone":"(469)856-5000"},{"leaid":"4844730","lea_name":"Waxahachie Independent School District","fips":48,"city_mailing":"WAXAHACHIE","state_mailing":"TX","zip_mailing":"75165","latitude":32.393451,"longitude":-96.851368,"enrollment":10837,"teachers_total_fte":760.96,"number_of_schools":17,"agency_type":1,"lowest_grade_offered":-1,"highest_grade_offered":12,"county_name":"Ellis County","phone":"(972)923-4631"},{"leaid":"4810710","lea_name":"Boerne Independent School District","fips":48,"city_mailing":"BOERNE","state_mailing":"TX","zip_mailing":"78006","latitude":29.794982,"longitude":-98.736463,"enrollment":10763,"teachers_total_fte":676.34,"number_of_schools":13,"agency_type":1,"lowest_grade_offered":-1,"highest_grade_offered":12,"county_name":"Kendall County","phone":"(830)357-2000"},{"leaid":"4817850","lea_name":"East Central Independent School District","fips":48,"city_mailing":"SAN ANTONIO","state_mailing":"TX","zip_mailing":"78263","latitude":29.362727,"longitude":-98.360032,"enrollment":10617,"teachers_total_fte":619.84,"number_of_schools":15,"agency_type":1,"lowest_grade_offered":-1,"highest_grade_offered":12,"county_name":"Bexar County","phone":"(210)634-6100"},{"leaid":"4828290","lea_name":"Los Fresnos Consolidated Independent School District","fips":48,"city_mailing":"LOS FRESNOS","state_mailing":"TX","zip_mailing":"78566","latitude":26.075658,"longitude":-97.48419,"enrollment":10565,"teachers_total_fte":683.89,"number_of_schools":14,"agency_type":1,"lowest_grade_offered":-1,"highest_grade_offered":12,"county_name":"Cameron County","phone":"(956)254-5000"},{"leaid":"4814430","lea_name":"Clint Independent School District","fips":48,"city_mailing":"EL PASO","state_mailing":"TX","zip_mailing":"79928","latitude":31.683906,"longitude":-106.184746,"enrollment":10365,"teachers_total_fte":687.27,"number_of_schools":15,"agency_type":1,"lowest_grade_offered":-1,"highest_grade_offered":12,"county_name":"El Paso County","phone":"(915)926-4000"},{"leaid":"4838900","lea_name":"San Felipe-Del Rio Consolidated Independent School District","fips":48,"city_mailing":"DEL RIO","state_mailing":"TX","zip_mailing":"78840","latitude":29.35979,"longitude":-100.902026,"enrollment":9947,"teachers_total_fte":575.29,"number_of_schools":14,"agency_type":1,"lowest_grade_offered":-1,"highest_grade_offered":12,"county_name":"Val Verde County","phone":"(830)778-4007"},{"leaid":"4831260","lea_name":"Montgomery Independent School District","fips":48,"city_mailing":"MONTGOMERY","state_mailing":"TX","zip_mailing":"77356","latitude":30.391061,"longitude":-95.691897,"enrollment":9748,"teachers_total_fte":588.71,"number_of_schools":11,"agency_type":1,"lowest_grade_offered":-1,"highest_grade_offered":12,"county_name":"Montgomery County","phone":"(936)276-2000"},{"leaid":"4832370","lea_name":"New Braunfels Independent School District","fips":48,"city_mailing":"NEW BRAUNFELS","state_mailing":"TX","zip_mailing":"78130","latitude":29.706361,"longitude":-98.141457,"enrollment":9745,"teachers_total_fte":614.74,"number_of_schools":16,"agency_type":1,"lowest_grade_offered":-1,"highest_grade_offered":12,"county_name":"Comal County","phone":"(830)643-5700"},{"leaid":"4839930","lea_name":"Sharyland Independent School District","fips":48,"city_mailing":"MISSION","state_mailing":"TX","zip_mailing":"78572","latitude":26.213104,"longitude":-98.284951,"enrollment":9732,"teachers_total_fte":620.76,"number_of_schools":13,"agency_type":1,"lowest_grade_offered":-1,"highest_grade_offered":12,"county_name":"Hidalgo County","phone":"(956)580-5200"},{"leaid":"4837140","lea_name":"Rio Grande City Grulla Independent School District","fips":48,"city_mailing":"RIO GRANDE CITY","state_mailing":"TX","zip_mailing":"78582","latitude":26.377698,"longitude":-98.805738,"enrollment":9644,"teachers_total_fte":729.84,"number_of_schools":15,"agency_type":1,"lowest_grade_offered":-1,"highest_grade_offered":12,"county_name":"Starr County","phone":"(956)716-6702"},{"leaid":"4824100","lea_name":"Hutto Independent School District","fips":48,"city_mailing":"HUTTO","state_mailing":"TX","zip_mailing":"78634","latitude":30.545084,"longitude":-97.542829,"enrollment":9620,"teachers_total_fte":646.8,"number_of_schools":12,"agency_type":1,"lowest_grade_offered":-1,"highest_grade_offered":12,"county_name":"Williamson County","phone":"(737)327-5239"},{"leaid":"4813590","lea_name":"Channelview Independent School District","fips":48,"city_mailing":"CHANNELVIEW","state_mailing":"TX","zip_mailing":"77530","latitude":29.790328,"longitude":-95.123227,"enrollment":9520,"teachers_total_fte":603.39,"number_of_schools":11,"agency_type":1,"lowest_grade_offered":-1,"highest_grade_offered":12,"county_name":"Harris County","phone":"(281)452-8002"},{"leaid":"4838790","lea_name":"San Benito Consolidated Independent School District","fips":48,"city_mailing":"SAN BENITO","state_mailing":"TX","zip_mailing":"78586","latitude":26.131166,"longitude":-97.628387,"enrollment":9354,"teachers_total_fte":634.73,"number_of_schools":23,"agency_type":1,"lowest_grade_offered":-1,"highest_grade_offered":12,"county_name":"Cameron County","phone":"(956)361-6110"},{"leaid":"4828890","lea_name":"Manor Independent School District","fips":48,"city_mailing":"MANOR","state_mailing":"TX","zip_mailing":"78653","latitude":30.344723,"longitude":-97.572333,"enrollment":9255,"teachers_total_fte":621.49,"number_of_schools":15,"agency_type":1,"lowest_grade_offered":-1,"highest_grade_offered":12,"county_name":"Travis County","phone":"(512)278-4000"},{"leaid":"4844430","lea_name":"Waller Independent School District","fips":48,"city_mailing":"WALLER","state_mailing":"TX","zip_mailing":"77484","latitude":30.062719,"longitude":-95.924627,"enrollment":8834,"teachers_total_fte":567.18,"number_of_schools":8,"agency_type":1,"lowest_grade_offered":-1,"highest_grade_offered":12,"county_name":"Waller County","phone":"(936)931-3685"},{"leaid":"4845900","lea_name":"Willis Independent School District","fips":48,"city_mailing":"WILLIS","state_mailing":"TX","zip_mailing":"77378","latitude":30.43066,"longitude":-95.48438,"enrollment":8793,"teachers_total_fte":488.31,"number_of_schools":12,"agency_type":1,"lowest_grade_offered":-1,"highest_grade_offered":12,"county_name":"Montgomery County","phone":"(936)856-1200"},{"leaid":"4830640","lea_name":"Midway Independent School District","fips":48,"city_mailing":"WOODWAY","state_mailing":"TX","zip_mailing":"76712","latitude":31.488407,"longitude":-97.245921,"enrollment":8739,"teachers_total_fte":572.25,"number_of_schools":12,"agency_type":1,"lowest_grade_offered":-1,"highest_grade_offered":12,"county_name":"McLennan County","phone":"(254)761-5610"},{"leaid":"4842330","lea_name":"Temple Independent School District","fips":48,"city_mailing":"TEMPLE","state_mailing":"TX","zip_mailing":"76501","latitude":31.096439,"longitude":-97.3457,"enrollment":8615,"teachers_total_fte":617.22,"number_of_schools":16,"agency_type":1,"lowest_grade_offered":-1,"highest_grade_offered":12,"county_name":"Bell County","phone":"(254)215-6760"},{"leaid":"4838220","lea_name":"Royse City Independent School District","fips":48,"city_mailing":"ROYSE CITY","state_mailing":"TX","zip_mailing":"75189","latitude":32.971939,"longitude":-96.323562,"enrollment":8521,"teachers_total_fte":566.91,"number_of_schools":11,"agency_type":1,"lowest_grade_offered":-1,"highest_grade_offered":12,"county_name":"Rockwall County","phone":"(972)636-2413"},{"leaid":"4813020","lea_name":"Carroll Independent School District","fips":48,"city_mailing":"SOUTHLAKE","state_mailing":"TX","zip_mailing":"76092","latitude":32.97201,"longitude":-97.135858,"enrollment":8471,"teachers_total_fte":560.16,"number_of_schools":11,"agency_type":1,"lowest_grade_offered":-1,"highest_grade_offered":12,"county_name":"Tarrant County","phone":"(817)949-7070"},{"leaid":"4838970","lea_name":"San Marcos Consolidated Independent School District","fips":48,"city_mailing":"SAN MARCOS","state_mailing":"TX","zip_mailing":"78666","latitude":29.897866,"longitude":-97.916624,"enrollment":8447,"teachers_total_fte":584.19,"number_of_schools":11,"agency_type":1,"lowest_grade_offered":-1,"highest_grade_offered":12,"county_name":"Hays County","phone":"(512)393-6744"},{"leaid":"4800008","lea_name":"Dripping Springs Independent School District","fips":48,"city_mailing":"DRIPPING SPRINGS","state_mailing":"TX","zip_mailing":"78620","latitude":30.192992,"longitude":-98.093725,"enrollment":8375,"teachers_total_fte":548.58,"number_of_schools":8,"agency_type":1,"lowest_grade_offered":-1,"highest_grade_offered":12,"county_name":"Hays County","phone":"(512)858-3000"},{"leaid":"4827720","lea_name":"Little Elm Independent School District","fips":48,"city_mailing":"LITTLE ELM","state_mailing":"TX","zip_mailing":"75068","latitude":33.151941,"longitude":-96.941602,"enrollment":8351,"teachers_total_fte":522.03,"number_of_schools":10,"agency_type":1,"lowest_grade_offered":-1,"highest_grade_offered":12,"county_name":"Denton County","phone":"(972)947-9340"},{"leaid":"4828110","lea_name":"Longview Independent School District","fips":48,"city_mailing":"LONGVIEW","state_mailing":"TX","zip_mailing":"75602","latitude":32.486008,"longitude":-94.711827,"enrollment":8274,"teachers_total_fte":617.96,"number_of_schools":15,"agency_type":1,"lowest_grade_offered":-1,"highest_grade_offered":12,"county_name":"Gregg County","phone":"(903)381-2200"},{"leaid":"4844800","lea_name":"Weatherford Independent School District","fips":48,"city_mailing":"WEATHERFORD","state_mailing":"TX","zip_mailing":"76086","latitude":32.74705,"longitude":-97.812451,"enrollment":8255,"teachers_total_fte":571.88,"number_of_schools":10,"agency_type":1,"lowest_grade_offered":-1,"highest_grade_offered":12,"county_name":"Parker County","phone":"(817)598-2800"},{"leaid":"4818150","lea_name":"Edgewood Independent School District","fips":48,"city_mailing":"SAN ANTONIO","state_mailing":"TX","zip_mailing":"78237","latitude":29.431734,"longitude":-98.566963,"enrollment":8177,"teachers_total_fte":557.3,"number_of_schools":27,"agency_type":1,"lowest_grade_offered":-1,"highest_grade_offered":12,"county_name":"Bexar County","phone":"(210)898-2000"},{"leaid":"4835400","lea_name":"Port Arthur Independent School District","fips":48,"city_mailing":"PORT ARTHUR","state_mailing":"TX","zip_mailing":"77642","latitude":29.9268,"longitude":-93.9489,"enrollment":8152,"teachers_total_fte":614.05,"number_of_schools":15,"agency_type":1,"lowest_grade_offered":-1,"highest_grade_offered":12,"county_name":"Jefferson County","phone":"(409)989-6244"},{"leaid":"4815240","lea_name":"Copperas Cove Independent School District","fips":48,"city_mailing":"COPPERAS COVE","state_mailing":"TX","zip_mailing":"76522","latitude":31.121327,"longitude":-97.903877,"enrollment":8043,"teachers_total_fte":606.49,"number_of_schools":11,"agency_type":1,"lowest_grade_offered":-1,"highest_grade_offered":12,"county_name":"Coryell County","phone":"(254)547-1227"},{"leaid":"4821390","lea_name":"Granbury Independent School District","fips":48,"city_mailing":"GRANBURY","state_mailing":"TX","zip_mailing":"76048","latitude":32.445949,"longitude":-97.795725,"enrollment":7954,"teachers_total_fte":557.66,"number_of_schools":10,"agency_type":1,"lowest_grade_offered":-1,"highest_grade_offered":12,"county_name":"Hood County","phone":"(817)408-4000"},{"leaid":"4842510","lea_name":"Texas City Independent School District","fips":48,"city_mailing":"TEXAS CITY","state_mailing":"TX","zip_mailing":"77590","latitude":29.39444,"longitude":-94.920329,"enrollment":7890,"teachers_total_fte":531.8,"number_of_schools":14,"agency_type":1,"lowest_grade_offered":-1,"highest_grade_offered":12,"county_name":"Galveston County","phone":"(409)916-0100"},{"leaid":"4840680","lea_name":"South San Antonio Independent School District","fips":48,"city_mailing":"SAN ANTONIO","state_mailing":"TX","zip_mailing":"78224","latitude":29.329486,"longitude":-98.543435,"enrollment":7872,"teachers_total_fte":508.58,"number_of_schools":18,"agency_type":1,"lowest_grade_offered":-1,"highest_grade_offered":12,"county_name":"Bexar County","phone":"(210)977-7000"},{"leaid":"4827420","lea_name":"Liberty Hill Independent School District","fips":48,"city_mailing":"LIBERTY HILL","state_mailing":"TX","zip_mailing":"78642","latitude":30.666889,"longitude":-97.920928,"enrollment":7869,"teachers_total_fte":532.18,"number_of_schools":10,"agency_type":1,"lowest_grade_offered":-1,"highest_grade_offered":12,"county_name":"Williamson County","phone":"(512)260-5580"},{"leaid":"4807780","lea_name":"Aledo Independent School District","fips":48,"city_mailing":"ALEDO","state_mailing":"TX","zip_mailing":"76008","latitude":32.711446,"longitude":-97.617233,"enrollment":7857,"teachers_total_fte":501.26,"number_of_schools":11,"agency_type":1,"lowest_grade_offered":-1,"highest_grade_offered":12,"county_name":"Parker County","phone":"(817)441-8327"},{"leaid":"4835850","lea_name":"Princeton Independent School District","fips":48,"city_mailing":"PRINCETON","state_mailing":"TX","zip_mailing":"75407","latitude":33.178106,"longitude":-96.491407,"enrollment":7837,"teachers_total_fte":488.88,"number_of_schools":14,"agency_type":1,"lowest_grade_offered":-1,"highest_grade_offered":12,"county_name":"Collin County","phone":"(469)952-5400"},{"leaid":"4830060","lea_name":"Medina Valley Independent School District","fips":48,"city_mailing":"CASTROVILLE","state_mailing":"TX","zip_mailing":"78009","latitude":29.344522,"longitude":-98.837664,"enrollment":7823,"teachers_total_fte":482.81,"number_of_schools":8,"agency_type":1,"lowest_grade_offered":-1,"highest_grade_offered":12,"county_name":"Medina County","phone":"(830)931-2243"},{"leaid":"4840080","lea_name":"Sherman Independent School District","fips":48,"city_mailing":"SHERMAN","state_mailing":"TX","zip_mailing":"75090","latitude":33.667177,"longitude":-96.605325,"enrollment":7767,"teachers_total_fte":601.93,"number_of_schools":15,"agency_type":1,"lowest_grade_offered":-1,"highest_grade_offered":12,"county_name":"Grayson County","phone":"(903)891-6400"},{"leaid":"4815180","lea_name":"Lubbock-Cooper Independent School District","fips":48,"city_mailing":"LUBBOCK","state_mailing":"TX","zip_mailing":"79423","latitude":33.467571,"longitude":-101.886894,"enrollment":7750,"teachers_total_fte":593.23,"number_of_schools":11,"agency_type":1,"lowest_grade_offered":-1,"highest_grade_offered":12,"county_name":"Lubbock County","phone":"(806)993-2300"},{"leaid":"4817760","lea_name":"Eanes Independent School District","fips":48,"city_mailing":"AUSTIN","state_mailing":"TX","zip_mailing":"78746","latitude":30.27823,"longitude":-97.816458,"enrollment":7733,"teachers_total_fte":608.95,"number_of_schools":10,"agency_type":1,"lowest_grade_offered":-1,"highest_grade_offered":12,"county_name":"Travis County","phone":"(512)732-9000"},{"leaid":"4809450","lea_name":"Barbers Hill Independent School District","fips":48,"city_mailing":"MONT BELVIEU","state_mailing":"TX","zip_mailing":"77523","latitude":29.837077,"longitude":-94.849841,"enrollment":7339,"teachers_total_fte":545.8,"number_of_schools":9,"agency_type":1,"lowest_grade_offered":-1,"highest_grade_offered":12,"county_name":"Chambers County","phone":"(281)576-2221"},{"leaid":"4814310","lea_name":"Cleburne Independent School District","fips":48,"city_mailing":"CLEBURNE","state_mailing":"TX","zip_mailing":"76033","latitude":32.345607,"longitude":-97.412668,"enrollment":7243,"teachers_total_fte":529.9,"number_of_schools":12,"agency_type":1,"lowest_grade_offered":-1,"highest_grade_offered":12,"county_name":"Johnson County","phone":"(817)202-1100"},{"leaid":"4839690","lea_name":"Seguin Independent School District","fips":48,"city_mailing":"SEGUIN","state_mailing":"TX","zip_mailing":"78155","latitude":29.580319,"longitude":-97.947686,"enrollment":7239,"teachers_total_fte":484.89,"number_of_schools":14,"agency_type":1,"lowest_grade_offered":-1,"highest_grade_offered":12,"county_name":"Guadalupe County","phone":"(830)401-8600"},{"leaid":"4842480","lea_name":"Texarkana Independent School District","fips":48,"city_mailing":"TEXARKANA","state_mailing":"TX","zip_mailing":"75503","latitude":33.457399,"longitude":-94.066083,"enrollment":7180,"teachers_total_fte":561.8,"number_of_schools":13,"agency_type":1,"lowest_grade_offered":-1,"highest_grade_offered":12,"county_name":"Bowie County","phone":"(903)794-3651"},{"leaid":"4828550","lea_name":"Lufkin Independent School District","fips":48,"city_mailing":"LUFKIN","state_mailing":"TX","zip_mailing":"75904","latitude":31.339456,"longitude":-94.72975,"enrollment":7164,"teachers_total_fte":563.57,"number_of_schools":17,"agency_type":1,"lowest_grade_offered":-1,"highest_grade_offered":12,"county_name":"Angelina County","phone":"(936)634-6696"},{"leaid":"4826190","lea_name":"La Porte Independent School District","fips":48,"city_mailing":"LA PORTE","state_mailing":"TX","zip_mailing":"77571","latitude":29.65511,"longitude":-95.013625,"enrollment":7100,"teachers_total_fte":464.86,"number_of_schools":13,"agency_type":1,"lowest_grade_offered":-1,"highest_grade_offered":12,"county_name":"Harris County","phone":"(281)604-7050"},{"leaid":"4809200","lea_name":"Azle Independent School District","fips":48,"city_mailing":"AZLE","state_mailing":"TX","zip_mailing":"76020","latitude":32.895613,"longitude":-97.543102,"enrollment":7089,"teachers_total_fte":479.05,"number_of_schools":13,"agency_type":1,"lowest_grade_offered":-1,"highest_grade_offered":12,"county_name":"Tarrant County","phone":"(817)444-3235"},{"leaid":"4826670","lea_name":"Lancaster Independent School District","fips":48,"city_mailing":"LANCASTER","state_mailing":"TX","zip_mailing":"75146","latitude":32.588495,"longitude":-96.755452,"enrollment":7032,"teachers_total_fte":443.34,"number_of_schools":11,"agency_type":1,"lowest_grade_offered":-1,"highest_grade_offered":12,"county_name":"Dallas County","phone":"(972)218-1400"},{"leaid":"4845540","lea_name":"White Settlement Independent School District","fips":48,"city_mailing":"WHITE SETTLEMENT","state_mailing":"TX","zip_mailing":"76108","latitude":32.759422,"longitude":-97.450632,"enrollment":6972,"teachers_total_fte":452.29,"number_of_schools":10,"agency_type":1,"lowest_grade_offered":-1,"highest_grade_offered":12,"county_name":"Tarrant County","phone":"(817)367-1300"},{"leaid":"4808310","lea_name":"Angleton Independent School District","fips":48,"city_mailing":"ANGLETON","state_mailing":"TX","zip_mailing":"77515","latitude":29.177899,"longitude":-95.418524,"enrollment":6925,"teachers_total_fte":462.9,"number_of_schools":11,"agency_type":1,"lowest_grade_offered":-1,"highest_grade_offered":12,"county_name":"Brazoria County","phone":"(979)864-8000"},{"leaid":"4813230","lea_name":"Cedar Hill Independent School District","fips":48,"city_mailing":"CEDAR HILL","state_mailing":"TX","zip_mailing":"75104","latitude":32.593207,"longitude":-96.951022,"enrollment":6920,"teachers_total_fte":438.72,"number_of_schools":13,"agency_type":1,"lowest_grade_offered":-1,"highest_grade_offered":12,"county_name":"Dallas County","phone":"(972)291-1581"},{"leaid":"4815750","lea_name":"Crosby Independent School District","fips":48,"city_mailing":"CROSBY","state_mailing":"TX","zip_mailing":"77532","latitude":29.899909,"longitude":-95.062228,"enrollment":6717,"teachers_total_fte":419.27,"number_of_schools":9,"agency_type":1,"lowest_grade_offered":-1,"highest_grade_offered":12,"county_name":"Harris County","phone":"(281)328-9200"},{"leaid":"4823250","lea_name":"Highland Park Independent School District","fips":48,"city_mailing":"DALLAS","state_mailing":"TX","zip_mailing":"75205","latitude":32.850731,"longitude":-96.807094,"enrollment":6551,"teachers_total_fte":458.43,"number_of_schools":8,"agency_type":1,"lowest_grade_offered":-1,"highest_grade_offered":12,"county_name":"Dallas County","phone":"(214)780-3000"},{"leaid":"4836660","lea_name":"Red Oak Independent School District","fips":48,"city_mailing":"RED OAK","state_mailing":"TX","zip_mailing":"75154","latitude":32.517987,"longitude":-96.804586,"enrollment":6499,"teachers_total_fte":412.92,"number_of_schools":8,"agency_type":1,"lowest_grade_offered":-1,"highest_grade_offered":12,"county_name":"Ellis County","phone":"(972)617-2941"},{"leaid":"4820280","lea_name":"Galveston Independent School District","fips":48,"city_mailing":"GALVESTON","state_mailing":"TX","zip_mailing":"77550","latitude":29.280824,"longitude":-94.805716,"enrollment":6486,"teachers_total_fte":499.63,"number_of_schools":13,"agency_type":1,"lowest_grade_offered":-1,"highest_grade_offered":12,"county_name":"Galveston County","phone":"(409)766-5100"},{"leaid":"4827870","lea_name":"Lockhart Independent School District","fips":48,"city_mailing":"LOCKHART","state_mailing":"TX","zip_mailing":"78644","latitude":29.887295,"longitude":-97.677569,"enrollment":6443,"teachers_total_fte":405.41,"number_of_schools":9,"agency_type":1,"lowest_grade_offered":-1,"highest_grade_offered":12,"county_name":"Caldwell County","phone":"(512)398-0000"},{"leaid":"4816860","lea_name":"DeSoto Independent School District","fips":48,"city_mailing":"DESOTO","state_mailing":"TX","zip_mailing":"75115","latitude":32.588957,"longitude":-96.855297,"enrollment":6322,"teachers_total_fte":405.17,"number_of_schools":10,"agency_type":1,"lowest_grade_offered":-1,"highest_grade_offered":12,"county_name":"Dallas County","phone":"(972)223-6666"},{"leaid":"4819950","lea_name":"Friendswood Independent School District","fips":48,"city_mailing":"FRIENDSWOOD","state_mailing":"TX","zip_mailing":"77546","latitude":29.529125,"longitude":-95.204108,"enrollment":6213,"teachers_total_fte":395.29,"number_of_schools":6,"agency_type":1,"lowest_grade_offered":-1,"highest_grade_offered":12,"county_name":"Galveston County","phone":"(281)482-1267"},{"leaid":"4837860","lea_name":"Roscoe Collegiate Independent School District","fips":48,"city_mailing":"ROSCOE","state_mailing":"TX","zip_mailing":"79545","latitude":32.438934,"longitude":-100.54008,"enrollment":6191,"teachers_total_fte":49.47,"number_of_schools":4,"agency_type":1,"lowest_grade_offered":-1,"highest_grade_offered":12,"county_name":"Nolan County","phone":"(325)766-3629"},{"leaid":"4818540","lea_name":"Ennis Independent School District","fips":48,"city_mailing":"ENNIS","state_mailing":"TX","zip_mailing":"75119","latitude":32.327172,"longitude":-96.630108,"enrollment":6185,"teachers_total_fte":433.27,"number_of_schools":11,"agency_type":1,"lowest_grade_offered":-1,"highest_grade_offered":12,"county_name":"Ellis County","phone":"(972)872-7000"},{"leaid":"4815330","lea_name":"Corsicana Independent School District","fips":48,"city_mailing":"CORSICANA","state_mailing":"TX","zip_mailing":"75110","latitude":32.965756,"longitude":-96.99305,"enrollment":6096,"teachers_total_fte":408.37,"number_of_schools":8,"agency_type":1,"lowest_grade_offered":-1,"highest_grade_offered":12,"county_name":"Dallas County","phone":"(903)602-8100"},{"leaid":"4812780","lea_name":"Canutillo Independent School District","fips":48,"city_mailing":"EL PASO","state_mailing":"TX","zip_mailing":"79932","latitude":31.882917,"longitude":-106.586265,"enrollment":6076,"teachers_total_fte":422.01,"number_of_schools":10,"agency_type":1,"lowest_grade_offered":-1,"highest_grade_offered":12,"county_name":"El Paso County","phone":"(915)877-7444"},{"leaid":"4815510","lea_name":"Crandall Independent School District","fips":48,"city_mailing":"CRANDALL","state_mailing":"TX","zip_mailing":"75114","latitude":32.623258,"longitude":-96.458002,"enrollment":6003,"teachers_total_fte":384.67,"number_of_schools":7,"agency_type":1,"lowest_grade_offered":-1,"highest_grade_offered":12,"county_name":"Kaufman County","phone":"(972)427-6000"},{"leaid":"4837740","lea_name":"Roma Independent School District","fips":48,"city_mailing":"ROMA","state_mailing":"TX","zip_mailing":"78584","latitude":26.407422,"longitude":-99.015632,"enrollment":5977,"teachers_total_fte":431.55,"number_of_schools":10,"agency_type":1,"lowest_grade_offered":-1,"highest_grade_offered":12,"county_name":"Starr County","phone":"(956)849-1377"},{"leaid":"4840920","lea_name":"Southside Independent School District","fips":48,"city_mailing":"SAN ANTONIO","state_mailing":"TX","zip_mailing":"78221","latitude":29.240639,"longitude":-98.472782,"enrollment":5965,"teachers_total_fte":381.33,"number_of_schools":10,"agency_type":1,"lowest_grade_offered":-1,"highest_grade_offered":12,"county_name":"Bexar County","phone":"(210)882-1600"},{"leaid":"4832090","lea_name":"Nacogdoches Independent School District","fips":48,"city_mailing":"NACOGDOCHES","state_mailing":"TX","zip_mailing":"75965","latitude":31.65591,"longitude":-94.649667,"enrollment":5943,"teachers_total_fte":428.94,"number_of_schools":9,"agency_type":1,"lowest_grade_offered":-1,"highest_grade_offered":12,"county_name":"Nacogdoches County","phone":"(936)569-5000"},{"leaid":"4824930","lea_name":"Joshua Independent School District","fips":48,"city_mailing":"JOSHUA","state_mailing":"TX","zip_mailing":"76058","latitude":32.457667,"longitude":-97.38588,"enrollment":5892,"teachers_total_fte":419.77,"number_of_schools":11,"agency_type":1,"lowest_grade_offered":-1,"highest_grade_offered":12,"county_name":"Johnson County","phone":"(817)202-2500"},{"leaid":"4816410","lea_name":"Dayton Independent School District","fips":48,"city_mailing":"DAYTON","state_mailing":"TX","zip_mailing":"77535","latitude":30.060898,"longitude":-94.899066,"enrollment":5776,"teachers_total_fte":363.22,"number_of_schools":7,"agency_type":1,"lowest_grade_offered":-1,"highest_grade_offered":12,"county_name":"Liberty County","phone":"(936)258-2667"},{"leaid":"4819380","lea_name":"Flour Bluff Independent School District","fips":48,"city_mailing":"CORPUS CHRISTI","state_mailing":"TX","zip_mailing":"78418","latitude":27.646628,"longitude":-97.295295,"enrollment":5732,"teachers_total_fte":355.15,"number_of_schools":7,"agency_type":1,"lowest_grade_offered":-1,"highest_grade_offered":12,"county_name":"Nueces County","phone":"(361)694-9205"},{"leaid":"4830120","lea_name":"Melissa Independent School District","fips":48,"city_mailing":"MELISSA","state_mailing":"TX","zip_mailing":"75454","latitude":33.285002,"longitude":-96.570664,"enrollment":5654,"teachers_total_fte":349.29,"number_of_schools":6,"agency_type":1,"lowest_grade_offered":-1,"highest_grade_offered":12,"county_name":"Collin County","phone":"(972)837-2411"},{"leaid":"4821720","lea_name":"Greenville Independent School District","fips":48,"city_mailing":"GREENVILLE","state_mailing":"TX","zip_mailing":"75401","latitude":33.128163,"longitude":-96.098727,"enrollment":5422,"teachers_total_fte":390.5,"number_of_schools":11,"agency_type":1,"lowest_grade_offered":-1,"highest_grade_offered":12,"county_name":"Hunt County","phone":"(903)457-2500"},{"leaid":"4846500","lea_name":"Wylie Independent School District","fips":48,"city_mailing":"ABILENE","state_mailing":"TX","zip_mailing":"79606","latitude":32.373787,"longitude":-99.774076,"enrollment":5419,"teachers_total_fte":352.62,"number_of_schools":8,"agency_type":1,"lowest_grade_offered":-1,"highest_grade_offered":12,"county_name":"Taylor County","phone":"(325)692-4353"},{"leaid":"4818360","lea_name":"Elgin Independent School District","fips":48,"city_mailing":"ELGIN","state_mailing":"TX","zip_mailing":"78621","latitude":30.35222,"longitude":-97.377931,"enrollment":5404,"teachers_total_fte":306.67,"number_of_schools":7,"agency_type":1,"lowest_grade_offered":-1,"highest_grade_offered":12,"county_name":"Bastrop County","phone":"(512)281-3434"},{"leaid":"4818810","lea_name":"Everman Independent School District","fips":48,"city_mailing":"FORT WORTH","state_mailing":"TX","zip_mailing":"76140","latitude":32.626254,"longitude":-97.302716,"enrollment":5354,"teachers_total_fte":392.16,"number_of_schools":11,"agency_type":1,"lowest_grade_offered":-1,"highest_grade_offered":12,"county_name":"Tarrant County","phone":"(817)568-3500"},{"leaid":"4835430","lea_name":"Port Neches-Groves Independent School District","fips":48,"city_mailing":"PORT NECHES","state_mailing":"TX","zip_mailing":"77651","latitude":29.978218,"longitude":-93.958704,"enrollment":5242,"teachers_total_fte":371.23,"number_of_schools":16,"agency_type":1,"lowest_grade_offered":-1,"highest_grade_offered":12,"county_name":"Jefferson County","phone":"(409)722-4244"},{"leaid":"4842450","lea_name":"Terrell Independent School District","fips":48,"city_mailing":"TERRELL","state_mailing":"TX","zip_mailing":"75160","latitude":32.74426,"longitude":-96.275481,"enrollment":5208,"teachers_total_fte":310.99,"number_of_schools":9,"agency_type":1,"lowest_grade_offered":-1,"highest_grade_offered":12,"county_name":"Kaufman County","phone":"(972)563-7504"},{"leaid":"4831760","lea_name":"Mount Pleasant Independent School District","fips":48,"city_mailing":"MOUNT PLEASANT","state_mailing":"TX","zip_mailing":"75456","latitude":33.177056,"longitude":-94.997333,"enrollment":5186,"teachers_total_fte":398.16,"number_of_schools":9,"agency_type":1,"lowest_grade_offered":-1,"highest_grade_offered":12,"county_name":"Titus County","phone":"(903)575-2000"},{"leaid":"4829160","lea_name":"Marshall Independent School District","fips":48,"city_mailing":"MARSHALL","state_mailing":"TX","zip_mailing":"75670","latitude":32.528136,"longitude":-94.353399,"enrollment":5057,"teachers_total_fte":334.53,"number_of_schools":8,"agency_type":1,"lowest_grade_offered":-1,"highest_grade_offered":12,"county_name":"Harrison County","phone":"(903)927-8701"},{"leaid":"4832280","lea_name":"Nederland Independent School District","fips":48,"city_mailing":"NEDERLAND","state_mailing":"TX","zip_mailing":"77627","latitude":29.972087,"longitude":-93.994116,"enrollment":5029,"teachers_total_fte":368.26,"number_of_schools":8,"agency_type":1,"lowest_grade_offered":-1,"highest_grade_offered":12,"county_name":"Jefferson County","phone":"(409)724-2391"},{"leaid":"4808340","lea_name":"Anna Independent School District","fips":48,"city_mailing":"ANNA","state_mailing":"TX","zip_mailing":"75409","latitude":33.325029,"longitude":-96.544656,"enrollment":5018,"teachers_total_fte":345.19,"number_of_schools":8,"agency_type":1,"lowest_grade_offered":-1,"highest_grade_offered":12,"county_name":"Collin County","phone":"(972)924-1000"},{"leaid":"4808670","lea_name":"Argyle Independent School District","fips":48,"city_mailing":"FLOWER MOUND","state_mailing":"TX","zip_mailing":"76226","latitude":33.071914,"longitude":-97.211959,"enrollment":4966,"teachers_total_fte":341.63,"number_of_schools":5,"agency_type":1,"lowest_grade_offered":-1,"highest_grade_offered":12,"county_name":"Denton County","phone":"(940)464-7241"},{"leaid":"4811280","lea_name":"Brenham Independent School District","fips":48,"city_mailing":"BRENHAM","state_mailing":"TX","zip_mailing":"77833","latitude":30.156892,"longitude":-96.388283,"enrollment":4939,"teachers_total_fte":387.74,"number_of_schools":7,"agency_type":1,"lowest_grade_offered":-1,"highest_grade_offered":12,"county_name":"Washington County","phone":"(979)277-3700"},{"leaid":"4821780","lea_name":"Gregory-Portland Independent School District","fips":48,"city_mailing":"PORTLAND","state_mailing":"TX","zip_mailing":"78374","latitude":27.893795,"longitude":-97.304216,"enrollment":4937,"teachers_total_fte":340.85,"number_of_schools":6,"agency_type":1,"lowest_grade_offered":-1,"highest_grade_offered":12,"county_name":"San Patricio County","phone":"(361)777-1091"},{"leaid":"4845600","lea_name":"Whitehouse Independent School District","fips":48,"city_mailing":"WHITEHOUSE","state_mailing":"TX","zip_mailing":"75791","latitude":32.227822,"longitude":-95.225675,"enrollment":4916,"teachers_total_fte":355.59,"number_of_schools":8,"agency_type":1,"lowest_grade_offered":-1,"highest_grade_offered":12,"county_name":"Smith County","phone":"(903)839-5500"},{"leaid":"4824590","lea_name":"Jacksonville Independent School District","fips":48,"city_mailing":"JACKSONVILLE","state_mailing":"TX","zip_mailing":"75766","latitude":31.955254,"longitude":-95.276117,"enrollment":4909,"teachers_total_fte":353.08,"number_of_schools":8,"agency_type":1,"lowest_grade_offered":-1,"highest_grade_offered":12,"county_name":"Cherokee County","phone":"(903)586-6511"},{"leaid":"4825590","lea_name":"Kerrville Independent School District","fips":48,"city_mailing":"KERRVILLE","state_mailing":"TX","zip_mailing":"78028","latitude":30.045692,"longitude":-99.132426,"enrollment":4878,"teachers_total_fte":313.47,"number_of_schools":9,"agency_type":1,"lowest_grade_offered":-1,"highest_grade_offered":12,"county_name":"Kerr County","phone":"(830)257-2200"},{"leaid":"4816710","lea_name":"Denison Independent School District","fips":48,"city_mailing":"DENISON","state_mailing":"TX","zip_mailing":"75020","latitude":33.74357,"longitude":-96.539301,"enrollment":4868,"teachers_total_fte":353.06,"number_of_schools":9,"agency_type":1,"lowest_grade_offered":-1,"highest_grade_offered":12,"county_name":"Grayson County","phone":"(903)462-7000"},{"leaid":"4841070","lea_name":"Splendora Independent School District","fips":48,"city_mailing":"SPLENDORA","state_mailing":"TX","zip_mailing":"77372","latitude":30.233883,"longitude":-95.158326,"enrollment":4866,"teachers_total_fte":317.29,"number_of_schools":6,"agency_type":1,"lowest_grade_offered":-1,"highest_grade_offered":12,"county_name":"Montgomery County","phone":"(281)689-3128"},{"leaid":"4825140","lea_name":"Karnes City Independent School District","fips":48,"city_mailing":"KARNES CITY","state_mailing":"TX","zip_mailing":"78118","latitude":28.888043,"longitude":-97.891171,"enrollment":4835,"teachers_total_fte":85.82,"number_of_schools":7,"agency_type":1,"lowest_grade_offered":-1,"highest_grade_offered":12,"county_name":"Karnes County","phone":"(830)780-2321"},{"leaid":"4807590","lea_name":"Alamo Heights Independent School District","fips":48,"city_mailing":"SAN ANTONIO","state_mailing":"TX","zip_mailing":"78209","latitude":29.492513,"longitude":-98.46681,"enrollment":4762,"teachers_total_fte":358.16,"number_of_schools":6,"agency_type":1,"lowest_grade_offered":-1,"highest_grade_offered":12,"county_name":"Bexar County","phone":"(210)824-2483"},{"leaid":"4835070","lea_name":"Plainview Independent School District","fips":48,"city_mailing":"PLAINVIEW","state_mailing":"TX","zip_mailing":"79072","latitude":34.206202,"longitude":-101.736481,"enrollment":4662,"teachers_total_fte":324.51,"number_of_schools":7,"agency_type":1,"lowest_grade_offered":-1,"highest_grade_offered":12,"county_name":"Hale County","phone":"(806)293-6000"},{"leaid":"4834980","lea_name":"Pine Tree Independent School District","fips":48,"city_mailing":"LONGVIEW","state_mailing":"TX","zip_mailing":"75604","latitude":32.523998,"longitude":-94.805339,"enrollment":4611,"teachers_total_fte":318.28,"number_of_schools":7,"agency_type":1,"lowest_grade_offered":-1,"highest_grade_offered":12,"county_name":"Gregg County","phone":"(903)295-5000"},{"leaid":"4807800","lea_name":"Alice Independent School District","fips":48,"city_mailing":"ALICE","state_mailing":"TX","zip_mailing":"78332","latitude":27.757005,"longitude":-98.052642,"enrollment":4506,"teachers_total_fte":300.33,"number_of_schools":6,"agency_type":1,"lowest_grade_offered":-1,"highest_grade_offered":12,"county_name":"Jim Wells County","phone":"(361)664-0981"},{"leaid":"4827510","lea_name":"Lindale Independent School District","fips":48,"city_mailing":"LINDALE","state_mailing":"TX","zip_mailing":"75771","latitude":32.510139,"longitude":-95.403681,"enrollment":4469,"teachers_total_fte":308.51,"number_of_schools":6,"agency_type":1,"lowest_grade_offered":-1,"highest_grade_offered":12,"county_name":"Smith County","phone":"(903)881-4001"},{"leaid":"4830250","lea_name":"Mercedes Independent School District","fips":48,"city_mailing":"MERCEDES","state_mailing":"TX","zip_mailing":"78570","latitude":26.145806,"longitude":-97.91134,"enrollment":4457,"teachers_total_fte":315.08,"number_of_schools":11,"agency_type":1,"lowest_grade_offered":-1,"highest_grade_offered":12,"county_name":"Hidalgo County","phone":"(956)514-2000"},{"leaid":"4818060","lea_name":"Edcouch-Elsa Independent School District","fips":48,"city_mailing":"EDCOUCH","state_mailing":"TX","zip_mailing":"78538","latitude":26.294229,"longitude":-97.973675,"enrollment":4366,"teachers_total_fte":292.18,"number_of_schools":9,"agency_type":1,"lowest_grade_offered":-1,"highest_grade_offered":12,"county_name":"Hidalgo County","phone":"(956)262-6000"},{"leaid":"4841820","lea_name":"Sulphur Springs Independent School District","fips":48,"city_mailing":"SULPHUR SPRINGS","state_mailing":"TX","zip_mailing":"75482","latitude":33.138786,"longitude":-95.609062,"enrollment":4361,"teachers_total_fte":360.01,"number_of_schools":9,"agency_type":1,"lowest_grade_offered":-1,"highest_grade_offered":12,"county_name":"Hopkins County","phone":"(903)885-2153"},{"leaid":"4839270","lea_name":"Santa Fe Independent School District","fips":48,"city_mailing":"SANTA FE","state_mailing":"TX","zip_mailing":"77510","latitude":29.381896,"longitude":-95.105723,"enrollment":4343,"teachers_total_fte":272.0,"number_of_schools":7,"agency_type":1,"lowest_grade_offered":-1,"highest_grade_offered":12,"county_name":"Galveston County","phone":"(409)925-3526"},{"leaid":"4825200","lea_name":"Kaufman Independent School District","fips":48,"city_mailing":"KAUFMAN","state_mailing":"TX","zip_mailing":"75142","latitude":32.584089,"longitude":-96.313185,"enrollment":4332,"teachers_total_fte":280.71,"number_of_schools":7,"agency_type":1,"lowest_grade_offered":-1,"highest_grade_offered":12,"county_name":"Kaufman County","phone":"(972)932-2622"},{"leaid":"4844160","lea_name":"Vidor Independent School District","fips":48,"city_mailing":"VIDOR","state_mailing":"TX","zip_mailing":"77662","latitude":30.127146,"longitude":-94.013465,"enrollment":4315,"teachers_total_fte":306.61,"number_of_schools":7,"agency_type":1,"lowest_grade_offered":-1,"highest_grade_offered":12,"county_name":"Orange County","phone":"(409)951-8700"},{"leaid":"4828380","lea_name":"Lovejoy Independent School District","fips":48,"city_mailing":"ALLEN","state_mailing":"TX","zip_mailing":"75002","latitude":33.126153,"longitude":-96.61121,"enrollment":4254,"teachers_total_fte":262.92,"number_of_schools":6,"agency_type":1,"lowest_grade_offered":-1,"highest_grade_offered":12,"county_name":"Collin County","phone":"(469)742-8000"},{"leaid":"4808280","lea_name":"Andrews Independent School District","fips":48,"city_mailing":"ANDREWS","state_mailing":"TX","zip_mailing":"79714","latitude":32.321477,"longitude":-102.551563,"enrollment":4198,"teachers_total_fte":286.67,"number_of_schools":6,"agency_type":1,"lowest_grade_offered":-1,"highest_grade_offered":12,"county_name":"Andrews County","phone":"(432)523-3640"},{"leaid":"4813530","lea_name":"Lumberton Independent School District","fips":48,"city_mailing":"LUMBERTON","state_mailing":"TX","zip_mailing":"77657","latitude":30.255099,"longitude":-94.197325,"enrollment":4195,"teachers_total_fte":274.25,"number_of_schools":6,"agency_type":1,"lowest_grade_offered":-1,"highest_grade_offered":12,"county_name":"Hardin County","phone":"(409)923-7580"},{"leaid":"4817610","lea_name":"Dumas Independent School District","fips":48,"city_mailing":"DUMAS","state_mailing":"TX","zip_mailing":"79029","latitude":35.861779,"longitude":-101.978426,"enrollment":4192,"teachers_total_fte":310.6,"number_of_schools":9,"agency_type":1,"lowest_grade_offered":-1,"highest_grade_offered":12,"county_name":"Moore County","phone":"(806)935-6461"},{"leaid":"4840740","lea_name":"Somerset Independent School District","fips":48,"city_mailing":"SOMERSET","state_mailing":"TX","zip_mailing":"78069","latitude":29.226758,"longitude":-98.653774,"enrollment":4147,"teachers_total_fte":260.41,"number_of_schools":8,"agency_type":1,"lowest_grade_offered":-1,"highest_grade_offered":12,"county_name":"Bexar County","phone":"(210)750-8955"},{"leaid":"4814850","lea_name":"Community Independent School District","fips":48,"city_mailing":"NEVADA","state_mailing":"TX","zip_mailing":"75173","latitude":33.062902,"longitude":-96.365694,"enrollment":4143,"teachers_total_fte":267.96,"number_of_schools":6,"agency_type":1,"lowest_grade_offered":-1,"highest_grade_offered":12,"county_name":"Collin County","phone":"(972)843-6000"},{"leaid":"4841280","lea_name":"Springtown Independent School District","fips":48,"city_mailing":"SPRINGTOWN","state_mailing":"TX","zip_mailing":"76082","latitude":32.970981,"longitude":-97.682475,"enrollment":4120,"teachers_total_fte":297.52,"number_of_schools":6,"agency_type":1,"lowest_grade_offered":-1,"highest_grade_offered":12,"county_name":"Parker County","phone":"(817)220-1700"},{"leaid":"4843720","lea_name":"Uvalde Consolidated Independent School District","fips":48,"city_mailing":"UVALDE","state_mailing":"TX","zip_mailing":"78801","latitude":29.223387,"longitude":-99.791462,"enrollment":4071,"teachers_total_fte":294.02,"number_of_schools":9,"agency_type":1,"lowest_grade_offered":-1,"highest_grade_offered":12,"county_name":"Uvalde County","phone":"(830)278-6655"},{"leaid":"4829010","lea_name":"Marble Falls Independent School District","fips":48,"city_mailing":"MARBLE FALLS","state_mailing":"TX","zip_mailing":"78654","latitude":30.59381,"longitude":-98.274781,"enrollment":4063,"teachers_total_fte":298.09,"number_of_schools":7,"agency_type":1,"lowest_grade_offered":-1,"highest_grade_offered":12,"county_name":"Burnet County","phone":"(830)693-4357"},{"leaid":"4827780","lea_name":"Livingston Independent School District","fips":48,"city_mailing":"LIVINGSTON","state_mailing":"TX","zip_mailing":"77351","latitude":30.696199,"longitude":-94.923066,"enrollment":4061,"teachers_total_fte":246.51,"number_of_schools":7,"agency_type":1,"lowest_grade_offered":-1,"highest_grade_offered":12,"county_name":"Polk County","phone":"(936)328-2100"},{"leaid":"4819350","lea_name":"Floresville Independent School District","fips":48,"city_mailing":"FLORESVILLE","state_mailing":"TX","zip_mailing":"78114","latitude":29.137402,"longitude":-98.157434,"enrollment":4042,"teachers_total_fte":258.61,"number_of_schools":6,"agency_type":1,"lowest_grade_offered":-1,"highest_grade_offered":12,"county_name":"Wilson County","phone":"(830)393-5300"},{"leaid":"4812420","lea_name":"Calallen Independent School District","fips":48,"city_mailing":"CORPUS CHRISTI","state_mailing":"TX","zip_mailing":"78410","latitude":27.860876,"longitude":-97.634312,"enrollment":3952,"teachers_total_fte":289.77,"number_of_schools":6,"agency_type":1,"lowest_grade_offered":-1,"highest_grade_offered":12,"county_name":"Nueces County","phone":"(361)242-5600"},{"leaid":"4823010","lea_name":"Hereford Independent School District","fips":48,"city_mailing":"HEREFORD","state_mailing":"TX","zip_mailing":"79045","latitude":34.837421,"longitude":-102.406759,"enrollment":3952,"teachers_total_fte":268.7,"number_of_schools":8,"agency_type":1,"lowest_grade_offered":-1,"highest_grade_offered":12,"county_name":"Deaf Smith County","phone":"(806)363-7600"},{"leaid":"4828680","lea_name":"Mabank Independent School District","fips":48,"city_mailing":"MABANK","state_mailing":"TX","zip_mailing":"75147","latitude":32.365424,"longitude":-96.096696,"enrollment":3904,"teachers_total_fte":256.22,"number_of_schools":6,"agency_type":1,"lowest_grade_offered":-1,"highest_grade_offered":12,"county_name":"Kaufman County","phone":"(903)880-1300"},{"leaid":"4826430","lea_name":"Lake Dallas Independent School District","fips":48,"city_mailing":"LAKE DALLAS","state_mailing":"TX","zip_mailing":"75065","latitude":33.12931,"longitude":-97.030891,"enrollment":3900,"teachers_total_fte":288.69,"number_of_schools":5,"agency_type":1,"lowest_grade_offered":-1,"highest_grade_offered":12,"county_name":"Denton County","phone":"(940)497-4039"},{"leaid":"4813290","lea_name":"Celina Independent School District","fips":48,"city_mailing":"CELINA","state_mailing":"TX","zip_mailing":"75009","latitude":33.322806,"longitude":-96.788519,"enrollment":3897,"teachers_total_fte":252.76,"number_of_schools":6,"agency_type":1,"lowest_grade_offered":-1,"highest_grade_offered":12,"county_name":"Collin County","phone":"(469)742-9100"},{"leaid":"4834290","lea_name":"Paris Independent School District","fips":48,"city_mailing":"PARIS","state_mailing":"TX","zip_mailing":"75460","latitude":33.655332,"longitude":-95.536,"enrollment":3856,"teachers_total_fte":305.35,"number_of_schools":8,"agency_type":1,"lowest_grade_offered":-1,"highest_grade_offered":12,"county_name":"Lamar County","phone":"(903)737-7473"},{"leaid":"4816500","lea_name":"Decatur Independent School District","fips":48,"city_mailing":"DECATUR","state_mailing":"TX","zip_mailing":"76234","latitude":33.231499,"longitude":-97.582649,"enrollment":3838,"teachers_total_fte":252.65,"number_of_schools":6,"agency_type":1,"lowest_grade_offered":-1,"highest_grade_offered":12,"county_name":"Wise County","phone":"(940)393-7100"},{"leaid":"4825620","lea_name":"Kilgore Independent School District","fips":48,"city_mailing":"KILGORE","state_mailing":"TX","zip_mailing":"75662","latitude":32.388181,"longitude":-94.874565,"enrollment":3821,"teachers_total_fte":276.17,"number_of_schools":5,"agency_type":1,"lowest_grade_offered":-1,"highest_grade_offered":12,"county_name":"Gregg County","phone":"(903)988-3900"},{"leaid":"4800011","lea_name":"Alvarado Independent School District","fips":48,"city_mailing":"ALVARADO","state_mailing":"TX","zip_mailing":"76009","latitude":32.406797,"longitude":-97.221024,"enrollment":3750,"teachers_total_fte":260.36,"number_of_schools":7,"agency_type":1,"lowest_grade_offered":-1,"highest_grade_offered":12,"county_name":"Johnson County","phone":"(817)783-6800"},{"leaid":"4843800","lea_name":"Valley View Independent School District","fips":48,"city_mailing":"PHARR","state_mailing":"TX","zip_mailing":"78577","latitude":26.108193,"longitude":-98.218952,"enrollment":3739,"teachers_total_fte":241.13,"number_of_schools":7,"agency_type":1,"lowest_grade_offered":-1,"highest_grade_offered":12,"county_name":"Hidalgo County","phone":"(956)340-1000"},{"leaid":"4841520","lea_name":"Stephenville Independent School District","fips":48,"city_mailing":"STEPHENVILLE","state_mailing":"TX","zip_mailing":"76401","latitude":32.21835,"longitude":-98.237648,"enrollment":3730,"teachers_total_fte":274.98,"number_of_schools":6,"agency_type":1,"lowest_grade_offered":-1,"highest_grade_offered":12,"county_name":"Erath County","phone":"(254)968-7990"},{"leaid":"4823820","lea_name":"Huffman Independent School District","fips":48,"city_mailing":"HUFFMAN","state_mailing":"TX","zip_mailing":"77336","latitude":30.027286,"longitude":-95.087668,"enrollment":3717,"teachers_total_fte":242.08,"number_of_schools":5,"agency_type":1,"lowest_grade_offered":-1,"highest_grade_offered":12,"county_name":"Harris County","phone":"(281)324-1871"},{"leaid":"4813170","lea_name":"Castleberry Independent School District","fips":48,"city_mailing":"FORT WORTH","state_mailing":"TX","zip_mailing":"76114","latitude":32.77753,"longitude":-97.399144,"enrollment":3710,"teachers_total_fte":257.33,"number_of_schools":8,"agency_type":1,"lowest_grade_offered":-1,"highest_grade_offered":12,"county_name":"Tarrant County","phone":"(817)252-2000"},{"leaid":"4843350","lea_name":"Tuloso-Midway Independent School District","fips":48,"city_mailing":"CORPUS CHRISTI","state_mailing":"TX","zip_mailing":"78460","latitude":27.831623,"longitude":-97.556233,"enrollment":3655,"teachers_total_fte":277.42,"number_of_schools":5,"agency_type":1,"lowest_grade_offered":-1,"highest_grade_offered":12,"county_name":"Nueces County","phone":"(361)903-6400"},{"leaid":"4841350","lea_name":"Stafford Municipal School District","fips":48,"city_mailing":"STAFFORD","state_mailing":"TX","zip_mailing":"77477","latitude":29.601354,"longitude":-95.543352,"enrollment":3641,"teachers_total_fte":256.06,"number_of_schools":5,"agency_type":1,"lowest_grade_offered":-1,"highest_grade_offered":12,"county_name":"Fort Bend County","phone":"(281)261-9200"},{"leaid":"4809630","lea_name":"Bay City Independent School District","fips":48,"city_mailing":"BAY CITY","state_mailing":"TX","zip_mailing":"77414","latitude":28.981964,"longitude":-95.983608,"enrollment":3579,"teachers_total_fte":226.14,"number_of_schools":5,"agency_type":1,"lowest_grade_offered":-1,"highest_grade_offered":12,"county_name":"Matagorda County","phone":"(979)401-1005"},{"leaid":"4826640","lea_name":"Lampasas Independent School District","fips":48,"city_mailing":"LAMPASAS","state_mailing":"TX","zip_mailing":"76550","latitude":31.059934,"longitude":-98.182501,"enrollment":3567,"teachers_total_fte":261.43,"number_of_schools":5,"agency_type":1,"lowest_grade_offered":-1,"highest_grade_offered":12,"county_name":"Lampasas County","phone":"(512)556-6224"},{"leaid":"4832310","lea_name":"Needville Independent School District","fips":48,"city_mailing":"NEEDVILLE","state_mailing":"TX","zip_mailing":"77461","latitude":29.371753,"longitude":-95.802665,"enrollment":3553,"teachers_total_fte":239.66,"number_of_schools":4,"agency_type":1,"lowest_grade_offered":-1,"highest_grade_offered":12,"county_name":"Fort Bend County","phone":"(979)793-4308"},{"leaid":"4808910","lea_name":"Aubrey Independent School District","fips":48,"city_mailing":"AUBREY","state_mailing":"TX","zip_mailing":"76227","latitude":33.306244,"longitude":-96.981242,"enrollment":3538,"teachers_total_fte":221.73,"number_of_schools":5,"agency_type":1,"lowest_grade_offered":-1,"highest_grade_offered":12,"county_name":"Denton County","phone":"(940)668-0060"},{"leaid":"4812480","lea_name":"Calhoun County Independent School District","fips":48,"city_mailing":"PORT LAVACA","state_mailing":"TX","zip_mailing":"77979","latitude":28.620085,"longitude":-96.627872,"enrollment":3530,"teachers_total_fte":258.09,"number_of_schools":7,"agency_type":1,"lowest_grade_offered":-1,"highest_grade_offered":12,"county_name":"Calhoun County","phone":"(361)552-9728"},{"leaid":"4826310","lea_name":"La Vernia Independent School District","fips":48,"city_mailing":"LA VERNIA","state_mailing":"TX","zip_mailing":"78121","latitude":29.357476,"longitude":-98.12243,"enrollment":3515,"teachers_total_fte":221.03,"number_of_schools":4,"agency_type":1,"lowest_grade_offered":-1,"highest_grade_offered":12,"county_name":"Wilson County","phone":"(830)779-6600"},{"leaid":"4810200","lea_name":"Big Spring Independent School District","fips":48,"city_mailing":"BIG SPRING","state_mailing":"TX","zip_mailing":"79720","latitude":32.246039,"longitude":-101.464635,"enrollment":3510,"teachers_total_fte":266.86,"number_of_schools":9,"agency_type":1,"lowest_grade_offered":-1,"highest_grade_offered":12,"county_name":"Howard County","phone":"(432)264-3600"},{"leaid":"4826490","lea_name":"Lake Worth Independent School District","fips":48,"city_mailing":"LAKE WORTH","state_mailing":"TX","zip_mailing":"76135","latitude":32.811892,"longitude":-97.439269,"enrollment":3447,"teachers_total_fte":257.63,"number_of_schools":7,"agency_type":1,"lowest_grade_offered":-1,"highest_grade_offered":12,"county_name":"Tarrant County","phone":"(817)306-4200"},{"leaid":"4811700","lea_name":"Brownwood Independent School District","fips":48,"city_mailing":"BROWNWOOD","state_mailing":"TX","zip_mailing":"76801","latitude":31.690962,"longitude":-98.972921,"enrollment":3443,"teachers_total_fte":259.74,"number_of_schools":7,"agency_type":1,"lowest_grade_offered":-1,"highest_grade_offered":12,"county_name":"Brown County","phone":"(325)643-5644"},{"leaid":"4834170","lea_name":"Pampa Independent School District","fips":48,"city_mailing":"PAMPA","state_mailing":"TX","zip_mailing":"79065","latitude":35.547374,"longitude":-100.972479,"enrollment":3441,"teachers_total_fte":234.19,"number_of_schools":6,"agency_type":1,"lowest_grade_offered":-1,"highest_grade_offered":12,"county_name":"Gray County","phone":"(806)669-4700"},{"leaid":"4822970","lea_name":"Henderson Independent School District","fips":48,"city_mailing":"HENDERSON","state_mailing":"TX","zip_mailing":"75652","latitude":32.187022,"longitude":-94.796802,"enrollment":3400,"teachers_total_fte":242.24,"number_of_schools":5,"agency_type":1,"lowest_grade_offered":-1,"highest_grade_offered":12,"county_name":"Rusk County","phone":"(903)655-5000"},{"leaid":"4835190","lea_name":"Pleasanton Independent School District","fips":48,"city_mailing":"PLEASANTON","state_mailing":"TX","zip_mailing":"78064","latitude":33.006664,"longitude":-94.979736,"enrollment":3384,"teachers_total_fte":242.08,"number_of_schools":6,"agency_type":1,"lowest_grade_offered":-1,"highest_grade_offered":12,"county_name":"Camp County","phone":"(830)569-1200"},{"leaid":"4846710","lea_name":"Zapata County Independent School District","fips":48,"city_mailing":"ZAPATA","state_mailing":"TX","zip_mailing":"78076","latitude":26.909499,"longitude":-99.269895,"enrollment":3376,"teachers_total_fte":238.67,"number_of_schools":6,"agency_type":1,"lowest_grade_offered":-1,"highest_grade_offered":12,"county_name":"Zapata County","phone":"(956)765-6546"},{"leaid":"4824600","lea_name":"Jarrell Independent School District","fips":48,"city_mailing":"JARRELL","state_mailing":"TX","zip_mailing":"76537","latitude":30.827929,"longitude":-97.605894,"enrollment":3360,"teachers_total_fte":233.19,"number_of_schools":4,"agency_type":1,"lowest_grade_offered":-1,"highest_grade_offered":12,"county_name":"Williamson County","phone":"(512)746-2124"},{"leaid":"4830950","lea_name":"Mineral Wells Independent School District","fips":48,"city_mailing":"MINERAL WELLS","state_mailing":"TX","zip_mailing":"76067","latitude":32.802205,"longitude":-98.118029,"enrollment":3352,"teachers_total_fte":219.31,"number_of_schools":4,"agency_type":1,"lowest_grade_offered":-1,"highest_grade_offered":12,"county_name":"Palo Pinto County","phone":"(940)325-6404"},{"leaid":"4818280","lea_name":"El Campo Independent School District","fips":48,"city_mailing":"EL CAMPO","state_mailing":"TX","zip_mailing":"77437","latitude":29.201608,"longitude":-96.284249,"enrollment":3349,"teachers_total_fte":224.99,"number_of_schools":5,"agency_type":1,"lowest_grade_offered":-1,"highest_grade_offered":12,"county_name":"Wharton County","phone":"(979)543-6771"},{"leaid":"4827690","lea_name":"Little Cypress-Mauriceville Consolidated Independent School District","fips":48,"city_mailing":"ORANGE","state_mailing":"TX","zip_mailing":"77632","latitude":30.151975,"longitude":-93.758688,"enrollment":3340,"teachers_total_fte":251.0,"number_of_schools":6,"agency_type":1,"lowest_grade_offered":-1,"highest_grade_offered":12,"county_name":"Orange County","phone":"(409)883-2232"},{"leaid":"4813650","lea_name":"Chapel Hill Independent School District","fips":48,"city_mailing":"TYLER","state_mailing":"TX","zip_mailing":"75707","latitude":32.317823,"longitude":-95.189137,"enrollment":3308,"teachers_total_fte":243.37,"number_of_schools":5,"agency_type":1,"lowest_grade_offered":-1,"highest_grade_offered":12,"county_name":"Smith County","phone":"(903)566-2441"},{"leaid":"4812220","lea_name":"Burnet Consolidated Independent School District","fips":48,"city_mailing":"BURNET","state_mailing":"TX","zip_mailing":"78611","latitude":30.76096,"longitude":-98.226751,"enrollment":3304,"teachers_total_fte":234.98,"number_of_schools":6,"agency_type":1,"lowest_grade_offered":-1,"highest_grade_offered":12,"county_name":"Burnet County","phone":"(512)756-2124"},{"leaid":"4834050","lea_name":"Palestine Independent School District","fips":48,"city_mailing":"PALESTINE","state_mailing":"TX","zip_mailing":"75801","latitude":31.758412,"longitude":-95.618525,"enrollment":3297,"teachers_total_fte":251.42,"number_of_schools":6,"agency_type":1,"lowest_grade_offered":-1,"highest_grade_offered":12,"county_name":"Anderson County","phone":"(903)731-8000"},{"leaid":"4812120","lea_name":"Burkburnett Independent School District","fips":48,"city_mailing":"BURKBURNETT","state_mailing":"TX","zip_mailing":"76354","latitude":34.09397,"longitude":-98.568663,"enrollment":3211,"teachers_total_fte":243.15,"number_of_schools":7,"agency_type":1,"lowest_grade_offered":-1,"highest_grade_offered":12,"county_name":"Wichita County","phone":"(940)569-3326"},{"leaid":"4838850","lea_name":"San Elizario Independent School District","fips":48,"city_mailing":"SAN ELIZARIO","state_mailing":"TX","zip_mailing":"79849","latitude":31.576855,"longitude":-106.259707,"enrollment":3177,"teachers_total_fte":195.02,"number_of_schools":6,"agency_type":1,"lowest_grade_offered":-1,"highest_grade_offered":12,"county_name":"El Paso County","phone":"(915)872-3900"},{"leaid":"4811310","lea_name":"Bridge City Independent School District","fips":48,"city_mailing":"BRIDGE CITY","state_mailing":"TX","zip_mailing":"77611","latitude":30.032484,"longitude":-93.853265,"enrollment":3144,"teachers_total_fte":195.1,"number_of_schools":4,"agency_type":1,"lowest_grade_offered":-1,"highest_grade_offered":12,"county_name":"Orange County","phone":"(409)735-1501"},{"leaid":"4821750","lea_name":"Greenwood Independent School District","fips":48,"city_mailing":"MIDLAND","state_mailing":"TX","zip_mailing":"79706","latitude":32.022615,"longitude":-101.894707,"enrollment":3140,"teachers_total_fte":210.29,"number_of_schools":4,"agency_type":1,"lowest_grade_offered":-1,"highest_grade_offered":12,"county_name":"Midland County","phone":"(432)683-6461"},