[{"leaid":"1602100","lea_name":"Meridian Joint School District 2","fips":16,"city_mailing":"MERIDIAN","state_mailing":"ID","zip_mailing":"83642","latitude":43.595795,"longitude":-116.378603,"enrollment":39496,"teachers_total_fte":2199.86,"number_of_schools":61,"agency_type":1,"lowest_grade_offered":-1,"highest_grade_offered":12,"county_name":"Ada County","phone":"(208)855-4500"},{"leaid":"1600360","lea_name":"Boise City Independent School District 1","fips":16,"city_mailing":"BOISE","state_mailing":"ID","zip_mailing":"83709","latitude":43.574559,"longitude":-116.283299,"enrollment":22809,"teachers_total_fte":1455.67,"number_of_schools":51,"agency_type":1,"lowest_grade_offered":-1,"highest_grade_offered":12,"county_name":"Ada County","phone":"(208)338-3400"},{"leaid":"1600930","lea_name":"Bonneville Joint School District 93","fips":16,"city_mailing":"IDAHO FALLS","state_mailing":"ID","zip_mailing":"83401","latitude":43.527452,"longitude":-111.965349,"enrollment":13778,"teachers_total_fte":702.25,"number_of_schools":26,"agency_type":1,"lowest_grade_offered":-1,"highest_grade_offered":12,"county_name":"Bonneville County","phone":"(208)525-4400"},{"leaid":"1602340","lea_name":"Nampa School District 131","fips":16,"city_mailing":"NAMPA","state_mailing":"ID","zip_mailing":"83686","latitude":43.562748,"longitude":-116.578616,"enrollment":13398,"teachers_total_fte":758.02,"number_of_schools":25,"agency_type":1,"lowest_grade_offered":-1,"highest_grade_offered":12,"county_name":"Canyon County","phone":"(208)468-4600"},{"leaid":"1602640","lea_name":"Pocatello School District 25","fips":16,"city_mailing":"POCATELLO","state_mailing":"ID","zip_mailing":"83201","latitude":42.890391,"longitude":-112.466679,"enrollment":12259,"teachers_total_fte":644.18,"number_of_schools":25,"agency_type":1,"lowest_grade_offered":-1,"highest_grade_offered":12,"county_name":"Bannock County","phone":"(208)232-3563"},{"leaid":"1601530","lea_name":"Idaho Falls School District 91","fips":16,"city_mailing":"IDAHO FALLS","state_mailing":"ID","zip_mailing":"83401","latitude":43.493202,"longitude":-112.019154,"enrollment":10250,"teachers_total_fte":548.96,"number_of_schools":22,"agency_type":1,"lowest_grade_offered":-1,"highest_grade_offered":12,"county_name":"Bonneville County","phone":"(208)525-7500"},{"leaid":"1600780","lea_name":"Coeur d'Alene School District 271","fips":16,"city_mailing":"COEUR D'ALENE","state_mailing":"ID","zip_mailing":"83814","latitude":47.697979,"longitude":-116.805501,"enrollment":10107,"teachers_total_fte":588.8,"number_of_schools":20,"agency_type":1,"lowest_grade_offered":-1,"highest_grade_offered":12,"county_name":"Kootenai County","phone":"(208)664-8241"},{"leaid":"1600600","lea_name":"Vallivue School District 139","fips":16,"city_mailing":"CALDWELL","state_mailing":"ID","zip_mailing":"83607","latitude":43.623927,"longitude":-116.682486,"enrollment":9892,"teachers_total_fte":525.42,"number_of_schools":13,"agency_type":1,"lowest_grade_offered":-1,"highest_grade_offered":12,"county_name":"Canyon County","phone":"(208)454-0445"},{"leaid":"1603240","lea_name":"Twin Falls School District 411","fips":16,"city_mailing":"TWIN FALLS","state_mailing":"ID","zip_mailing":"83301","latitude":42.55674,"longitude":-114.471851,"enrollment":9352,"teachers_total_fte":541.44,"number_of_schools":18,"agency_type":1,"lowest_grade_offered":-1,"highest_grade_offered":12,"county_name":"Twin Falls County","phone":"(208)733-6900"},{"leaid":"1602490","lea_name":"Oneida County School District 351","fips":16,"city_mailing":"MALAD","state_mailing":"ID","zip_mailing":"83252","latitude":42.185018,"longitude":-112.243803,"enrollment":7818,"teachers_total_fte":188.42,"number_of_schools":5,"agency_type":1,"lowest_grade_offered":-1,"highest_grade_offered":12,"county_name":"Oneida County","phone":"(208)766-4701"},{"leaid":"1601570","lea_name":"Jefferson County Joint School District 251","fips":16,"city_mailing":"RIGBY","state_mailing":"ID","zip_mailing":"83442","latitude":43.66948,"longitude":-111.934209,"enrollment":6770,"teachers_total_fte":345.24,"number_of_schools":12,"agency_type":1,"lowest_grade_offered":-1,"highest_grade_offered":12,"county_name":"Jefferson County","phone":"(208)745-6693"},{"leaid":"1602670","lea_name":"Post Falls School District 273","fips":16,"city_mailing":"POST FALLS","state_mailing":"ID","zip_mailing":"83877","latitude":47.716375,"longitude":-116.951015,"enrollment":6050,"teachers_total_fte":318.55,"number_of_schools":12,"agency_type":1,"lowest_grade_offered":-1,"highest_grade_offered":12,"county_name":"Kootenai County","phone":"(208)773-1658"},{"leaid":"1601770","lea_name":"Kuna Joint School District 3","fips":16,"city_mailing":"KUNA","state_mailing":"ID","zip_mailing":"83634","latitude":43.497414,"longitude":-116.40468,"enrollment":5825,"teachers_total_fte":326.43,"number_of_schools":11,"agency_type":1,"lowest_grade_offered":-1,"highest_grade_offered":12,"county_name":"Ada County","phone":"(208)922-1000"},{"leaid":"1601920","lea_name":"Madison School District 321","fips":16,"city_mailing":"REXBURG","state_mailing":"ID","zip_mailing":"83440","latitude":43.826554,"longitude":-111.785325,"enrollment":5758,"teachers_total_fte":281.64,"number_of_schools":11,"agency_type":1,"lowest_grade_offered":-1,"highest_grade_offered":12,"county_name":"Madison County","phone":"(208)359-3300"},{"leaid":"1600660","lea_name":"Cassia County Joint School District 151","fips":16,"city_mailing":"BURLEY","state_mailing":"ID","zip_mailing":"83318","latitude":42.5064,"longitude":-113.793782,"enrollment":5561,"teachers_total_fte":321.95,"number_of_schools":17,"agency_type":1,"lowest_grade_offered":-1,"highest_grade_offered":12,"county_name":"Cassia County","phone":"(208)878-6600"},{"leaid":"1600510","lea_name":"Caldwell School District 132","fips":16,"city_mailing":"CALDWELL","state_mailing":"ID","zip_mailing":"83605","latitude":43.65698,"longitude":-116.685082,"enrollment":5499,"teachers_total_fte":336.12,"number_of_schools":11,"agency_type":1,"lowest_grade_offered":-1,"highest_grade_offered":12,"county_name":"Canyon County","phone":"(208)455-3300"},{"leaid":"1601860","lea_name":"Lewiston Independent School District 340","fips":16,"city_mailing":"LEWISTON","state_mailing":"ID","zip_mailing":"83501","latitude":46.382402,"longitude":-116.970178,"enrollment":4765,"teachers_total_fte":309.2,"number_of_schools":13,"agency_type":1,"lowest_grade_offered":-1,"highest_grade_offered":12,"county_name":"Nez Perce County","phone":"(208)748-3000"},{"leaid":"1601800","lea_name":"Lakeland Joint School District 272","fips":16,"city_mailing":"RATHDRUM","state_mailing":"ID","zip_mailing":"83858","latitude":47.81384,"longitude":-116.888061,"enrollment":4693,"teachers_total_fte":278.46,"number_of_schools":12,"agency_type":1,"lowest_grade_offered":-1,"highest_grade_offered":12,"county_name":"Kootenai County","phone":"(208)687-0431"},{"leaid":"1602190","lea_name":"Minidoka County Joint School District 331","fips":16,"city_mailing":"RUPERT","state_mailing":"ID","zip_mailing":"83350","latitude":42.622066,"longitude":-113.671355,"enrollment":4405,"teachers_total_fte":267.74,"number_of_schools":11,"agency_type":1,"lowest_grade_offered":-1,"highest_grade_offered":12,"county_name":"Minidoka County","phone":"(208)436-4727"},{"leaid":"1602130","lea_name":"Middleton School District 134","fips":16,"city_mailing":"MIDDLETON","state_mailing":"ID","zip_mailing":"83644","latitude":43.706151,"longitude":-116.626618,"enrollment":4318,"teachers_total_fte":220.99,"number_of_schools":6,"agency_type":1,"lowest_grade_offered":-1,"highest_grade_offered":12,"county_name":"Canyon County","phone":"(208)585-3027"},{"leaid":"1601590","lea_name":"Jerome Joint School District 261","fips":16,"city_mailing":"JEROME","state_mailing":"ID","zip_mailing":"83338","latitude":42.727382,"longitude":-114.519763,"enrollment":4164,"teachers_total_fte":225.75,"number_of_schools":7,"agency_type":1,"lowest_grade_offered":-1,"highest_grade_offered":12,"county_name":"Jerome County","phone":"(208)324-2392"},{"leaid":"1600270","lea_name":"Blackfoot School District 55","fips":16,"city_mailing":"BLACKFOOT","state_mailing":"ID","zip_mailing":"83221","latitude":43.186093,"longitude":-112.34155,"enrollment":3990,"teachers_total_fte":224.72,"number_of_schools":11,"agency_type":1,"lowest_grade_offered":-1,"highest_grade_offered":12,"county_name":"Bingham County","phone":"(208)785-8800"},{"leaid":"1600002","lea_name":"Lake Pend Oreille School District 84","fips":16,"city_mailing":"PONDERAY","state_mailing":"ID","zip_mailing":"83852","latitude":48.303458,"longitude":-116.538297,"enrollment":3822,"teachers_total_fte":233.41,"number_of_schools":13,"agency_type":1,"lowest_grade_offered":-1,"highest_grade_offered":12,"county_name":"Bonner County","phone":"(208)263-2184"},{"leaid":"1602250","lea_name":"Mountain Home School District 193","fips":16,"city_mailing":"MOUNTAIN HOME","state_mailing":"ID","zip_mailing":"83647","latitude":43.13485,"longitude":-115.694474,"enrollment":3757,"teachers_total_fte":202.61,"number_of_schools":10,"agency_type":1,"lowest_grade_offered":-1,"highest_grade_offered":12,"county_name":"Elmore County","phone":"(208)587-2580"},{"leaid":"1600300","lea_name":"Blaine County School District 61","fips":16,"city_mailing":"HAILEY","state_mailing":"ID","zip_mailing":"83333","latitude":43.518476,"longitude":-114.317306,"enrollment":3312,"teachers_total_fte":276.98,"number_of_schools":8,"agency_type":1,"lowest_grade_offered":-1,"highest_grade_offered":12,"county_name":"Blaine County","phone":"(208)578-5000"},{"leaid":"1602970","lea_name":"Snake River School District 52","fips":16,"city_mailing":"BLACKFOOT","state_mailing":"ID","zip_mailing":"83221","latitude":43.181964,"longitude":-112.474432,"enrollment":2888,"teachers_total_fte":133.2,"number_of_schools":9,"agency_type":1,"lowest_grade_offered":-1,"highest_grade_offered":12,"county_name":"Bingham County","phone":"(208)684-3001"},{"leaid":"1601020","lea_name":"Emmett Independent School District 221","fips":16,"city_mailing":"EMMETT","state_mailing":"ID","zip_mailing":"83617","latitude":43.876362,"longitude":-116.497667,"enrollment":2608,"teachers_total_fte":151.87,"number_of_schools":9,"agency_type":1,"lowest_grade_offered":-1,"highest_grade_offered":12,"county_name":"Gem County","phone":"(208)365-6301"},{"leaid":"1602910","lea_name":"Shelley Joint School District 60","fips":16,"city_mailing":"SHELLEY","state_mailing":"ID","zip_mailing":"83274","latitude":43.373297,"longitude":-112.121874,"enrollment":2509,"teachers_total_fte":130.3,"number_of_schools":7,"agency_type":1,"lowest_grade_offered":-1,"highest_grade_offered":12,"county_name":"Bingham County","phone":"(208)357-3411"},{"leaid":"1600960","lea_name":"Preston Joint School District 201","fips":16,"city_mailing":"PRESTON","state_mailing":"ID","zip_mailing":"83263","latitude":42.09245,"longitude":-111.873568,"enrollment":2468,"teachers_total_fte":124.14,"number_of_schools":5,"agency_type":1,"lowest_grade_offered":-1,"highest_grade_offered":12,"county_name":"Franklin County","phone":"(208)852-0283"},{"leaid":"1602220","lea_name":"Moscow School District 281","fips":16,"city_mailing":"MOSCOW","state_mailing":"ID","zip_mailing":"83843","latitude":46.7401,"longitude":-116.9831,"enrollment":2397,"teachers_total_fte":164.19,"number_of_schools":8,"agency_type":1,"lowest_grade_offered":-1,"highest_grade_offered":12,"county_name":"Latah County","phone":"(208)882-1120"},{"leaid":"1601110","lea_name":"Fremont County Joint School District 215","fips":16,"city_mailing":"ST ANTHONY","state_mailing":"ID","zip_mailing":"83445","latitude":43.96766,"longitude":-111.694961,"enrollment":2222,"teachers_total_fte":130.44,"number_of_schools":8,"agency_type":1,"lowest_grade_offered":-1,"highest_grade_offered":12,"county_name":"Fremont County","phone":"(208)624-7542"},{"leaid":"1601710","lea_name":"Kimberly School District 414","fips":16,"city_mailing":"KIMBERLY","state_mailing":"ID","zip_mailing":"83341","latitude":42.533253,"longitude":-114.366795,"enrollment":2153,"teachers_total_fte":121.33,"number_of_schools":6,"agency_type":1,"lowest_grade_offered":-1,"highest_grade_offered":12,"county_name":"Twin Falls County","phone":"(208)423-4170"},{"leaid":"1603090","lea_name":"Sugar-Salem Joint School District 322","fips":16,"city_mailing":"SUGAR CITY","state_mailing":"ID","zip_mailing":"83448","latitude":43.872555,"longitude":-111.749995,"enrollment":1972,"teachers_total_fte":100.56,"number_of_schools":6,"agency_type":1,"lowest_grade_offered":-1,"highest_grade_offered":12,"county_name":"Madison County","phone":"(208)356-8802"},{"leaid":"1603180","lea_name":"Teton County School District 401","fips":16,"city_mailing":"DRIGGS","state_mailing":"ID","zip_mailing":"83422","latitude":43.73001,"longitude":-111.109931,"enrollment":1878,"teachers_total_fte":112.82,"number_of_schools":7,"agency_type":1,"lowest_grade_offered":-1,"highest_grade_offered":12,"county_name":"Teton County","phone":"(208)354-2207"},{"leaid":"1601140","lea_name":"Fruitland School District 373","fips":16,"city_mailing":"FRUITLAND","state_mailing":"ID","zip_mailing":"83619","latitude":44.00675,"longitude":-116.917433,"enrollment":1634,"teachers_total_fte":87.45,"number_of_schools":4,"agency_type":1,"lowest_grade_offered":-1,"highest_grade_offered":12,"county_name":"Payette County","phone":"(208)452-3595"},{"leaid":"1601050","lea_name":"Filer School District 413","fips":16,"city_mailing":"FILER","state_mailing":"ID","zip_mailing":"83328","latitude":42.566629,"longitude":-114.615206,"enrollment":1598,"teachers_total_fte":94.37,"number_of_schools":5,"agency_type":1,"lowest_grade_offered":-1,"highest_grade_offered":12,"county_name":"Twin Falls County","phone":"(208)326-5981"},{"leaid":"1600060","lea_name":"American Falls Joint School District 381","fips":16,"city_mailing":"AMERICAN FALLS","state_mailing":"ID","zip_mailing":"83211","latitude":42.779698,"longitude":-112.857326,"enrollment":1572,"teachers_total_fte":99.98,"number_of_schools":5,"agency_type":1,"lowest_grade_offered":-1,"highest_grade_offered":12,"county_name":"Power County","phone":"(208)226-5173"},{"leaid":"1603330","lea_name":"Weiser School District 431","fips":16,"city_mailing":"WEISER","state_mailing":"ID","zip_mailing":"83672","latitude":44.252483,"longitude":-116.984063,"enrollment":1559,"teachers_total_fte":87.51,"number_of_schools":5,"agency_type":1,"lowest_grade_offered":-1,"highest_grade_offered":12,"county_name":"Washington County","phone":"(208)414-0616"},{"leaid":"1600420","lea_name":"Boundary County School District 101","fips":16,"city_mailing":"BONNERS FERRY","state_mailing":"ID","zip_mailing":"83805","latitude":48.696199,"longitude":-116.306862,"enrollment":1441,"teachers_total_fte":82.12,"number_of_schools":5,"agency_type":1,"lowest_grade_offered":-1,"highest_grade_offered":12,"county_name":"Boundary County","phone":"(208)267-3146"},{"leaid":"1600240","lea_name":"Bear Lake County School District 33","fips":16,"city_mailing":"PARIS","state_mailing":"ID","zip_mailing":"83261","latitude":42.226415,"longitude":-111.39893,"enrollment":1424,"teachers_total_fte":72.19,"number_of_schools":7,"agency_type":1,"lowest_grade_offered":-1,"highest_grade_offered":12,"county_name":"Bear Lake County","phone":"(208)945-2891"},{"leaid":"1602580","lea_name":"Payette Joint School District 371","fips":16,"city_mailing":"PAYETTE","state_mailing":"ID","zip_mailing":"83661","latitude":44.075534,"longitude":-116.927314,"enrollment":1371,"teachers_total_fte":78.21,"number_of_schools":6,"agency_type":1,"lowest_grade_offered":-1,"highest_grade_offered":12,"county_name":"Payette County","phone":"(208)642-9366"},{"leaid":"1602030","lea_name":"McCall-Donnelly Joint School District 421","fips":16,"city_mailing":"MCCALL","state_mailing":"ID","zip_mailing":"83638","latitude":44.895346,"longitude":-116.094669,"enrollment":1364,"teachers_total_fte":94.44,"number_of_schools":5,"agency_type":1,"lowest_grade_offered":-1,"highest_grade_offered":12,"county_name":"Valley County","phone":"(208)634-2161"},{"leaid":"1600480","lea_name":"Buhl Joint School District 412","fips":16,"city_mailing":"BUHL","state_mailing":"ID","zip_mailing":"83316","latitude":42.599216,"longitude":-114.759765,"enrollment":1264,"teachers_total_fte":76.86,"number_of_schools":4,"agency_type":1,"lowest_grade_offered":-1,"highest_grade_offered":12,"county_name":"Twin Falls County","phone":"(208)543-6436"},{"leaid":"1601470","lea_name":"Homedale Joint School District 370","fips":16,"city_mailing":"HOMEDALE","state_mailing":"ID","zip_mailing":"83628","latitude":43.618533,"longitude":-116.931912,"enrollment":1260,"teachers_total_fte":70.45,"number_of_schools":3,"agency_type":1,"lowest_grade_offered":-1,"highest_grade_offered":12,"county_name":"Owyhee County","phone":"(208)337-4611"},{"leaid":"1601950","lea_name":"Marsh Valley Joint School District 21","fips":16,"city_mailing":"ARIMO","state_mailing":"ID","zip_mailing":"83214","latitude":42.560499,"longitude":-112.172963,"enrollment":1258,"teachers_total_fte":76.24,"number_of_schools":6,"agency_type":1,"lowest_grade_offered":-1,"highest_grade_offered":12,"county_name":"Bannock County","phone":"(208)254-3306"},{"leaid":"1601260","lea_name":"Gooding Joint School District 231","fips":16,"city_mailing":"GOODING","state_mailing":"ID","zip_mailing":"83330","latitude":42.939819,"longitude":-114.726104,"enrollment":1244,"teachers_total_fte":75.73,"number_of_schools":4,"agency_type":1,"lowest_grade_offered":-1,"highest_grade_offered":12,"county_name":"Gooding County","phone":"(208)934-4321"},{"leaid":"1601650","lea_name":"Kellogg Joint School District 391","fips":16,"city_mailing":"KELLOGG","state_mailing":"ID","zip_mailing":"83837","latitude":47.543409,"longitude":-116.135096,"enrollment":1201,"teachers_total_fte":66.35,"number_of_schools":4,"agency_type":1,"lowest_grade_offered":-1,"highest_grade_offered":12,"county_name":"Shoshone County","phone":"(208)784-1348"},{"leaid":"1600001","lea_name":"West Bonner County School District 83","fips":16,"city_mailing":"PRIEST RIVER","state_mailing":"ID","zip_mailing":"83856","latitude":48.178606,"longitude":-116.90774,"enrollment":1146,"teachers_total_fte":74.71,"number_of_schools":5,"agency_type":1,"lowest_grade_offered":-1,"highest_grade_offered":12,"county_name":"Bonner County","phone":"(208)448-4439"},{"leaid":"1602520","lea_name":"Orofino Joint School District 171","fips":16,"city_mailing":"OROFINO","state_mailing":"ID","zip_mailing":"83544","latitude":46.491167,"longitude":-116.266624,"enrollment":1131,"teachers_total_fte":80.05,"number_of_schools":8,"agency_type":1,"lowest_grade_offered":-1,"highest_grade_offered":12,"county_name":"Clearwater County","phone":"(208)476-5593"},{"leaid":"1603360","lea_name":"Wendell School District 232","fips":16,"city_mailing":"WENDELL","state_mailing":"ID","zip_mailing":"83355","latitude":42.775647,"longitude":-114.703027,"enrollment":1121,"teachers_total_fte":69.22,"number_of_schools":3,"agency_type":1,"lowest_grade_offered":-1,"highest_grade_offered":12,"county_name":"Gooding County","phone":"(208)536-2418"},{"leaid":"1600139","lea_name":"Mountain View School District 244","fips":16,"city_mailing":"GRANGEVILLE","state_mailing":"ID","zip_mailing":"83530","latitude":45.918858,"longitude":-116.129526,"enrollment":1109,"teachers_total_fte":75.01,"number_of_schools":5,"agency_type":1,"lowest_grade_offered":-1,"highest_grade_offered":12,"county_name":"Idaho County","phone":"(208)983-0990"},{"leaid":"1602550","lea_name":"Parma School District 137","fips":16,"city_mailing":"PARMA","state_mailing":"ID","zip_mailing":"83660","latitude":43.788994,"longitude":-116.936208,"enrollment":1038,"teachers_total_fte":64.25,"number_of_schools":3,"agency_type":1,"lowest_grade_offered":-1,"highest_grade_offered":12,"county_name":"Canyon County","phone":"(208)722-4069"},{"leaid":"1602370","lea_name":"New Plymouth School District 372","fips":16,"city_mailing":"NEW PLYMOUTH","state_mailing":"ID","zip_mailing":"83655","latitude":43.969971,"longitude":-116.818715,"enrollment":990,"teachers_total_fte":54.05,"number_of_schools":3,"agency_type":1,"lowest_grade_offered":-1,"highest_grade_offered":12,"county_name":"Payette County","phone":"(208)278-5740"},{"leaid":"1603060","lea_name":"St. Maries Joint School District 41","fips":16,"city_mailing":"ST MARIES","state_mailing":"ID","zip_mailing":"83861","latitude":47.314601,"longitude":-116.570734,"enrollment":953,"teachers_total_fte":63.44,"number_of_schools":5,"agency_type":1,"lowest_grade_offered":-1,"highest_grade_offered":12,"county_name":"Benewah County","phone":"(208)582-2579"},{"leaid":"1603000","lea_name":"Soda Springs Joint School District 150","fips":16,"city_mailing":"SODA SPRINGS","state_mailing":"ID","zip_mailing":"83276","latitude":42.653287,"longitude":-111.596771,"enrollment":922,"teachers_total_fte":54.01,"number_of_schools":4,"agency_type":1,"lowest_grade_offered":-1,"highest_grade_offered":12,"county_name":"Caribou County","phone":"(208)547-3371"},{"leaid":"1601980","lea_name":"Marsing Joint School District 363","fips":16,"city_mailing":"MARSING","state_mailing":"ID","zip_mailing":"83639","latitude":43.543518,"longitude":-116.812912,"enrollment":854,"teachers_total_fte":50.78,"number_of_schools":3,"agency_type":1,"lowest_grade_offered":-1,"highest_grade_offered":12,"county_name":"Owyhee County","phone":"(208)896-4111"},{"leaid":"1603420","lea_name":"West Side Joint School District 202","fips":16,"city_mailing":"DAYTON","state_mailing":"ID","zip_mailing":"83232","latitude":42.110543,"longitude":-111.992249,"enrollment":849,"teachers_total_fte":47.53,"number_of_schools":3,"agency_type":1,"lowest_grade_offered":-1,"highest_grade_offered":12,"county_name":"Franklin County","phone":"(208)747-3502"},{"leaid":"1601080","lea_name":"Firth School District 59","fips":16,"city_mailing":"FIRTH","state_mailing":"ID","zip_mailing":"83236","latitude":43.307711,"longitude":-112.187159,"enrollment":845,"teachers_total_fte":47.99,"number_of_schools":3,"agency_type":1,"lowest_grade_offered":-1,"highest_grade_offered":12,"county_name":"Bingham County","phone":"(208)346-6815"},{"leaid":"1602070","lea_name":"Melba Joint School District 136","fips":16,"city_mailing":"MELBA","state_mailing":"ID","zip_mailing":"83641","latitude":43.376687,"longitude":-116.531806,"enrollment":824,"teachers_total_fte":50.44,"number_of_schools":2,"agency_type":1,"lowest_grade_offered":-1,"highest_grade_offered":12,"county_name":"Canyon County","phone":"(208)495-1141"},{"leaid":"1602790","lea_name":"Ririe Joint School District 252","fips":16,"city_mailing":"RIRIE","state_mailing":"ID","zip_mailing":"83443","latitude":43.629322,"longitude":-111.774484,"enrollment":733,"teachers_total_fte":43.09,"number_of_schools":2,"agency_type":1,"lowest_grade_offered":-1,"highest_grade_offered":12,"county_name":"Jefferson County","phone":"(208)538-7482"},{"leaid":"1602850","lea_name":"Salmon School District 291","fips":16,"city_mailing":"SALMON","state_mailing":"ID","zip_mailing":"83467","latitude":45.167718,"longitude":-113.886153,"enrollment":683,"teachers_total_fte":47.0,"number_of_schools":4,"agency_type":1,"lowest_grade_offered":-1,"highest_grade_offered":12,"county_name":"Lemhi County","phone":"(208)756-4271"},{"leaid":"1600030","lea_name":"Aberdeen School District 58","fips":16,"city_mailing":"ABERDEEN","state_mailing":"ID","zip_mailing":"83210","latitude":42.943667,"longitude":-112.844022,"enrollment":673,"teachers_total_fte":49.17,"number_of_schools":3,"agency_type":1,"lowest_grade_offered":-1,"highest_grade_offered":12,"county_name":"Bingham County","phone":"(208)397-4113"},{"leaid":"1603480","lea_name":"Wilder School District 133","fips":16,"city_mailing":"WILDER","state_mailing":"ID","zip_mailing":"83676","latitude":43.677529,"longitude":-116.905148,"enrollment":659,"teachers_total_fte":41.98,"number_of_schools":4,"agency_type":1,"lowest_grade_offered":-1,"highest_grade_offered":12,"county_name":"Canyon County","phone":"(208)482-6228"},{"leaid":"1603400","lea_name":"West Jefferson School District 253","fips":16,"city_mailing":"TERRETON","state_mailing":"ID","zip_mailing":"83450","latitude":43.872555,"longitude":-111.749995,"enrollment":606,"teachers_total_fte":39.62,"number_of_schools":4,"agency_type":1,"lowest_grade_offered":-1,"highest_grade_offered":12,"county_name":"Madison County","phone":"(208)663-4542"},{"leaid":"1601290","lea_name":"Grace Joint School District 148","fips":16,"city_mailing":"GRACE","state_mailing":"ID","zip_mailing":"83241","latitude":42.571034,"longitude":-111.733757,"enrollment":534,"teachers_total_fte":36.07,"number_of_schools":2,"agency_type":1,"lowest_grade_offered":-1,"highest_grade_offered":12,"county_name":"Caribou County","phone":"(208)425-3984"},{"leaid":"1603270","lea_name":"Valley School District 262","fips":16,"city_mailing":"HAZELTON","state_mailing":"ID","zip_mailing":"83335","latitude":42.593959,"longitude":-114.170156,"enrollment":531,"teachers_total_fte":42.39,"number_of_schools":2,"agency_type":1,"lowest_grade_offered":-1,"highest_grade_offered":12,"county_name":"Jerome County","phone":"(208)829-5333"},{"leaid":"1602940","lea_name":"Shoshone Joint School District 312","fips":16,"city_mailing":"SHOSHONE","state_mailing":"ID","zip_mailing":"83352","latitude":42.928602,"longitude":-114.402201,"enrollment":525,"teachers_total_fte":36.33,"number_of_schools":4,"agency_type":1,"lowest_grade_offered":-1,"highest_grade_offered":12,"county_name":"Lincoln County","phone":"(208)886-2338"},{"leaid":"1601830","lea_name":"Lapwai School District 341","fips":16,"city_mailing":"LAPWAI","state_mailing":"ID","zip_mailing":"83540","latitude":46.401717,"longitude":-116.80658,"enrollment":519,"teachers_total_fte":37.96,"number_of_schools":2,"agency_type":1,"lowest_grade_offered":-1,"highest_grade_offered":12,"county_name":"Nez Perce County","phone":"(208)843-2622"},{"leaid":"1603300","lea_name":"Wallace School District 393","fips":16,"city_mailing":"SILVERTON","state_mailing":"ID","zip_mailing":"83867","latitude":47.496059,"longitude":-115.957163,"enrollment":512,"teachers_total_fte":41.36,"number_of_schools":2,"agency_type":1,"lowest_grade_offered":-1,"highest_grade_offered":12,"county_name":"Shoshone County","phone":"(208)753-4515"},{"leaid":"1602700","lea_name":"Potlatch School District 285","fips":16,"city_mailing":"POTLATCH","state_mailing":"ID","zip_mailing":"83855","latitude":46.922057,"longitude":-116.900294,"enrollment":480,"teachers_total_fte":35.78,"number_of_schools":2,"agency_type":1,"lowest_grade_offered":-1,"highest_grade_offered":12,"county_name":"Latah County","phone":"(208)875-0327"},{"leaid":"1600810","lea_name":"Cottonwood Joint School District 242","fips":16,"city_mailing":"COTTONWOOD","state_mailing":"ID","zip_mailing":"83522","latitude":46.060872,"longitude":-116.346944,"enrollment":441,"teachers_total_fte":30.69,"number_of_schools":2,"agency_type":1,"lowest_grade_offered":-1,"highest_grade_offered":12,"county_name":"Idaho County","phone":"(208)962-3971"},{"leaid":"1600490","lea_name":"Butte County Joint School District 111","fips":16,"city_mailing":"ARCO","state_mailing":"ID","zip_mailing":"83213","latitude":43.632884,"longitude":-113.301226,"enrollment":414,"teachers_total_fte":32.17,"number_of_schools":3,"agency_type":1,"lowest_grade_offered":-1,"highest_grade_offered":12,"county_name":"Butte County","phone":"(208)527-8235"},{"leaid":"1602310","lea_name":"Murtaugh Joint School District 418","fips":16,"city_mailing":"MURTAUGH","state_mailing":"ID","zip_mailing":"83344","latitude":42.492541,"longitude":-114.166781,"enrollment":399,"teachers_total_fte":24.33,"number_of_schools":1,"agency_type":1,"lowest_grade_offered":-1,"highest_grade_offered":12,"county_name":"Twin Falls County","phone":"(208)432-5451"},{"leaid":"1601620","lea_name":"Kamiah Joint School District 304","fips":16,"city_mailing":"KAMIAH","state_mailing":"ID","zip_mailing":"83536","latitude":46.221381,"longitude":-116.029694,"enrollment":393,"teachers_total_fte":33.06,"number_of_schools":3,"agency_type":1,"lowest_grade_offered":-1,"highest_grade_offered":12,"county_name":"Lewis County","phone":"(208)935-2991"},{"leaid":"1601380","lea_name":"Hagerman Joint School District 233","fips":16,"city_mailing":"HAGERMAN","state_mailing":"ID","zip_mailing":"83332","latitude":42.818896,"longitude":-114.900743,"enrollment":379,"teachers_total_fte":26.38,"number_of_schools":2,"agency_type":1,"lowest_grade_offered":-1,"highest_grade_offered":12,"county_name":"Gooding County","phone":"(208)837-4777"},{"leaid":"1601230","lea_name":"Glenns Ferry Joint School District 192","fips":16,"city_mailing":"GLENNS FERRY","state_mailing":"ID","zip_mailing":"83623","latitude":42.956049,"longitude":-115.310387,"enrollment":379,"teachers_total_fte":33.43,"number_of_schools":3,"agency_type":1,"lowest_grade_offered":-1,"highest_grade_offered":12,"county_name":"Elmore County","phone":"(208)366-7436"},{"leaid":"1600840","lea_name":"Council School District 13","fips":16,"city_mailing":"COUNCIL","state_mailing":"ID","zip_mailing":"83612","latitude":44.727619,"longitude":-116.439677,"enrollment":373,"teachers_total_fte":22.13,"number_of_schools":2,"agency_type":1,"lowest_grade_offered":-1,"highest_grade_offered":12,"county_name":"Adams County","phone":"(208)253-4217"},{"leaid":"1600815","lea_name":"Plummer-Worley Joint School District 44","fips":16,"city_mailing":"PLUMMER","state_mailing":"ID","zip_mailing":"83851","latitude":47.332766,"longitude":-116.892161,"enrollment":357,"teachers_total_fte":36.44,"number_of_schools":3,"agency_type":1,"lowest_grade_offered":-1,"highest_grade_offered":12,"county_name":"Benewah County","phone":"(208)686-1621"},{"leaid":"1602460","lea_name":"Notus School District 135","fips":16,"city_mailing":"CALDWELL","state_mailing":"ID","zip_mailing":"83607","latitude":43.735721,"longitude":-116.798364,"enrollment":347,"teachers_total_fte":23.63,"number_of_schools":2,"agency_type":1,"lowest_grade_offered":-1,"highest_grade_offered":12,"county_name":"Canyon County","phone":"(208)459-7442"},{"leaid":"1600180","lea_name":"Basin School District 72","fips":16,"city_mailing":"IDAHO CITY","state_mailing":"ID","zip_mailing":"83631","latitude":43.831859,"longitude":-115.833654,"enrollment":336,"teachers_total_fte":27.43,"number_of_schools":2,"agency_type":1,"lowest_grade_offered":-1,"highest_grade_offered":12,"county_name":"Boise County","phone":"(208)392-4183"},{"leaid":"1601410","lea_name":"Hansen School District 415","fips":16,"city_mailing":"HANSEN","state_mailing":"ID","zip_mailing":"83334","latitude":42.528301,"longitude":-114.301916,"enrollment":335,"teachers_total_fte":25.48,"number_of_schools":2,"agency_type":1,"lowest_grade_offered":-1,"highest_grade_offered":12,"county_name":"Twin Falls County","phone":"(208)423-6387"},{"leaid":"1600720","lea_name":"Challis Joint School District 181","fips":16,"city_mailing":"CHALLIS","state_mailing":"ID","zip_mailing":"83226","latitude":44.504823,"longitude":-114.231829,"enrollment":328,"teachers_total_fte":30.0,"number_of_schools":3,"agency_type":1,"lowest_grade_offered":-1,"highest_grade_offered":12,"county_name":"Custer County","phone":"(208)879-4231"},{"leaid":"1600009","lea_name":"Troy School District 287","fips":16,"city_mailing":"TROY","state_mailing":"ID","zip_mailing":"83871","latitude":46.734651,"longitude":-116.767615,"enrollment":323,"teachers_total_fte":22.46,"number_of_schools":2,"agency_type":1,"lowest_grade_offered":-1,"highest_grade_offered":12,"county_name":"Latah County","phone":"(208)835-3791"},{"leaid":"1600690","lea_name":"Castleford School District 417","fips":16,"city_mailing":"CASTLEFORD","state_mailing":"ID","zip_mailing":"83321","latitude":42.521564,"longitude":-114.875277,"enrollment":306,"teachers_total_fte":21.9,"number_of_schools":1,"agency_type":1,"lowest_grade_offered":-1,"highest_grade_offered":12,"county_name":"Twin Falls County","phone":"(208)537-6511"},{"leaid":"1601200","lea_name":"Genesee Joint School District 282","fips":16,"city_mailing":"GENESEE","state_mailing":"ID","zip_mailing":"83832","latitude":46.551966,"longitude":-116.929725,"enrollment":306,"teachers_total_fte":24.36,"number_of_schools":1,"agency_type":1,"lowest_grade_offered":-1,"highest_grade_offered":12,"county_name":"Latah County","phone":"(208)285-1161"},{"leaid":"1600450","lea_name":"Bruneau-Grand View Joint School District 365","fips":16,"city_mailing":"BRUNEAU","state_mailing":"ID","zip_mailing":"83604","latitude":42.933493,"longitude":-115.989412,"enrollment":302,"teachers_total_fte":23.36,"number_of_schools":3,"agency_type":1,"lowest_grade_offered":-1,"highest_grade_offered":12,"county_name":"Owyhee County","phone":"(208)834-2260"},{"leaid":"1601680","lea_name":"Kendrick Joint School District 283","fips":16,"city_mailing":"KENDRICK","state_mailing":"ID","zip_mailing":"83537","latitude":46.619312,"longitude":-116.644797,"enrollment":289,"teachers_total_fte":19.15,"number_of_schools":2,"agency_type":1,"lowest_grade_offered":-1,"highest_grade_offered":12,"county_name":"Latah County","phone":"(208)289-4211"},{"leaid":"1601170","lea_name":"Garden Valley School District 71","fips":16,"city_mailing":"GARDEN VALLEY","state_mailing":"ID","zip_mailing":"83622","latitude":44.091135,"longitude":-115.957329,"enrollment":276,"teachers_total_fte":21.67,"number_of_schools":2,"agency_type":1,"lowest_grade_offered":-1,"highest_grade_offered":12,"county_name":"Boise County","phone":"(208)462-3756"},{"leaid":"1601900","lea_name":"Mackay Joint School District 182","fips":16,"city_mailing":"MACKAY","state_mailing":"ID","zip_mailing":"83251","latitude":43.908039,"longitude":-113.608074,"enrollment":231,"teachers_total_fte":18.89,"number_of_schools":2,"agency_type":1,"lowest_grade_offered":-1,"highest_grade_offered":12,"county_name":"Custer County","phone":"(208)588-2896"},{"leaid":"1601500","lea_name":"Horseshoe Bend School District 73","fips":16,"city_mailing":"HORSESHOE BEND","state_mailing":"ID","zip_mailing":"83629","latitude":43.908751,"longitude":-116.201759,"enrollment":225,"teachers_total_fte":18.27,"number_of_schools":2,"agency_type":1,"lowest_grade_offered":-1,"highest_grade_offered":12,"county_name":"Boise County","phone":"(208)793-2225"},{"leaid":"1601740","lea_name":"Kootenai Joint School District 274","fips":16,"city_mailing":"HARRISON","state_mailing":"ID","zip_mailing":"83833","latitude":47.399425,"longitude":-116.670258,"enrollment":210,"teachers_total_fte":16.0,"number_of_schools":2,"agency_type":1,"lowest_grade_offered":-1,"highest_grade_offered":12,"county_name":"Kootenai County","phone":"(208)689-3631"},{"leaid":"1600010","lea_name":"Whitepine Joint School District 288","fips":16,"city_mailing":"DEARY","state_mailing":"ID","zip_mailing":"83823","latitude":46.797482,"longitude":-116.559028,"enrollment":207,"teachers_total_fte":19.5,"number_of_schools":2,"agency_type":1,"lowest_grade_offered":-1,"highest_grade_offered":12,"county_name":"Latah County","phone":"(208)877-1408"},{"leaid":"1600630","lea_name":"Cascade School District 422","fips":16,"city_mailing":"CASCADE","state_mailing":"ID","zip_mailing":"83611","latitude":44.515763,"longitude":-116.045756,"enrollment":206,"teachers_total_fte":18.1,"number_of_schools":2,"agency_type":1,"lowest_grade_offered":-1,"highest_grade_offered":12,"county_name":"Valley County","phone":"(208)630-6057"},{"leaid":"1602760","lea_name":"Richfield School District 316","fips":16,"city_mailing":"RICHFIELD","state_mailing":"ID","zip_mailing":"83349","latitude":43.052963,"longitude":-114.157159,"enrollment":196,"teachers_total_fte":14.99,"number_of_schools":1,"agency_type":1,"lowest_grade_offered":-1,"highest_grade_offered":12,"county_name":"Lincoln County","phone":"(208)487-2790"},{"leaid":"1600900","lea_name":"Dietrich School District 314","fips":16,"city_mailing":"DIETRICH","state_mailing":"ID","zip_mailing":"83324","latitude":42.913017,"longitude":-114.262937,"enrollment":195,"teachers_total_fte":15.83,"number_of_schools":1,"agency_type":1,"lowest_grade_offered":-1,"highest_grade_offered":12,"county_name":"Lincoln County","phone":"(208)544-2158"},{"leaid":"1600540","lea_name":"Camas County School District 121","fips":16,"city_mailing":"FAIRFIELD","state_mailing":"ID","zip_mailing":"83327","latitude":43.347126,"longitude":-114.791235,"enrollment":184,"teachers_total_fte":16.5,"number_of_schools":2,"agency_type":1,"lowest_grade_offered":-1,"highest_grade_offered":12,"county_name":"Camas County","phone":"(208)764-2625"},{"leaid":"1602400","lea_name":"Nezperce Joint School District 302","fips":16,"city_mailing":"NEZPERCE","state_mailing":"ID","zip_mailing":"83543","latitude":46.238069,"longitude":-116.240477,"enrollment":180,"teachers_total_fte":17.35,"number_of_schools":1,"agency_type":1,"lowest_grade_offered":-1,"highest_grade_offered":12,"county_name":"Lewis County","phone":"(208)937-2551"},{"leaid":"1602820","lea_name":"Rockland School District 382","fips":16,"city_mailing":"ROCKLAND","state_mailing":"ID","zip_mailing":"83271","latitude":42.574706,"longitude":-112.872479,"enrollment":176,"teachers_total_fte":17.5,"number_of_schools":1,"agency_type":1,"lowest_grade_offered":-1,"highest_grade_offered":12,"county_name":"Power County","phone":"(208)548-2221"},{"leaid":"1601440","lea_name":"Highland Joint School District 305","fips":16,"city_mailing":"CRAIGMONT","state_mailing":"ID","zip_mailing":"83523","latitude":46.244102,"longitude":-116.471933,"enrollment":169,"teachers_total_fte":16.8,"number_of_schools":1,"agency_type":1,"lowest_grade_offered":-1,"highest_grade_offered":12,"county_name":"Lewis County","phone":"(208)924-5211"},{"leaid":"1600570","lea_name":"Cambridge Joint School District 432","fips":16,"city_mailing":"CAMBRIDGE","state_mailing":"ID","zip_mailing":"83610","latitude":44.574751,"longitude":-116.680053,"enrollment":152,"teachers_total_fte":16.65,"number_of_schools":2,"agency_type":1,"lowest_grade_offered":-1,"highest_grade_offered":12,"county_name":"Washington County","phone":"(208)257-3321"},{"leaid":"1602160","lea_name":"Midvale School District 433","fips":16,"city_mailing":"MIDVALE","state_mailing":"ID","zip_mailing":"83645","latitude":44.471086,"longitude":-116.72914,"enrollment":149,"teachers_total_fte":15.2,"number_of_schools":2,"agency_type":1,"lowest_grade_offered":-1,"highest_grade_offered":12,"county_name":"Washington County","phone":"(208)355-2678"},{"leaid":"1602060","lea_name":"Meadows Valley School District 11","fips":16,"city_mailing":"NEW MEADOWS","state_mailing":"ID","zip_mailing":"83654","latitude":44.975299,"longitude":-116.287051,"enrollment":142,"teachers_total_fte":14.94,"number_of_schools":1,"agency_type":1,"lowest_grade_offered":-1,"highest_grade_offered":12,"county_name":"Adams County","phone":"(208)347-2411"},{"leaid":"1600138","lea_name":"Salmon River School District 243","fips":16,"city_mailing":"RIGGINS","state_mailing":"ID","zip_mailing":"83549","latitude":45.418587,"longitude":-116.319529,"enrollment":140,"teachers_total_fte":18.36,"number_of_schools":2,"agency_type":1,"lowest_grade_offered":-1,"highest_grade_offered":12,"county_name":"Idaho County","phone":"(208)630-6055"},{"leaid":"1602430","lea_name":"North Gem School District 149","fips":16,"city_mailing":"BANCROFT","state_mailing":"ID","zip_mailing":"83217","latitude":42.717536,"longitude":-111.888049,"enrollment":138,"teachers_total_fte":15.2,"number_of_schools":3,"agency_type":1,"lowest_grade_offered":-1,"highest_grade_offered":12,"county_name":"Caribou County","phone":"(208)648-7848"},{"leaid":"1600330","lea_name":"Bliss Joint School District 234","fips":16,"city_mailing":"BLISS","state_mailing":"ID","zip_mailing":"83314","latitude":42.923226,"longitude":-114.94247,"enrollment":125,"teachers_total_fte":13.5,"number_of_schools":1,"agency_type":1,"lowest_grade_offered":-1,"highest_grade_offered":12,"county_name":"Gooding County","phone":"(208)352-4447"},{"leaid":"1603030","lea_name":"South Lemhi School District 292","fips":16,"city_mailing":"LEADORE","state_mailing":"ID","zip_mailing":"83464","latitude":44.677803,"longitude":-113.360883,"enrollment":120,"teachers_total_fte":13.77,"number_of_schools":2,"agency_type":1,"lowest_grade_offered":-1,"highest_grade_offered":12,"county_name":"Lemhi County","phone":"(208)768-2441"},{"leaid":"1600750","lea_name":"Clark County School District 161","fips":16,"city_mailing":"DUBOIS","state_mailing":"ID","zip_mailing":"83423","latitude":44.172949,"longitude":-112.230523,"enrollment":117,"teachers_total_fte":15.7,"number_of_schools":2,"agency_type":1,"lowest_grade_offered":-1,"highest_grade_offered":12,"county_name":"Clark County","phone":"(208)374-5215"},{"leaid":"1600870","lea_name":"Culdesac Joint School District 342","fips":16,"city_mailing":"CULDESAC","state_mailing":"ID","zip_mailing":"83524","latitude":46.375279,"longitude":-116.671432,"enrollment":115,"teachers_total_fte":11.65,"number_of_schools":1,"agency_type":1,"lowest_grade_offered":-1,"highest_grade_offered":12,"county_name":"Nez Perce County","phone":"(208)843-5413"},{"leaid":"1602280","lea_name":"Mullan School District 392","fips":16,"city_mailing":"MULLAN","state_mailing":"ID","zip_mailing":"83846","latitude":47.469222,"longitude":-115.797922,"enrollment":85,"teachers_total_fte":13.75,"number_of_schools":1,"agency_type":1,"lowest_grade_offered":0,"highest_grade_offered":12,"county_name":"Shoshone County","phone":"(208)744-1118"},{"leaid":"1603120","lea_name":"Swan Valley Elementary School District 92","fips":16,"city_mailing":"IRWIN","state_mailing":"ID","zip_mailing":"83428","latitude":43.405797,"longitude":-111.2932,"enrollment":67,"teachers_total_fte":5.0,"number_of_schools":1,"agency_type":1,"lowest_grade_offered":-1,"highest_grade_offered":8,"county_name":"Bonneville County","phone":"(208)483-2405"},{"leaid":"1600090","lea_name":"Arbon Elementary School District 383","fips":16,"city_mailing":"ARBON","state_mailing":"ID","zip_mailing":"83212","latitude":42.560553,"longitude":-112.554035,"enrollment":27,"teachers_total_fte":1.75,"number_of_schools":1,"agency_type":1,"lowest_grade_offered":-1,"highest_grade_offered":6,"county_name":"Power County","phone":"(208)335-2197"},{"leaid":"1600150","lea_name":"Avery School District 394","fips":16,"city_mailing":"CALDER","state_mailing":"ID","zip_mailing":"83808","latitude":47.276381,"longitude":-116.18679,"enrollment":24,"teachers_total_fte":2.0,"number_of_schools":1,"agency_type":1,"lowest_grade_offered":0,"highest_grade_offered":8,"county_name":"Shoshone County","phone":"(208)245-2479"},{"leaid":"1602610","lea_name":"Pleasant Valley Elementary School District 364","fips":16,"city_mailing":"JORDAN VALLEY","state_mailing":"ID","zip_mailing":"97910","latitude":42.898699,"longitude":-117.004099,"enrollment":11,"teachers_total_fte":1.0,"number_of_schools":1,"agency_type":1,"lowest_grade_offered":-1,"highest_grade_offered":8,"county_name":"Owyhee County","phone":"(208)583-2420"},{"leaid":"1602730","lea_name":"Prairie Elementary School District 191","fips":16,"city_mailing":"PRAIRIE","state_mailing":"ID","zip_mailing":"83647","latitude":43.503255,"longitude":-115.574056,"enrollment":5,"teachers_total_fte":0.97,"number_of_schools":1,"agency_type":1,"lowest_grade_offered":0,"highest_grade_offered":8,"county_name":"Elmore County","phone":"(208)868-3243"},{"leaid":"1603210","lea_name":"Three Creek Joint Elementary School District 416","fips":16,"city_mailing":"ROGERSON","state_mailing":"ID","zip_mailing":"83302","latitude":42.073356,"longitude":-115.192685,"enrollment":4,"teachers_total_fte":0.91,"number_of_schools":1,"agency_type":1,"lowest_grade_offered":-1,"highest_grade_offered":8,"county_name":"Owyhee County","phone":"(208)857-2281"}]