[{"leaid":"0200180","lea_name":"Anchorage School District","fips":2,"city_mailing":"Anchorage","state_mailing":"AK","zip_mailing":"99504","latitude":61.193958,"longitude":-149.775759,"enrollment":43727,"teachers_total_fte":2424.26,"number_of_schools":96,"agency_type":1,"lowest_grade_offered":-1,"highest_grade_offered":12,"county_name":"Anchorage Municipality","phone":"(907)742-4000"},{"leaid":"0200510","lea_name":"Matanuska-Susitna Borough School District","fips":2,"city_mailing":"Palmer","state_mailing":"AK","zip_mailing":"99645","latitude":61.611321,"longitude":-149.097358,"enrollment":19705,"teachers_total_fte":998.15,"number_of_schools":49,"agency_type":1,"lowest_grade_offered":-1,"highest_grade_offered":12,"county_name":"Matanuska-Susitna Borough","phone":"(907)746-9200"},{"leaid":"0200600","lea_name":"Fairbanks North Star Borough School District","fips":2,"city_mailing":"Fairbanks","state_mailing":"AK","zip_mailing":"99701","latitude":64.842168,"longitude":-147.718047,"enrollment":12703,"teachers_total_fte":647.13,"number_of_schools":33,"agency_type":1,"lowest_grade_offered":-1,"highest_grade_offered":12,"county_name":"Fairbanks North Star Borough","phone":"(907)452-2000"},{"leaid":"0200390","lea_name":"Kenai Peninsula Borough School District","fips":2,"city_mailing":"Soldotna","state_mailing":"AK","zip_mailing":"99669","latitude":60.48968,"longitude":-151.071451,"enrollment":8528,"teachers_total_fte":540.86,"number_of_schools":42,"agency_type":1,"lowest_grade_offered":-1,"highest_grade_offered":12,"county_name":"Kenai Peninsula Borough","phone":"(907)714-8888"},{"leaid":"0200130","lea_name":"Galena City School District","fips":2,"city_mailing":"Galena","state_mailing":"AK","zip_mailing":"99741","latitude":64.746135,"longitude":-156.878509,"enrollment":7177,"teachers_total_fte":78.81,"number_of_schools":4,"agency_type":1,"lowest_grade_offered":-1,"highest_grade_offered":12,"county_name":"Yukon-Koyukuk Census Area","phone":"(907)656-1883"},{"leaid":"0200210","lea_name":"Juneau Borough School District","fips":2,"city_mailing":"Juneau","state_mailing":"AK","zip_mailing":"99801","latitude":58.302965,"longitude":-134.424249,"enrollment":4338,"teachers_total_fte":271.07,"number_of_schools":15,"agency_type":1,"lowest_grade_offered":-1,"highest_grade_offered":12,"county_name":"Juneau City and Borough","phone":"(907)523-1702"},{"leaid":"0200001","lea_name":"Lower Kuskokwim School District","fips":2,"city_mailing":"Bethel","state_mailing":"AK","zip_mailing":"99559","latitude":60.802916,"longitude":-161.77297,"enrollment":3970,"teachers_total_fte":248.65,"number_of_schools":29,"agency_type":1,"lowest_grade_offered":-1,"highest_grade_offered":12,"county_name":"Bethel Census Area","phone":"(907)543-4912"},{"leaid":"0200862","lea_name":"Yukon-Koyukuk School District","fips":2,"city_mailing":"Fairbanks","state_mailing":"AK","zip_mailing":"99709","latitude":64.83593,"longitude":-147.826946,"enrollment":3100,"teachers_total_fte":67.15,"number_of_schools":10,"agency_type":1,"lowest_grade_offered":-1,"highest_grade_offered":12,"county_name":"Fairbanks North Star Borough","phone":"(907)374-9416"},{"leaid":"0200480","lea_name":"Kodiak Island Borough School District","fips":2,"city_mailing":"Kodiak","state_mailing":"AK","zip_mailing":"99615","latitude":57.794069,"longitude":-152.395226,"enrollment":2228,"teachers_total_fte":155.4,"number_of_schools":12,"agency_type":1,"lowest_grade_offered":-1,"highest_grade_offered":12,"county_name":"Kodiak Island Borough","phone":"(907)486-7550"},{"leaid":"0200150","lea_name":"Ketchikan Gateway Borough School District","fips":2,"city_mailing":"Ketchikan","state_mailing":"AK","zip_mailing":"99901","latitude":55.353558,"longitude":-131.677936,"enrollment":2074,"teachers_total_fte":175.0,"number_of_schools":9,"agency_type":1,"lowest_grade_offered":-1,"highest_grade_offered":12,"county_name":"Ketchikan Gateway Borough","phone":"(907)247-2109"},{"leaid":"0200610","lea_name":"North Slope Borough School District","fips":2,"city_mailing":"Utqiagvik","state_mailing":"AK","zip_mailing":"99723","latitude":71.291244,"longitude":-156.788489,"enrollment":2044,"teachers_total_fte":131.6,"number_of_schools":11,"agency_type":1,"lowest_grade_offered":-1,"highest_grade_offered":12,"county_name":"North Slope Borough","phone":"(907)852-5311"},{"leaid":"0200003","lea_name":"Lower Yukon School District","fips":2,"city_mailing":"Mountain Village","state_mailing":"AK","zip_mailing":"99632","latitude":62.092018,"longitude":-163.724886,"enrollment":2035,"teachers_total_fte":130.22,"number_of_schools":11,"agency_type":1,"lowest_grade_offered":-1,"highest_grade_offered":12,"county_name":"Kusilvak Census Area","phone":"(907)591-2411"},{"leaid":"0200625","lea_name":"Northwest Arctic Borough School District","fips":2,"city_mailing":"Kotzebue","state_mailing":"AK","zip_mailing":"99752","latitude":66.901524,"longitude":-162.586946,"enrollment":1911,"teachers_total_fte":102.25,"number_of_schools":13,"agency_type":1,"lowest_grade_offered":-1,"highest_grade_offered":12,"county_name":"Northwest Arctic Borough","phone":"(907)442-1802"},{"leaid":"0200540","lea_name":"Nenana City School District","fips":2,"city_mailing":"Nenana","state_mailing":"AK","zip_mailing":"99760","latitude":64.561776,"longitude":-149.088866,"enrollment":1858,"teachers_total_fte":23.99,"number_of_schools":2,"agency_type":1,"lowest_grade_offered":-1,"highest_grade_offered":12,"county_name":"Yukon-Koyukuk Census Area","phone":"(907)832-5464"},{"leaid":"0200020","lea_name":"Bering Strait School District","fips":2,"city_mailing":"Unalakleet","state_mailing":"AK","zip_mailing":"99684","latitude":63.876727,"longitude":-160.793772,"enrollment":1830,"teachers_total_fte":172.0,"number_of_schools":15,"agency_type":1,"lowest_grade_offered":-1,"highest_grade_offered":12,"county_name":"Nome Census Area","phone":"(907)624-4261"},{"leaid":"0200240","lea_name":"Sitka School District","fips":2,"city_mailing":"Sitka","state_mailing":"AK","zip_mailing":"99835","latitude":57.065302,"longitude":-135.351601,"enrollment":1120,"teachers_total_fte":94.3,"number_of_schools":6,"agency_type":1,"lowest_grade_offered":-1,"highest_grade_offered":12,"county_name":"Sitka City and Borough","phone":"(907)747-8622"},{"leaid":"0200100","lea_name":"Delta/Greely School District","fips":2,"city_mailing":"Delta Junction","state_mailing":"AK","zip_mailing":"99737","latitude":64.043075,"longitude":-145.711185,"enrollment":938,"teachers_total_fte":47.61,"number_of_schools":5,"agency_type":1,"lowest_grade_offered":-1,"highest_grade_offered":12,"county_name":"Southeast Fairbanks Census Area","phone":"(907)895-4657"},{"leaid":"0200770","lea_name":"Denali Borough School District","fips":2,"city_mailing":"Healy","state_mailing":"AK","zip_mailing":"99743","latitude":63.872903,"longitude":-149.015539,"enrollment":912,"teachers_total_fte":26.83,"number_of_schools":4,"agency_type":1,"lowest_grade_offered":-1,"highest_grade_offered":12,"county_name":"Denali Borough","phone":"(907)683-2278"},{"leaid":"0200570","lea_name":"Nome School District","fips":2,"city_mailing":"Nome","state_mailing":"AK","zip_mailing":"99762","latitude":64.542453,"longitude":-165.40547,"enrollment":719,"teachers_total_fte":52.0,"number_of_schools":4,"agency_type":1,"lowest_grade_offered":-1,"highest_grade_offered":12,"county_name":"Nome Census Area","phone":"(907)443-2231"},{"leaid":"0200090","lea_name":"Craig City School District","fips":2,"city_mailing":"Craig","state_mailing":"AK","zip_mailing":"99921","latitude":55.475526,"longitude":-133.1372,"enrollment":668,"teachers_total_fte":27.45,"number_of_schools":4,"agency_type":1,"lowest_grade_offered":-1,"highest_grade_offered":12,"county_name":"Prince of Wales-Hyder Census Area","phone":"(907)826-3274"},{"leaid":"0200780","lea_name":"Valdez City School District","fips":2,"city_mailing":"Valdez","state_mailing":"AK","zip_mailing":"99686","latitude":61.133205,"longitude":-146.376124,"enrollment":653,"teachers_total_fte":48.89,"number_of_schools":4,"agency_type":1,"lowest_grade_offered":-1,"highest_grade_offered":12,"county_name":"Chugach Census Area","phone":"(907)835-4357"},{"leaid":"0200800","lea_name":"Chugach School District","fips":2,"city_mailing":"Anchorage","state_mailing":"AK","zip_mailing":"99507","latitude":61.1364,"longitude":-149.848232,"enrollment":637,"teachers_total_fte":18.15,"number_of_schools":4,"agency_type":1,"lowest_grade_offered":-1,"highest_grade_offered":12,"county_name":"Anchorage Municipality","phone":"(907)522-7400"},{"leaid":"0200710","lea_name":"Southwest Region School District","fips":2,"city_mailing":"Dillingham","state_mailing":"AK","zip_mailing":"99576","latitude":59.043046,"longitude":-158.468244,"enrollment":631,"teachers_total_fte":58.35,"number_of_schools":8,"agency_type":1,"lowest_grade_offered":-1,"highest_grade_offered":12,"county_name":"Dillingham Census Area","phone":"(907)842-5287"},{"leaid":"0200004","lea_name":"Yupiit School District","fips":2,"city_mailing":"Akiachak","state_mailing":"AK","zip_mailing":"99551","latitude":60.913883,"longitude":-161.448992,"enrollment":471,"teachers_total_fte":34.5,"number_of_schools":3,"agency_type":1,"lowest_grade_offered":0,"highest_grade_offered":12,"county_name":"Bethel Census Area","phone":"(907)825-3600"},{"leaid":"0200660","lea_name":"Petersburg Borough School District","fips":2,"city_mailing":"Petersburg","state_mailing":"AK","zip_mailing":"99833","latitude":56.814831,"longitude":-132.954464,"enrollment":438,"teachers_total_fte":37.95,"number_of_schools":3,"agency_type":1,"lowest_grade_offered":-1,"highest_grade_offered":12,"county_name":"Petersburg Borough","phone":"(888)526-7656"},{"leaid":"0200120","lea_name":"Dillingham City School District","fips":2,"city_mailing":"Dillingham","state_mailing":"AK","zip_mailing":"99576","latitude":59.042379,"longitude":-158.464858,"enrollment":420,"teachers_total_fte":38.13,"number_of_schools":2,"agency_type":1,"lowest_grade_offered":-1,"highest_grade_offered":12,"county_name":"Dillingham Census Area","phone":"(907)842-5223"},{"leaid":"0200070","lea_name":"Copper River School District","fips":2,"city_mailing":"Glennallen","state_mailing":"AK","zip_mailing":"99588","latitude":62.11293,"longitude":-145.526532,"enrollment":400,"teachers_total_fte":25.7,"number_of_schools":5,"agency_type":1,"lowest_grade_offered":-1,"highest_grade_offered":12,"county_name":"Copper River Census Area","phone":"(907)822-3234"},{"leaid":"0200050","lea_name":"Alaska Gateway School District","fips":2,"city_mailing":"Tok","state_mailing":"AK","zip_mailing":"99780","latitude":63.333206,"longitude":-142.958861,"enrollment":386,"teachers_total_fte":35.17,"number_of_schools":8,"agency_type":1,"lowest_grade_offered":-1,"highest_grade_offered":12,"county_name":"Southeast Fairbanks Census Area","phone":"(907)883-5151"},{"leaid":"0200720","lea_name":"Unalaska City School District","fips":2,"city_mailing":"Unalaska","state_mailing":"AK","zip_mailing":"99685","latitude":53.872671,"longitude":-166.529624,"enrollment":346,"teachers_total_fte":26.9,"number_of_schools":2,"agency_type":1,"lowest_grade_offered":-1,"highest_grade_offered":12,"county_name":"Aleutians West Census Area","phone":"(907)581-3151"},{"leaid":"0200060","lea_name":"Cordova City School District","fips":2,"city_mailing":"Cordova","state_mailing":"AK","zip_mailing":"99574","latitude":60.543043,"longitude":-145.757525,"enrollment":340,"teachers_total_fte":27.0,"number_of_schools":3,"agency_type":1,"lowest_grade_offered":-1,"highest_grade_offered":12,"county_name":"Chugach Census Area","phone":"(907)424-3265"},{"leaid":"0200005","lea_name":"Kashunamiut School District","fips":2,"city_mailing":"Chevak","state_mailing":"AK","zip_mailing":"99563","latitude":61.531048,"longitude":-165.585866,"enrollment":339,"teachers_total_fte":21.0,"number_of_schools":1,"agency_type":1,"lowest_grade_offered":-1,"highest_grade_offered":12,"county_name":"Kusilvak Census Area","phone":"(907)858-7713"},{"leaid":"0200485","lea_name":"Lake and Peninsula Borough School District","fips":2,"city_mailing":"King Salmon","state_mailing":"AK","zip_mailing":"99613","latitude":58.701946,"longitude":-156.666093,"enrollment":334,"teachers_total_fte":42.39,"number_of_schools":13,"agency_type":1,"lowest_grade_offered":-1,"highest_grade_offered":12,"county_name":"Bristol Bay Borough","phone":"(907)246-4280"},{"leaid":"0200760","lea_name":"Kuspuk School District","fips":2,"city_mailing":"Aniak","state_mailing":"AK","zip_mailing":"99557","latitude":61.582025,"longitude":-159.538328,"enrollment":318,"teachers_total_fte":32.0,"number_of_schools":9,"agency_type":1,"lowest_grade_offered":-1,"highest_grade_offered":12,"county_name":"Bethel Census Area","phone":"(907)675-4250"},{"leaid":"0200525","lea_name":"Annette Island School District","fips":2,"city_mailing":"Metlakatla","state_mailing":"AK","zip_mailing":"99926","latitude":55.126236,"longitude":-131.577064,"enrollment":311,"teachers_total_fte":32.53,"number_of_schools":3,"agency_type":1,"lowest_grade_offered":-1,"highest_grade_offered":12,"county_name":"Prince of Wales-Hyder Census Area","phone":"(907)886-6332"},{"leaid":"0200520","lea_name":"Iditarod Area School District","fips":2,"city_mailing":"McGrath","state_mailing":"AK","zip_mailing":"99627","latitude":62.95433,"longitude":-155.595578,"enrollment":306,"teachers_total_fte":17.9,"number_of_schools":8,"agency_type":1,"lowest_grade_offered":-1,"highest_grade_offered":12,"county_name":"Yukon-Koyukuk Census Area","phone":"(907)574-0207"},{"leaid":"0200810","lea_name":"Wrangell School District","fips":2,"city_mailing":"Wrangell","state_mailing":"AK","zip_mailing":"99929","latitude":56.47256,"longitude":-132.374653,"enrollment":264,"teachers_total_fte":18.14,"number_of_schools":3,"agency_type":1,"lowest_grade_offered":-1,"highest_grade_offered":12,"county_name":"Wrangell City and Borough","phone":"(907)874-2347"},{"leaid":"0200270","lea_name":"Haines Borough School District","fips":2,"city_mailing":"Haines","state_mailing":"AK","zip_mailing":"99827","latitude":59.234574,"longitude":-135.453573,"enrollment":262,"teachers_total_fte":20.35,"number_of_schools":3,"agency_type":1,"lowest_grade_offered":-1,"highest_grade_offered":12,"county_name":"Haines Borough","phone":"(907)766-6725"},{"leaid":"0200007","lea_name":"Aleutians East Borough School District","fips":2,"city_mailing":"Sand Point","state_mailing":"AK","zip_mailing":"99661","latitude":55.342221,"longitude":-160.496135,"enrollment":211,"teachers_total_fte":26.0,"number_of_schools":4,"agency_type":1,"lowest_grade_offered":-1,"highest_grade_offered":12,"county_name":"Aleutians East Borough","phone":"(907)383-5222"},{"leaid":"0200680","lea_name":"St. Marys City School District","fips":2,"city_mailing":"Saint Mary's","state_mailing":"AK","zip_mailing":"99658","latitude":62.052226,"longitude":-163.180707,"enrollment":203,"teachers_total_fte":8.96,"number_of_schools":1,"agency_type":1,"lowest_grade_offered":-1,"highest_grade_offered":12,"county_name":"Kusilvak Census Area","phone":"(907)438-2411"},{"leaid":"0200775","lea_name":"Yukon Flats School District","fips":2,"city_mailing":"Ft. Yukon","state_mailing":"AK","zip_mailing":"99740","latitude":66.564638,"longitude":-145.254014,"enrollment":197,"teachers_total_fte":26.0,"number_of_schools":6,"agency_type":1,"lowest_grade_offered":-1,"highest_grade_offered":12,"county_name":"Yukon-Koyukuk Census Area","phone":"(907)662-2515"},{"leaid":"0200700","lea_name":"Southeast Island School District","fips":2,"city_mailing":"Thorne Bay","state_mailing":"AK","zip_mailing":"99919","latitude":55.689263,"longitude":-132.524451,"enrollment":170,"teachers_total_fte":19.77,"number_of_schools":8,"agency_type":1,"lowest_grade_offered":-1,"highest_grade_offered":12,"county_name":"Prince of Wales-Hyder Census Area","phone":"(907)828-8254"},{"leaid":"0200690","lea_name":"Skagway School District","fips":2,"city_mailing":"Skagway","state_mailing":"AK","zip_mailing":"99840","latitude":59.463181,"longitude":-135.307408,"enrollment":152,"teachers_total_fte":14.0,"number_of_schools":1,"agency_type":1,"lowest_grade_offered":-1,"highest_grade_offered":12,"county_name":"Skagway Municipality","phone":"(907)983-2960"},{"leaid":"0200730","lea_name":"Chatham School District","fips":2,"city_mailing":"Angoon","state_mailing":"AK","zip_mailing":"99820","latitude":57.497734,"longitude":-134.584631,"enrollment":147,"teachers_total_fte":15.25,"number_of_schools":4,"agency_type":1,"lowest_grade_offered":-1,"highest_grade_offered":12,"county_name":"Hoonah-Angoon Census Area","phone":"(907)788-3302"},{"leaid":"0200450","lea_name":"Klawock City School District","fips":2,"city_mailing":"Klawock","state_mailing":"AK","zip_mailing":"99925","latitude":55.553553,"longitude":-133.099033,"enrollment":124,"teachers_total_fte":14.28,"number_of_schools":2,"agency_type":1,"lowest_grade_offered":-1,"highest_grade_offered":12,"county_name":"Prince of Wales-Hyder Census Area","phone":"(907)755-2917"},{"leaid":"0200030","lea_name":"Bristol Bay Borough School District","fips":2,"city_mailing":"Naknek","state_mailing":"AK","zip_mailing":"99633","latitude":58.733307,"longitude":-157.004582,"enrollment":121,"teachers_total_fte":10.5,"number_of_schools":3,"agency_type":1,"lowest_grade_offered":-1,"highest_grade_offered":12,"county_name":"Bristol Bay Borough","phone":"(907)246-4225"},{"leaid":"0200330","lea_name":"Hydaburg City School District","fips":2,"city_mailing":"Hydaburg","state_mailing":"AK","zip_mailing":"99922","latitude":55.207545,"longitude":-132.825933,"enrollment":121,"teachers_total_fte":7.25,"number_of_schools":2,"agency_type":1,"lowest_grade_offered":-1,"highest_grade_offered":12,"county_name":"Prince of Wales-Hyder Census Area","phone":"(907)285-3491"},{"leaid":"0200300","lea_name":"Hoonah City School District","fips":2,"city_mailing":"Hoonah","state_mailing":"AK","zip_mailing":"99829","latitude":58.108798,"longitude":-135.442182,"enrollment":112,"teachers_total_fte":10.8,"number_of_schools":1,"agency_type":1,"lowest_grade_offered":-1,"highest_grade_offered":12,"county_name":"Hoonah-Angoon Census Area","phone":"(907)945-3613"},{"leaid":"0200360","lea_name":"Kake City School District","fips":2,"city_mailing":"Kake","state_mailing":"AK","zip_mailing":"99830","latitude":56.977702,"longitude":-133.947065,"enrollment":111,"teachers_total_fte":12.8,"number_of_schools":1,"agency_type":1,"lowest_grade_offered":-1,"highest_grade_offered":12,"county_name":"Prince of Wales-Hyder Census Area","phone":"(907)785-3741"},{"leaid":"0200840","lea_name":"Yakutat School District","fips":2,"city_mailing":"Yakutat","state_mailing":"AK","zip_mailing":"99689","latitude":59.546637,"longitude":-139.723329,"enrollment":92,"teachers_total_fte":7.49,"number_of_schools":2,"agency_type":1,"lowest_grade_offered":-1,"highest_grade_offered":12,"county_name":"Yakutat City and Borough","phone":"(907)784-3317"},{"leaid":"0200670","lea_name":"Pribilof School District","fips":2,"city_mailing":"St. Paul Island","state_mailing":"AK","zip_mailing":"99660","latitude":57.120896,"longitude":-170.279219,"enrollment":57,"teachers_total_fte":3.85,"number_of_schools":2,"agency_type":1,"lowest_grade_offered":-1,"highest_grade_offered":12,"county_name":"Aleutians West Census Area","phone":"(907)546-3327"},{"leaid":"0200715","lea_name":"Tanana City School District","fips":2,"city_mailing":"Tanana","state_mailing":"AK","zip_mailing":"99777","latitude":65.171308,"longitude":-152.087844,"enrollment":29,"teachers_total_fte":2.0,"number_of_schools":1,"agency_type":1,"lowest_grade_offered":0,"highest_grade_offered":12,"county_name":"Yukon-Koyukuk Census Area","phone":"(907)366-7203"},{"leaid":"0200010","lea_name":"Aleutian Region School District","fips":2,"city_mailing":"Anchorage","state_mailing":"AK","zip_mailing":"99518","latitude":61.173216,"longitude":-149.882214,"enrollment":16,"teachers_total_fte":4.0,"number_of_schools":2,"agency_type":1,"lowest_grade_offered":0,"highest_grade_offered":12,"county_name":"Anchorage Municipality","phone":"(907)277-2648"},{"leaid":"0200630","lea_name":"Pelican City School District","fips":2,"city_mailing":"Pelican","state_mailing":"AK","zip_mailing":"99832","latitude":57.956804,"longitude":-136.222059,"enrollment":12,"teachers_total_fte":2.0,"number_of_schools":1,"agency_type":1,"lowest_grade_offered":0,"highest_grade_offered":12,"county_name":"Hoonah-Angoon Census Area","phone":"(907)735-2236"}]