[{"leaid":"5307710","lea_name":"Seattle Public Schools","fips":53,"city_mailing":"SEATTLE","state_mailing":"WA","zip_mailing":"98134","latitude":47.580836,"longitude":-122.330963,"enrollment":51238,"teachers_total_fte":3165.52,"number_of_schools":109,"agency_type":1,"lowest_grade_offered":-1,"highest_grade_offered":12,"county_name":"King County","phone":"(206)252-0010"},{"leaid":"5304230","lea_name":"Lake Washington School District","fips":53,"city_mailing":"REDMOND","state_mailing":"WA","zip_mailing":"98052","latitude":47.670953,"longitude":-122.12338,"enrollment":30991,"teachers_total_fte":1758.46,"number_of_schools":58,"agency_type":1,"lowest_grade_offered":-1,"highest_grade_offered":12,"county_name":"King County","phone":"(425)936-1200"},{"leaid":"5308250","lea_name":"Spokane Public Schools","fips":53,"city_mailing":"SPOKANE","state_mailing":"WA","zip_mailing":"99201","latitude":47.659412,"longitude":-117.415664,"enrollment":28714,"teachers_total_fte":2066.84,"number_of_schools":68,"agency_type":1,"lowest_grade_offered":-1,"highest_grade_offered":12,"county_name":"Spokane County","phone":"(509)354-5900"},{"leaid":"5308700","lea_name":"Tacoma Public Schools","fips":53,"city_mailing":"TACOMA","state_mailing":"WA","zip_mailing":"98401","latitude":47.256133,"longitude":-122.445663,"enrollment":28311,"teachers_total_fte":1634.03,"number_of_schools":69,"agency_type":1,"lowest_grade_offered":-1,"highest_grade_offered":12,"county_name":"Pierce County","phone":"(253)571-1000"},{"leaid":"5303960","lea_name":"Kent School District","fips":53,"city_mailing":"KENT","state_mailing":"WA","zip_mailing":"98031","latitude":47.37121,"longitude":-122.179584,"enrollment":25586,"teachers_total_fte":1517.18,"number_of_schools":45,"agency_type":1,"lowest_grade_offered":-1,"highest_grade_offered":12,"county_name":"King County","phone":"(253)373-7000"},{"leaid":"5306960","lea_name":"Puyallup School District","fips":53,"city_mailing":"PUYALLUP","state_mailing":"WA","zip_mailing":"98372","latitude":47.19016,"longitude":-122.293111,"enrollment":23104,"teachers_total_fte":1225.24,"number_of_schools":37,"agency_type":1,"lowest_grade_offered":-1,"highest_grade_offered":12,"county_name":"Pierce County","phone":"(253)841-1301"},{"leaid":"5305910","lea_name":"Northshore School District","fips":53,"city_mailing":"BOTHELL","state_mailing":"WA","zip_mailing":"98021","latitude":47.777,"longitude":-122.1899,"enrollment":22944,"teachers_total_fte":1326.0,"number_of_schools":39,"agency_type":1,"lowest_grade_offered":-1,"highest_grade_offered":12,"county_name":"Snohomish County","phone":"(425)408-6000"},{"leaid":"5302700","lea_name":"Evergreen School District (Clark)","fips":53,"city_mailing":"VANCOUVER","state_mailing":"WA","zip_mailing":"98684","latitude":45.630149,"longitude":-122.535816,"enrollment":22591,"teachers_total_fte":1348.22,"number_of_schools":39,"agency_type":1,"lowest_grade_offered":-1,"highest_grade_offered":12,"county_name":"Clark County","phone":"(360)604-4005"},{"leaid":"5309270","lea_name":"Vancouver Public Schools","fips":53,"city_mailing":"VANCOUVER","state_mailing":"WA","zip_mailing":"98661","latitude":45.64278,"longitude":-122.626631,"enrollment":22003,"teachers_total_fte":1282.71,"number_of_schools":43,"agency_type":1,"lowest_grade_offered":-1,"highest_grade_offered":12,"county_name":"Clark County","phone":"(360)313-1000"},{"leaid":"5302820","lea_name":"Federal Way School District","fips":53,"city_mailing":"FEDERAL WAY","state_mailing":"WA","zip_mailing":"98003","latitude":47.304885,"longitude":-122.324633,"enrollment":21606,"teachers_total_fte":1184.37,"number_of_schools":46,"agency_type":1,"lowest_grade_offered":-1,"highest_grade_offered":12,"county_name":"King County","phone":"(253)945-2000"},{"leaid":"5300480","lea_name":"Bethel School District","fips":53,"city_mailing":"Spanaway","state_mailing":"WA","zip_mailing":"98387","latitude":47.096826,"longitude":-122.425454,"enrollment":21156,"teachers_total_fte":1139.88,"number_of_schools":34,"agency_type":1,"lowest_grade_offered":-1,"highest_grade_offered":12,"county_name":"Pierce County","phone":"(253)800-6000"},{"leaid":"5302400","lea_name":"Edmonds School District","fips":53,"city_mailing":"LYNNWOOD","state_mailing":"WA","zip_mailing":"98036","latitude":47.813526,"longitude":-122.326106,"enrollment":20459,"teachers_total_fte":1172.87,"number_of_schools":39,"agency_type":1,"lowest_grade_offered":-1,"highest_grade_offered":12,"county_name":"Snohomish County","phone":"(425)431-7000"},{"leaid":"5302670","lea_name":"Everett School District","fips":53,"city_mailing":"Everett","state_mailing":"WA","zip_mailing":"98201","latitude":47.965115,"longitude":-122.201836,"enrollment":20359,"teachers_total_fte":1101.8,"number_of_schools":33,"agency_type":1,"lowest_grade_offered":-1,"highest_grade_offered":12,"county_name":"Snohomish County","phone":"(425)385-4000"},{"leaid":"5303750","lea_name":"Issaquah School District","fips":53,"city_mailing":"ISSAQUAH","state_mailing":"WA","zip_mailing":"98029","latitude":47.55464,"longitude":-122.047321,"enrollment":19524,"teachers_total_fte":1027.63,"number_of_schools":30,"agency_type":1,"lowest_grade_offered":-1,"highest_grade_offered":12,"county_name":"King County","phone":"(425)837-7000"},{"leaid":"5303930","lea_name":"Kennewick School District","fips":53,"city_mailing":"KENNEWICK","state_mailing":"WA","zip_mailing":"99336","latitude":46.206378,"longitude":-119.133653,"enrollment":19311,"teachers_total_fte":1047.28,"number_of_schools":33,"agency_type":1,"lowest_grade_offered":-1,"highest_grade_offered":12,"county_name":"Benton County","phone":"(509)222-5000"},{"leaid":"5300390","lea_name":"Bellevue School District","fips":53,"city_mailing":"BELLEVUE","state_mailing":"WA","zip_mailing":"98005","latitude":47.61058,"longitude":-122.178741,"enrollment":19089,"teachers_total_fte":1057.6,"number_of_schools":32,"agency_type":1,"lowest_grade_offered":-1,"highest_grade_offered":12,"county_name":"King County","phone":"(425)456-4000"},{"leaid":"5306570","lea_name":"Pasco School District","fips":53,"city_mailing":"PASCO","state_mailing":"WA","zip_mailing":"99301","latitude":46.228209,"longitude":-119.103133,"enrollment":18515,"teachers_total_fte":1056.06,"number_of_schools":29,"agency_type":1,"lowest_grade_offered":-1,"highest_grade_offered":12,"county_name":"Franklin County","phone":"(509)543-6700"},{"leaid":"5303540","lea_name":"Highline School District","fips":53,"city_mailing":"BURIEN","state_mailing":"WA","zip_mailing":"98166","latitude":47.46228,"longitude":-122.337961,"enrollment":18048,"teachers_total_fte":1010.27,"number_of_schools":43,"agency_type":1,"lowest_grade_offered":-1,"highest_grade_offered":12,"county_name":"King County","phone":"(206)631-3000"},{"leaid":"5300300","lea_name":"Auburn School District","fips":53,"city_mailing":"AUBURN","state_mailing":"WA","zip_mailing":"98002","latitude":47.31199,"longitude":-122.217161,"enrollment":17857,"teachers_total_fte":1054.72,"number_of_schools":27,"agency_type":1,"lowest_grade_offered":-1,"highest_grade_offered":12,"county_name":"King County","phone":"(253)931-4900"},{"leaid":"5310110","lea_name":"Yakima School District","fips":53,"city_mailing":"YAKIMA","state_mailing":"WA","zip_mailing":"98902","latitude":46.602139,"longitude":-120.515466,"enrollment":15553,"teachers_total_fte":920.77,"number_of_schools":29,"agency_type":1,"lowest_grade_offered":-1,"highest_grade_offered":12,"county_name":"Yakima County","phone":"(509)573-7000"},{"leaid":"5307230","lea_name":"Renton School District","fips":53,"city_mailing":"RENTON","state_mailing":"WA","zip_mailing":"98057","latitude":47.474316,"longitude":-122.220694,"enrollment":15230,"teachers_total_fte":824.9,"number_of_schools":30,"agency_type":1,"lowest_grade_offered":-1,"highest_grade_offered":12,"county_name":"King County","phone":"(425)204-2300"},{"leaid":"5305430","lea_name":"Mukilteo School District","fips":53,"city_mailing":"EVERETT","state_mailing":"WA","zip_mailing":"98204","latitude":47.912883,"longitude":-122.244271,"enrollment":15131,"teachers_total_fte":910.67,"number_of_schools":25,"agency_type":1,"lowest_grade_offered":-1,"highest_grade_offered":12,"county_name":"Snohomish County","phone":"(425)356-1274"},{"leaid":"5305850","lea_name":"North Thurston Public Schools","fips":53,"city_mailing":"LACEY","state_mailing":"WA","zip_mailing":"98516","latitude":47.050976,"longitude":-122.824182,"enrollment":15119,"teachers_total_fte":867.36,"number_of_schools":24,"agency_type":1,"lowest_grade_offered":-1,"highest_grade_offered":12,"county_name":"Thurston County","phone":"(360)412-4400"},{"leaid":"5301110","lea_name":"Central Valley School District","fips":53,"city_mailing":"Liberty Lake","state_mailing":"WA","zip_mailing":"99019","latitude":47.677979,"longitude":-117.090529,"enrollment":14688,"teachers_total_fte":933.42,"number_of_schools":32,"agency_type":1,"lowest_grade_offered":-1,"highest_grade_offered":12,"county_name":"Spokane County","phone":"(509)558-5400"},{"leaid":"5307320","lea_name":"Richland School District","fips":53,"city_mailing":"West RICHLAND","state_mailing":"WA","zip_mailing":"99353","latitude":46.276496,"longitude":-119.379139,"enrollment":13948,"teachers_total_fte":730.98,"number_of_schools":23,"agency_type":1,"lowest_grade_offered":-1,"highest_grade_offered":12,"county_name":"Benton County","phone":"(509)967-6000"},{"leaid":"5301410","lea_name":"Clover Park School District","fips":53,"city_mailing":"LAKEWOOD","state_mailing":"WA","zip_mailing":"98499","latitude":47.159128,"longitude":-122.519527,"enrollment":12566,"teachers_total_fte":744.54,"number_of_schools":32,"agency_type":1,"lowest_grade_offered":-1,"highest_grade_offered":12,"county_name":"Pierce County","phone":"(253)583-5190"},{"leaid":"5300380","lea_name":"Battle Ground School District","fips":53,"city_mailing":"BATTLE GROUND","state_mailing":"WA","zip_mailing":"98604","latitude":45.730385,"longitude":-122.560814,"enrollment":12393,"teachers_total_fte":699.61,"number_of_schools":21,"agency_type":1,"lowest_grade_offered":-1,"highest_grade_offered":12,"county_name":"Clark County","phone":"(360)885-5300"},{"leaid":"5300420","lea_name":"Bellingham School District","fips":53,"city_mailing":"BELLINGHAM","state_mailing":"WA","zip_mailing":"98225","latitude":48.75927,"longitude":-122.487031,"enrollment":11614,"teachers_total_fte":705.48,"number_of_schools":25,"agency_type":1,"lowest_grade_offered":-1,"highest_grade_offered":12,"county_name":"Whatcom County","phone":"(360)676-6400"},{"leaid":"5301080","lea_name":"Central Kitsap School District","fips":53,"city_mailing":"SILVERDALE","state_mailing":"WA","zip_mailing":"98383","latitude":47.646463,"longitude":-122.697538,"enrollment":11206,"teachers_total_fte":612.41,"number_of_schools":19,"agency_type":1,"lowest_grade_offered":-1,"highest_grade_offered":12,"county_name":"Kitsap County","phone":"(360)662-3100"},{"leaid":"5308610","lea_name":"Sumner School District","fips":53,"city_mailing":"SUMNER","state_mailing":"WA","zip_mailing":"98390","latitude":47.20489,"longitude":-122.237991,"enrollment":10414,"teachers_total_fte":554.2,"number_of_schools":15,"agency_type":1,"lowest_grade_offered":-1,"highest_grade_offered":12,"county_name":"Pierce County","phone":"(253)891-6000"},{"leaid":"5304920","lea_name":"Mead School District","fips":53,"city_mailing":"MEAD","state_mailing":"WA","zip_mailing":"99021","latitude":47.773307,"longitude":-117.375704,"enrollment":10320,"teachers_total_fte":568.04,"number_of_schools":17,"agency_type":1,"lowest_grade_offered":-1,"highest_grade_offered":12,"county_name":"Spokane County","phone":"(509)465-6000"},{"leaid":"5304860","lea_name":"Marysville School District","fips":53,"city_mailing":"MARYSVILLE","state_mailing":"WA","zip_mailing":"98270","latitude":48.067863,"longitude":-122.17336,"enrollment":10196,"teachers_total_fte":553.88,"number_of_schools":24,"agency_type":1,"lowest_grade_offered":-1,"highest_grade_offered":12,"county_name":"Snohomish County","phone":"(360)965-0000"},{"leaid":"5304200","lea_name":"Lake Stevens School District","fips":53,"city_mailing":"LAKE STEVENS","state_mailing":"WA","zip_mailing":"98258","latitude":48.017457,"longitude":-122.064212,"enrollment":9687,"teachers_total_fte":504.35,"number_of_schools":15,"agency_type":1,"lowest_grade_offered":-1,"highest_grade_offered":12,"county_name":"Snohomish County","phone":"(425)335-1500"},{"leaid":"5306180","lea_name":"Olympia School District","fips":53,"city_mailing":"OLYMPIA","state_mailing":"WA","zip_mailing":"98506","latitude":47.046465,"longitude":-122.885226,"enrollment":9633,"teachers_total_fte":567.25,"number_of_schools":20,"agency_type":1,"lowest_grade_offered":-1,"highest_grade_offered":12,"county_name":"Thurston County","phone":"(360)596-6100"},{"leaid":"5307920","lea_name":"Shoreline School District","fips":53,"city_mailing":"SHORELINE","state_mailing":"WA","zip_mailing":"98155","latitude":47.7648,"longitude":-122.3283,"enrollment":9564,"teachers_total_fte":472.02,"number_of_schools":18,"agency_type":1,"lowest_grade_offered":-1,"highest_grade_offered":12,"county_name":"King County","phone":"(206)393-4203"},{"leaid":"5308020","lea_name":"Snohomish School District","fips":53,"city_mailing":"SNOHOMISH","state_mailing":"WA","zip_mailing":"98290","latitude":47.931912,"longitude":-122.098459,"enrollment":9418,"teachers_total_fte":493.28,"number_of_schools":18,"agency_type":1,"lowest_grade_offered":-1,"highest_grade_offered":12,"county_name":"Snohomish County","phone":"(360)563-7240"},{"leaid":"5308160","lea_name":"South Kitsap School District","fips":53,"city_mailing":"PORT ORCHARD","state_mailing":"WA","zip_mailing":"98366","latitude":47.523689,"longitude":-122.626706,"enrollment":9196,"teachers_total_fte":542.98,"number_of_schools":17,"agency_type":1,"lowest_grade_offered":-1,"highest_grade_offered":12,"county_name":"Kitsap County","phone":"(360)874-7000"},{"leaid":"5308760","lea_name":"Tahoma School District","fips":53,"city_mailing":"MAPLE VALLEY","state_mailing":"WA","zip_mailing":"98038","latitude":47.371064,"longitude":-122.022186,"enrollment":9112,"teachers_total_fte":475.27,"number_of_schools":10,"agency_type":1,"lowest_grade_offered":-1,"highest_grade_offered":12,"county_name":"King County","phone":"(425)413-3400"},{"leaid":"5306690","lea_name":"Peninsula School District","fips":53,"city_mailing":"GIG HARBOR","state_mailing":"WA","zip_mailing":"98332","latitude":47.384869,"longitude":-122.618649,"enrollment":8969,"teachers_total_fte":491.04,"number_of_schools":18,"agency_type":1,"lowest_grade_offered":-1,"highest_grade_offered":12,"county_name":"Pierce County","phone":"(253)530-1002"},{"leaid":"5305220","lea_name":"Moses Lake School District","fips":53,"city_mailing":"MOSES LAKE","state_mailing":"WA","zip_mailing":"98837","latitude":47.111133,"longitude":-119.259441,"enrollment":8686,"teachers_total_fte":476.87,"number_of_schools":20,"agency_type":1,"lowest_grade_offered":-1,"highest_grade_offered":12,"county_name":"Grant County","phone":"(509)766-2650"},{"leaid":"5302940","lea_name":"Franklin Pierce School District","fips":53,"city_mailing":"TACOMA","state_mailing":"WA","zip_mailing":"98444","latitude":47.140784,"longitude":-122.436845,"enrollment":7425,"teachers_total_fte":472.75,"number_of_schools":15,"agency_type":1,"lowest_grade_offered":-1,"highest_grade_offered":12,"county_name":"Pierce County","phone":"(253)298-3000"},{"leaid":"5309660","lea_name":"Wenatchee School District","fips":53,"city_mailing":"WENATCHEE","state_mailing":"WA","zip_mailing":"98801","latitude":47.42764,"longitude":-120.326111,"enrollment":7347,"teachers_total_fte":467.49,"number_of_schools":19,"agency_type":1,"lowest_grade_offered":-1,"highest_grade_offered":12,"county_name":"Chelan County","phone":"(509)663-8161"},{"leaid":"5300810","lea_name":"Camas School District","fips":53,"city_mailing":"CAMAS","state_mailing":"WA","zip_mailing":"98607","latitude":45.595602,"longitude":-122.401987,"enrollment":7324,"teachers_total_fte":410.4,"number_of_schools":16,"agency_type":1,"lowest_grade_offered":-1,"highest_grade_offered":12,"county_name":"Clark County","phone":"(360)335-3000"},{"leaid":"5308040","lea_name":"Snoqualmie Valley School District","fips":53,"city_mailing":"SNOQUALMIE","state_mailing":"WA","zip_mailing":"98065","latitude":47.52863,"longitude":-121.828461,"enrollment":7086,"teachers_total_fte":409.57,"number_of_schools":14,"agency_type":1,"lowest_grade_offered":-1,"highest_grade_offered":12,"county_name":"King County","phone":"(425)831-8000"},{"leaid":"5305400","lea_name":"Mount Vernon School District","fips":53,"city_mailing":"MOUNT VERNON","state_mailing":"WA","zip_mailing":"98273","latitude":48.42373,"longitude":-122.334261,"enrollment":6545,"teachers_total_fte":415.79,"number_of_schools":14,"agency_type":1,"lowest_grade_offered":-1,"highest_grade_offered":12,"county_name":"Skagit County","phone":"(360)428-6110"},{"leaid":"5309100","lea_name":"Tumwater School District","fips":53,"city_mailing":"TUMWATER","state_mailing":"WA","zip_mailing":"98512","latitude":47.00678,"longitude":-122.912131,"enrollment":6461,"teachers_total_fte":346.57,"number_of_schools":15,"agency_type":1,"lowest_grade_offered":-1,"highest_grade_offered":12,"county_name":"Thurston County","phone":"(360)709-7000"},{"leaid":"5308670","lea_name":"Sunnyside School District","fips":53,"city_mailing":"SUNNYSIDE","state_mailing":"WA","zip_mailing":"98944","latitude":46.317417,"longitude":-120.012259,"enrollment":6369,"teachers_total_fte":359.5,"number_of_schools":9,"agency_type":1,"lowest_grade_offered":-1,"highest_grade_offered":12,"county_name":"Yakima County","phone":"(509)837-5851"},{"leaid":"5304470","lea_name":"Longview Public Schools","fips":53,"city_mailing":"LONGVIEW","state_mailing":"WA","zip_mailing":"98632","latitude":46.141623,"longitude":-122.955595,"enrollment":6311,"teachers_total_fte":380.92,"number_of_schools":18,"agency_type":1,"lowest_grade_offered":-1,"highest_grade_offered":12,"county_name":"Cowlitz County","phone":"(360)575-7000"},{"leaid":"5302310","lea_name":"Eastmont School District","fips":53,"city_mailing":"EAST WENATCHEE","state_mailing":"WA","zip_mailing":"98802","latitude":47.41715,"longitude":-120.282351,"enrollment":6032,"teachers_total_fte":361.2,"number_of_schools":12,"agency_type":1,"lowest_grade_offered":-1,"highest_grade_offered":12,"county_name":"Douglas County","phone":"(509)884-7169"},{"leaid":"5306220","lea_name":"Omak School District","fips":53,"city_mailing":"OMAK","state_mailing":"WA","zip_mailing":"98841","latitude":48.411047,"longitude":-119.537815,"enrollment":5834,"teachers_total_fte":296.01,"number_of_schools":8,"agency_type":1,"lowest_grade_offered":-1,"highest_grade_offered":12,"county_name":"Okanogan County","phone":"(509)826-0320"},{"leaid":"5305130","lea_name":"Monroe School District","fips":53,"city_mailing":"Monroe","state_mailing":"WA","zip_mailing":"98272","latitude":47.864247,"longitude":-121.992056,"enrollment":5734,"teachers_total_fte":304.46,"number_of_schools":12,"agency_type":1,"lowest_grade_offered":-1,"highest_grade_offered":12,"county_name":"Snohomish County","phone":"(360)804-2500"},{"leaid":"5305940","lea_name":"Oak Harbor School District","fips":53,"city_mailing":"OAK HARBOR","state_mailing":"WA","zip_mailing":"98277","latitude":48.295782,"longitude":-122.656914,"enrollment":5730,"teachers_total_fte":369.22,"number_of_schools":12,"agency_type":1,"lowest_grade_offered":-1,"highest_grade_offered":12,"county_name":"Island County","phone":"(360)279-5000"},{"leaid":"5310140","lea_name":"Yelm Community Schools","fips":53,"city_mailing":"YELM","state_mailing":"WA","zip_mailing":"98597","latitude":46.942588,"longitude":-122.605945,"enrollment":5668,"teachers_total_fte":322.7,"number_of_schools":10,"agency_type":1,"lowest_grade_offered":-1,"highest_grade_offered":12,"county_name":"Thurston County","phone":"(360)458-1900"},{"leaid":"5309180","lea_name":"University Place School District","fips":53,"city_mailing":"UNIVERSITY PLACE","state_mailing":"WA","zip_mailing":"98466","latitude":47.223878,"longitude":-122.551695,"enrollment":5619,"teachers_total_fte":311.6,"number_of_schools":8,"agency_type":1,"lowest_grade_offered":-1,"highest_grade_offered":12,"county_name":"Pierce County","phone":"(253)566-5600"},{"leaid":"5309450","lea_name":"Walla Walla Public Schools","fips":53,"city_mailing":"WALLA WALLA","state_mailing":"WA","zip_mailing":"99362","latitude":46.06502,"longitude":-118.329731,"enrollment":5599,"teachers_total_fte":332.3,"number_of_schools":16,"agency_type":1,"lowest_grade_offered":-1,"highest_grade_offered":12,"county_name":"Walla Walla County","phone":"(509)526-6708"},{"leaid":"5301230","lea_name":"Cheney School District","fips":53,"city_mailing":"CHENEY","state_mailing":"WA","zip_mailing":"99004","latitude":47.54327,"longitude":-117.546675,"enrollment":5540,"teachers_total_fte":326.06,"number_of_schools":12,"agency_type":1,"lowest_grade_offered":-1,"highest_grade_offered":12,"county_name":"Spokane County","phone":"(509)559-4501"},{"leaid":"5300240","lea_name":"Arlington School District","fips":53,"city_mailing":"ARLINGTON","state_mailing":"WA","zip_mailing":"98223","latitude":48.195752,"longitude":-122.122026,"enrollment":5506,"teachers_total_fte":312.5,"number_of_schools":11,"agency_type":1,"lowest_grade_offered":-1,"highest_grade_offered":12,"county_name":"Snohomish County","phone":"(360)618-6203"},{"leaid":"5309720","lea_name":"West Valley School District (Yakima)","fips":53,"city_mailing":"YAKIMA","state_mailing":"WA","zip_mailing":"98908","latitude":46.574491,"longitude":-120.626985,"enrollment":5490,"teachers_total_fte":279.42,"number_of_schools":16,"agency_type":1,"lowest_grade_offered":-1,"highest_grade_offered":12,"county_name":"Yakima County","phone":"(509)972-6000"},{"leaid":"5305760","lea_name":"North Kitsap School District","fips":53,"city_mailing":"Poulsbo","state_mailing":"WA","zip_mailing":"98370","latitude":47.729317,"longitude":-122.627264,"enrollment":5418,"teachers_total_fte":315.55,"number_of_schools":14,"agency_type":1,"lowest_grade_offered":-1,"highest_grade_offered":12,"county_name":"Kitsap County","phone":"(360)396-3000"},{"leaid":"5300003","lea_name":"Kelso School District","fips":53,"city_mailing":"KELSO","state_mailing":"WA","zip_mailing":"98626","latitude":46.147476,"longitude":-122.905933,"enrollment":4940,"teachers_total_fte":284.02,"number_of_schools":13,"agency_type":1,"lowest_grade_offered":-1,"highest_grade_offered":12,"county_name":"Cowlitz County","phone":"(360)501-1900"},{"leaid":"5308340","lea_name":"Stanwood-Camano School District","fips":53,"city_mailing":"Stanwood","state_mailing":"WA","zip_mailing":"98292","latitude":48.240845,"longitude":-122.345605,"enrollment":4812,"teachers_total_fte":259.39,"number_of_schools":11,"agency_type":1,"lowest_grade_offered":-1,"highest_grade_offered":12,"county_name":"Snohomish County","phone":"(360)629-1200"},{"leaid":"5306480","lea_name":"Othello School District","fips":53,"city_mailing":"OTHELLO","state_mailing":"WA","zip_mailing":"99344","latitude":46.814085,"longitude":-119.172883,"enrollment":4751,"teachers_total_fte":260.8,"number_of_schools":9,"agency_type":1,"lowest_grade_offered":-1,"highest_grade_offered":12,"county_name":"Adams County","phone":"(509)488-2659"},{"leaid":"5302850","lea_name":"Ferndale School District","fips":53,"city_mailing":"FERNDALE","state_mailing":"WA","zip_mailing":"98248","latitude":48.860064,"longitude":-122.600606,"enrollment":4651,"teachers_total_fte":288.65,"number_of_schools":13,"agency_type":1,"lowest_grade_offered":-1,"highest_grade_offered":12,"county_name":"Whatcom County","phone":"(360)383-9200"},{"leaid":"5307740","lea_name":"Sedro-Woolley School District","fips":53,"city_mailing":"SEDRO WOOLLEY","state_mailing":"WA","zip_mailing":"98284","latitude":48.50446,"longitude":-122.252241,"enrollment":4593,"teachers_total_fte":251.06,"number_of_schools":13,"agency_type":1,"lowest_grade_offered":-1,"highest_grade_offered":12,"county_name":"Skagit County","phone":"(360)855-3500"},{"leaid":"5307900","lea_name":"Shelton School District","fips":53,"city_mailing":"SHELTON","state_mailing":"WA","zip_mailing":"98584","latitude":47.2078,"longitude":-123.100521,"enrollment":4540,"teachers_total_fte":273.35,"number_of_schools":10,"agency_type":1,"lowest_grade_offered":-1,"highest_grade_offered":12,"county_name":"Mason County","phone":"(360)426-1687"},{"leaid":"5300001","lea_name":"Enumclaw School District","fips":53,"city_mailing":"ENUMCLAW","state_mailing":"WA","zip_mailing":"98022","latitude":47.188556,"longitude":-122.008799,"enrollment":4436,"teachers_total_fte":240.71,"number_of_schools":10,"agency_type":1,"lowest_grade_offered":-1,"highest_grade_offered":12,"county_name":"King County","phone":"(360)802-7100"},{"leaid":"5309780","lea_name":"White River School District","fips":53,"city_mailing":"BUCKLEY","state_mailing":"WA","zip_mailing":"98321","latitude":47.165285,"longitude":-122.025598,"enrollment":4408,"teachers_total_fte":221.6,"number_of_schools":10,"agency_type":1,"lowest_grade_offered":-1,"highest_grade_offered":12,"county_name":"Pierce County","phone":"(360)829-0600"},{"leaid":"5300660","lea_name":"Bremerton School District","fips":53,"city_mailing":"BREMERTON","state_mailing":"WA","zip_mailing":"98312","latitude":47.565085,"longitude":-122.661846,"enrollment":4383,"teachers_total_fte":303.48,"number_of_schools":13,"agency_type":1,"lowest_grade_offered":-1,"highest_grade_offered":12,"county_name":"Kitsap County","phone":"(360)473-4734"},{"leaid":"5308970","lea_name":"Toppenish School District","fips":53,"city_mailing":"TOPPENISH","state_mailing":"WA","zip_mailing":"98948","latitude":46.37348,"longitude":-120.315271,"enrollment":4246,"teachers_total_fte":203.52,"number_of_schools":9,"agency_type":1,"lowest_grade_offered":-1,"highest_grade_offered":12,"county_name":"Yakima County","phone":"(509)865-4455"},{"leaid":"5304980","lea_name":"Mercer Island School District","fips":53,"city_mailing":"MERCER ISLAND","state_mailing":"WA","zip_mailing":"98040","latitude":47.571308,"longitude":-122.223548,"enrollment":4057,"teachers_total_fte":215.28,"number_of_schools":6,"agency_type":1,"lowest_grade_offered":-1,"highest_grade_offered":12,"county_name":"King County","phone":"(206)236-3300"},{"leaid":"5307350","lea_name":"Ridgefield School District","fips":53,"city_mailing":"RIDGEFIELD","state_mailing":"WA","zip_mailing":"98642","latitude":45.816249,"longitude":-122.74219,"enrollment":3987,"teachers_total_fte":221.48,"number_of_schools":7,"agency_type":1,"lowest_grade_offered":-1,"highest_grade_offered":12,"county_name":"Clark County","phone":"(360)619-1301"},{"leaid":"5302880","lea_name":"Fife Public Schools","fips":53,"city_mailing":"Milton","state_mailing":"WA","zip_mailing":"98354","latitude":47.247232,"longitude":-122.31181,"enrollment":3893,"teachers_total_fte":209.23,"number_of_schools":7,"agency_type":1,"lowest_grade_offered":-1,"highest_grade_offered":12,"county_name":"Pierce County","phone":"(253)517-1000"},{"leaid":"5307770","lea_name":"Selah School District","fips":53,"city_mailing":"SELAH","state_mailing":"WA","zip_mailing":"98942","latitude":46.241263,"longitude":-119.143228,"enrollment":3832,"teachers_total_fte":221.0,"number_of_schools":10,"agency_type":1,"lowest_grade_offered":-1,"highest_grade_offered":12,"county_name":"Franklin County","phone":"(509)698-8001"},{"leaid":"5302280","lea_name":"East Valley School District (Spokane)","fips":53,"city_mailing":"SPOKANE","state_mailing":"WA","zip_mailing":"99216","latitude":47.692176,"longitude":-117.195469,"enrollment":3670,"teachers_total_fte":214.7,"number_of_schools":9,"agency_type":1,"lowest_grade_offered":-1,"highest_grade_offered":12,"county_name":"Spokane County","phone":"(509)924-1830"},{"leaid":"5303150","lea_name":"Grandview School District","fips":53,"city_mailing":"GRANDVIEW","state_mailing":"WA","zip_mailing":"98930","latitude":46.25515,"longitude":-119.914989,"enrollment":3618,"teachers_total_fte":201.54,"number_of_schools":7,"agency_type":1,"lowest_grade_offered":-1,"highest_grade_offered":12,"county_name":"Yakima County","phone":"(509)882-8500"},{"leaid":"5300330","lea_name":"Bainbridge Island School District","fips":53,"city_mailing":"BAINBRIDGE ISLAND","state_mailing":"WA","zip_mailing":"98110","latitude":47.638754,"longitude":-122.521766,"enrollment":3594,"teachers_total_fte":202.36,"number_of_schools":10,"agency_type":1,"lowest_grade_offered":-1,"highest_grade_offered":12,"county_name":"Kitsap County","phone":"(206)842-4714"},{"leaid":"5304620","lea_name":"Lynden School District","fips":53,"city_mailing":"LYNDEN","state_mailing":"WA","zip_mailing":"98264","latitude":48.008516,"longitude":-122.412012,"enrollment":3542,"teachers_total_fte":189.2,"number_of_schools":8,"agency_type":1,"lowest_grade_offered":-1,"highest_grade_offered":12,"county_name":"Island County","phone":"(360)354-4443"},{"leaid":"5306820","lea_name":"Port Angeles School District","fips":53,"city_mailing":"PORT ANGELES","state_mailing":"WA","zip_mailing":"98363","latitude":48.119035,"longitude":-123.45595,"enrollment":3534,"teachers_total_fte":230.71,"number_of_schools":10,"agency_type":1,"lowest_grade_offered":-1,"highest_grade_offered":12,"county_name":"Clallam County","phone":"(360)457-8575"},{"leaid":"5309690","lea_name":"West Valley School District (Spokane)","fips":53,"city_mailing":"SPOKANE","state_mailing":"WA","zip_mailing":"99212","latitude":47.682586,"longitude":-117.283486,"enrollment":3483,"teachers_total_fte":190.31,"number_of_schools":13,"agency_type":1,"lowest_grade_offered":-1,"highest_grade_offered":12,"county_name":"Spokane County","phone":"(509)924-2150"},{"leaid":"5301140","lea_name":"Centralia School District","fips":53,"city_mailing":"CENTRALIA","state_mailing":"WA","zip_mailing":"98531","latitude":46.726893,"longitude":-122.98152,"enrollment":3440,"teachers_total_fte":210.01,"number_of_schools":9,"agency_type":1,"lowest_grade_offered":-1,"highest_grade_offered":12,"county_name":"Lewis County","phone":"(360)330-7600"},{"leaid":"5300780","lea_name":"Burlington-Edison School District","fips":53,"city_mailing":"BURLINGTON","state_mailing":"WA","zip_mailing":"98233","latitude":48.475793,"longitude":-122.322358,"enrollment":3351,"teachers_total_fte":219.52,"number_of_schools":9,"agency_type":1,"lowest_grade_offered":-1,"highest_grade_offered":12,"county_name":"Skagit County","phone":"(360)757-3311"},{"leaid":"5305370","lea_name":"East Valley School District (Yakima)","fips":53,"city_mailing":"YAKIMA","state_mailing":"WA","zip_mailing":"98901","latitude":46.573221,"longitude":-120.404307,"enrollment":3334,"teachers_total_fte":183.27,"number_of_schools":5,"agency_type":1,"lowest_grade_offered":-1,"highest_grade_offered":12,"county_name":"Yakima County","phone":"(509)573-7300"},{"leaid":"5300030","lea_name":"Aberdeen School District","fips":53,"city_mailing":"ABERDEEN","state_mailing":"WA","zip_mailing":"98520","latitude":46.9784,"longitude":-123.816491,"enrollment":3304,"teachers_total_fte":204.29,"number_of_schools":13,"agency_type":1,"lowest_grade_offered":-1,"highest_grade_offered":12,"county_name":"Grays Harbor County","phone":"(360)538-2000"},{"leaid":"5302460","lea_name":"Ellensburg School District","fips":53,"city_mailing":"ELLENSBURG","state_mailing":"WA","zip_mailing":"98926","latitude":46.994596,"longitude":-120.526739,"enrollment":3238,"teachers_total_fte":190.63,"number_of_schools":8,"agency_type":1,"lowest_grade_offered":-1,"highest_grade_offered":12,"county_name":"Kittitas County","phone":"(509)925-8000"},{"leaid":"5309480","lea_name":"Wapato School District","fips":53,"city_mailing":"WAPATO","state_mailing":"WA","zip_mailing":"98951","latitude":46.446292,"longitude":-120.421834,"enrollment":3195,"teachers_total_fte":203.85,"number_of_schools":11,"agency_type":1,"lowest_grade_offered":-1,"highest_grade_offered":12,"county_name":"Yakima County","phone":"(509)877-4181"},{"leaid":"5304560","lea_name":"Riverview School District","fips":53,"city_mailing":"DUVALL","state_mailing":"WA","zip_mailing":"98019","latitude":47.740593,"longitude":-121.984627,"enrollment":3111,"teachers_total_fte":171.69,"number_of_schools":9,"agency_type":1,"lowest_grade_offered":-1,"highest_grade_offered":12,"county_name":"King County","phone":"(425)844-4500"},{"leaid":"5308460","lea_name":"Steilacoom Historical School District","fips":53,"city_mailing":"STEILACOOM","state_mailing":"WA","zip_mailing":"98388","latitude":47.169202,"longitude":-122.598541,"enrollment":3098,"teachers_total_fte":183.12,"number_of_schools":9,"agency_type":1,"lowest_grade_offered":-1,"highest_grade_offered":12,"county_name":"Pierce County","phone":"(253)983-2200"},{"leaid":"5307080","lea_name":"Quincy School District","fips":53,"city_mailing":"QUINCY","state_mailing":"WA","zip_mailing":"98848","latitude":47.230659,"longitude":-119.855569,"enrollment":3083,"teachers_total_fte":200.54,"number_of_schools":9,"agency_type":1,"lowest_grade_offered":0,"highest_grade_offered":12,"county_name":"Grant County","phone":"(509)787-4571"},{"leaid":"5301170","lea_name":"Chehalis School District","fips":53,"city_mailing":"CHEHALIS","state_mailing":"WA","zip_mailing":"98532","latitude":46.650514,"longitude":-122.949539,"enrollment":3012,"teachers_total_fte":172.72,"number_of_schools":8,"agency_type":1,"lowest_grade_offered":-1,"highest_grade_offered":12,"county_name":"Lewis County","phone":"(360)807-7200"},{"leaid":"5303090","lea_name":"Goldendale School District","fips":53,"city_mailing":"GOLDENDALE","state_mailing":"WA","zip_mailing":"98620","latitude":45.817534,"longitude":-120.813652,"enrollment":2976,"teachers_total_fte":129.45,"number_of_schools":5,"agency_type":1,"lowest_grade_offered":-1,"highest_grade_offered":12,"county_name":"Klickitat County","phone":"(509)773-5177"},{"leaid":"5309540","lea_name":"Washougal School District","fips":53,"city_mailing":"WASHOUGAL","state_mailing":"WA","zip_mailing":"98671","latitude":45.575554,"longitude":-122.316957,"enrollment":2865,"teachers_total_fte":161.72,"number_of_schools":9,"agency_type":1,"lowest_grade_offered":-1,"highest_grade_offered":12,"county_name":"Clark County","phone":"(360)954-3000"},{"leaid":"5302610","lea_name":"Ephrata School District","fips":53,"city_mailing":"EPHRATA","state_mailing":"WA","zip_mailing":"98823","latitude":47.324379,"longitude":-119.547602,"enrollment":2807,"teachers_total_fte":149.12,"number_of_schools":8,"agency_type":1,"lowest_grade_offered":-1,"highest_grade_offered":12,"county_name":"Grant County","phone":"(509)754-2474"},{"leaid":"5302070","lea_name":"Deer Park School District","fips":53,"city_mailing":"DEER PARK","state_mailing":"WA","zip_mailing":"99006","latitude":47.958689,"longitude":-117.476102,"enrollment":2774,"teachers_total_fte":148.21,"number_of_schools":7,"agency_type":1,"lowest_grade_offered":-1,"highest_grade_offered":12,"county_name":"Spokane County","phone":"(509)464-5500"},{"leaid":"5306450","lea_name":"Orting School District","fips":53,"city_mailing":"ORTING","state_mailing":"WA","zip_mailing":"98360","latitude":47.100629,"longitude":-122.206912,"enrollment":2748,"teachers_total_fte":144.45,"number_of_schools":7,"agency_type":1,"lowest_grade_offered":-1,"highest_grade_offered":12,"county_name":"Pierce County","phone":"(360)893-6500"},{"leaid":"5306930","lea_name":"Pullman School District","fips":53,"city_mailing":"PULLMAN","state_mailing":"WA","zip_mailing":"99163","latitude":46.724549,"longitude":-117.180779,"enrollment":2740,"teachers_total_fte":176.07,"number_of_schools":6,"agency_type":1,"lowest_grade_offered":-1,"highest_grade_offered":12,"county_name":"Whitman County","phone":"(509)332-3581"},{"leaid":"5308130","lea_name":"Tukwila School District","fips":53,"city_mailing":"TUKWILA","state_mailing":"WA","zip_mailing":"98168","latitude":47.474397,"longitude":-122.274061,"enrollment":2715,"teachers_total_fte":161.87,"number_of_schools":8,"agency_type":1,"lowest_grade_offered":-1,"highest_grade_offered":12,"county_name":"King County","phone":"(206)901-8000"},{"leaid":"5304260","lea_name":"Lakewood School District","fips":53,"city_mailing":"Marysville","state_mailing":"WA","zip_mailing":"98271","latitude":48.151278,"longitude":-122.208282,"enrollment":2627,"teachers_total_fte":139.86,"number_of_schools":5,"agency_type":1,"lowest_grade_offered":-1,"highest_grade_offered":12,"county_name":"Snohomish County","phone":"(360)652-4500"},{"leaid":"5300150","lea_name":"Anacortes School District","fips":53,"city_mailing":"ANACORTES","state_mailing":"WA","zip_mailing":"98221","latitude":48.504043,"longitude":-122.618464,"enrollment":2606,"teachers_total_fte":143.74,"number_of_schools":8,"agency_type":1,"lowest_grade_offered":-1,"highest_grade_offered":12,"county_name":"Skagit County","phone":"(360)503-1200"},{"leaid":"5307830","lea_name":"Sequim School District","fips":53,"city_mailing":"SEQUIM","state_mailing":"WA","zip_mailing":"98382","latitude":48.08351,"longitude":-123.102636,"enrollment":2602,"teachers_total_fte":151.72,"number_of_schools":6,"agency_type":1,"lowest_grade_offered":-1,"highest_grade_offered":12,"county_name":"Clallam County","phone":"(360)582-3260"},{"leaid":"5309360","lea_name":"Wahluke School District","fips":53,"city_mailing":"MATTAWA","state_mailing":"WA","zip_mailing":"99349","latitude":46.740662,"longitude":-119.896433,"enrollment":2536,"teachers_total_fte":150.81,"number_of_schools":8,"agency_type":1,"lowest_grade_offered":-1,"highest_grade_offered":12,"county_name":"Grant County","phone":"(509)932-4565"},{"leaid":"5301320","lea_name":"Clarkston School District","fips":53,"city_mailing":"CLARKSTON","state_mailing":"WA","zip_mailing":"99403","latitude":46.411133,"longitude":-117.058266,"enrollment":2518,"teachers_total_fte":142.45,"number_of_schools":10,"agency_type":1,"lowest_grade_offered":-1,"highest_grade_offered":12,"county_name":"Asotin County","phone":"(509)758-2531"},{"leaid":"5307020","lea_name":"Quillayute Valley School District","fips":53,"city_mailing":"FORKS","state_mailing":"WA","zip_mailing":"98331","latitude":47.946599,"longitude":-124.383947,"enrollment":2473,"teachers_total_fte":180.72,"number_of_schools":6,"agency_type":1,"lowest_grade_offered":0,"highest_grade_offered":12,"county_name":"Clallam County","phone":"(360)374-6262"},{"leaid":"5310050","lea_name":"Woodland School District","fips":53,"city_mailing":"WOODLAND","state_mailing":"WA","zip_mailing":"98674","latitude":45.904061,"longitude":-122.749337,"enrollment":2432,"teachers_total_fte":140.86,"number_of_schools":7,"agency_type":1,"lowest_grade_offered":-1,"highest_grade_offered":12,"county_name":"Cowlitz County","phone":"(360)841-2700"},{"leaid":"5306900","lea_name":"Prosser School District","fips":53,"city_mailing":"PROSSER","state_mailing":"WA","zip_mailing":"99350","latitude":46.211791,"longitude":-119.771004,"enrollment":2414,"teachers_total_fte":136.18,"number_of_schools":6,"agency_type":1,"lowest_grade_offered":-1,"highest_grade_offered":12,"county_name":"Benton County","phone":"(509)786-3323"},{"leaid":"5303210","lea_name":"Granite Falls School District","fips":53,"city_mailing":"Granite Falls","state_mailing":"WA","zip_mailing":"98252","latitude":48.08459,"longitude":-121.963361,"enrollment":2326,"teachers_total_fte":137.03,"number_of_schools":6,"agency_type":1,"lowest_grade_offered":-1,"highest_grade_offered":12,"county_name":"Snohomish County","phone":"(360)691-7717"},{"leaid":"5305790","lea_name":"North Mason School District","fips":53,"city_mailing":"Belfair","state_mailing":"WA","zip_mailing":"98528","latitude":47.414238,"longitude":-122.842646,"enrollment":2309,"teachers_total_fte":142.63,"number_of_schools":8,"agency_type":1,"lowest_grade_offered":-1,"highest_grade_offered":12,"county_name":"Mason County","phone":"(360)277-2300"},{"leaid":"5307470","lea_name":"Rochester School District","fips":53,"city_mailing":"ROCHESTER","state_mailing":"WA","zip_mailing":"98579","latitude":46.822485,"longitude":-123.096546,"enrollment":2150,"teachers_total_fte":129.51,"number_of_schools":6,"agency_type":1,"lowest_grade_offered":-1,"highest_grade_offered":12,"county_name":"Thurston County","phone":"(360)273-9242"},{"leaid":"5300570","lea_name":"Blaine School District","fips":53,"city_mailing":"BLAINE","state_mailing":"WA","zip_mailing":"98230","latitude":48.993784,"longitude":-122.742178,"enrollment":2081,"teachers_total_fte":130.72,"number_of_schools":7,"agency_type":1,"lowest_grade_offered":-1,"highest_grade_offered":12,"county_name":"Whatcom County","phone":"(360)332-5881"},{"leaid":"5308550","lea_name":"Sultan School District","fips":53,"city_mailing":"SULTAN","state_mailing":"WA","zip_mailing":"98294","latitude":47.866331,"longitude":-121.816115,"enrollment":2074,"teachers_total_fte":118.61,"number_of_schools":8,"agency_type":1,"lowest_grade_offered":-1,"highest_grade_offered":12,"county_name":"Snohomish County","phone":"(360)793-9800"},{"leaid":"5305730","lea_name":"North Franklin School District","fips":53,"city_mailing":"CONNELL","state_mailing":"WA","zip_mailing":"99326","latitude":46.662227,"longitude":-118.872644,"enrollment":2037,"teachers_total_fte":132.73,"number_of_schools":9,"agency_type":1,"lowest_grade_offered":-1,"highest_grade_offered":12,"county_name":"Franklin County","phone":"(509)234-2021"},{"leaid":"5303570","lea_name":"Hockinson School District","fips":53,"city_mailing":"BRUSH PRAIRIE","state_mailing":"WA","zip_mailing":"98606","latitude":45.73832,"longitude":-122.488219,"enrollment":2000,"teachers_total_fte":104.79,"number_of_schools":3,"agency_type":1,"lowest_grade_offered":0,"highest_grade_offered":12,"county_name":"Clark County","phone":"(360)448-6407"},{"leaid":"5302370","lea_name":"Eatonville School District","fips":53,"city_mailing":"EATONVILLE","state_mailing":"WA","zip_mailing":"98328","latitude":46.870731,"longitude":-122.268455,"enrollment":1944,"teachers_total_fte":111.92,"number_of_schools":9,"agency_type":1,"lowest_grade_offered":-1,"highest_grade_offered":12,"county_name":"Pierce County","phone":"(360)879-1000"},{"leaid":"5305670","lea_name":"Nooksack Valley School District","fips":53,"city_mailing":"EVERSON","state_mailing":"WA","zip_mailing":"98247","latitude":48.964666,"longitude":-122.307397,"enrollment":1912,"teachers_total_fte":127.23,"number_of_schools":7,"agency_type":1,"lowest_grade_offered":-1,"highest_grade_offered":12,"county_name":"Whatcom County","phone":"(360)988-4754"},{"leaid":"5304950","lea_name":"Medical Lake School District","fips":53,"city_mailing":"MEDICAL LAKE","state_mailing":"WA","zip_mailing":"99022","latitude":47.576171,"longitude":-117.68351,"enrollment":1897,"teachers_total_fte":113.82,"number_of_schools":4,"agency_type":1,"lowest_grade_offered":-1,"highest_grade_offered":12,"county_name":"Spokane County","phone":"(509)565-3100"},{"leaid":"5305010","lea_name":"Meridian School District","fips":53,"city_mailing":"BELLINGHAM","state_mailing":"WA","zip_mailing":"98226","latitude":48.855411,"longitude":-122.492205,"enrollment":1816,"teachers_total_fte":103.15,"number_of_schools":6,"agency_type":1,"lowest_grade_offered":-1,"highest_grade_offered":12,"county_name":"Whatcom County","phone":"(360)398-7111"},{"leaid":"5304170","lea_name":"La Center School District","fips":53,"city_mailing":"LA CENTER","state_mailing":"WA","zip_mailing":"98629","latitude":45.8653,"longitude":-122.6568,"enrollment":1769,"teachers_total_fte":95.24,"number_of_schools":4,"agency_type":1,"lowest_grade_offered":-1,"highest_grade_offered":12,"county_name":"Clark County","phone":"(360)263-2131"},{"leaid":"5307620","lea_name":"Royal School District","fips":53,"city_mailing":"Royal City","state_mailing":"WA","zip_mailing":"99357","latitude":46.9129,"longitude":-119.626976,"enrollment":1763,"teachers_total_fte":106.01,"number_of_schools":4,"agency_type":1,"lowest_grade_offered":-1,"highest_grade_offered":12,"county_name":"Grant County","phone":"(509)346-2222"},{"leaid":"5302490","lea_name":"Elma School District","fips":53,"city_mailing":"ELMA","state_mailing":"WA","zip_mailing":"98541","latitude":47.003973,"longitude":-123.434105,"enrollment":1708,"teachers_total_fte":91.53,"number_of_schools":6,"agency_type":1,"lowest_grade_offered":-1,"highest_grade_offered":12,"county_name":"Grays Harbor County","phone":"(360)482-2822"},{"leaid":"5305310","lea_name":"Mount Baker School District","fips":53,"city_mailing":"DEMING","state_mailing":"WA","zip_mailing":"98244","latitude":48.825048,"longitude":-122.220255,"enrollment":1692,"teachers_total_fte":108.29,"number_of_schools":7,"agency_type":1,"lowest_grade_offered":-1,"highest_grade_offered":12,"county_name":"Whatcom County","phone":"(360)383-2000"},{"leaid":"5301630","lea_name":"Colville School District","fips":53,"city_mailing":"COLVILLE","state_mailing":"WA","zip_mailing":"99114","latitude":48.543231,"longitude":-117.896813,"enrollment":1685,"teachers_total_fte":102.16,"number_of_schools":6,"agency_type":1,"lowest_grade_offered":-1,"highest_grade_offered":12,"county_name":"Stevens County","phone":"(509)684-7850"},{"leaid":"5303660","lea_name":"Hoquiam School District","fips":53,"city_mailing":"HOQUIAM","state_mailing":"WA","zip_mailing":"98550","latitude":46.984014,"longitude":-123.906668,"enrollment":1640,"teachers_total_fte":97.48,"number_of_schools":6,"agency_type":1,"lowest_grade_offered":-1,"highest_grade_offered":12,"county_name":"Grays Harbor County","phone":"(360)538-8200"},{"leaid":"5307440","lea_name":"Riverside School District","fips":53,"city_mailing":"CHATTAROY","state_mailing":"WA","zip_mailing":"99003","latitude":47.968825,"longitude":-117.350248,"enrollment":1605,"teachers_total_fte":90.33,"number_of_schools":5,"agency_type":1,"lowest_grade_offered":-1,"highest_grade_offered":12,"county_name":"Spokane County","phone":"(509)464-8201"},{"leaid":"5300960","lea_name":"Cashmere School District","fips":53,"city_mailing":"CASHMERE","state_mailing":"WA","zip_mailing":"98815","latitude":47.51942,"longitude":-120.470551,"enrollment":1580,"teachers_total_fte":101.2,"number_of_schools":3,"agency_type":1,"lowest_grade_offered":-1,"highest_grade_offered":12,"county_name":"Chelan County","phone":"(509)782-3355"},{"leaid":"5301470","lea_name":"College Place School District","fips":53,"city_mailing":"COLLEGE PLACE","state_mailing":"WA","zip_mailing":"99324","latitude":46.031023,"longitude":-118.387252,"enrollment":1554,"teachers_total_fte":98.7,"number_of_schools":4,"agency_type":1,"lowest_grade_offered":-1,"highest_grade_offered":12,"county_name":"Walla Walla County","phone":"(509)525-4827"},{"leaid":"5309300","lea_name":"Vashon Island School District","fips":53,"city_mailing":"VASHON","state_mailing":"WA","zip_mailing":"98070","latitude":47.427515,"longitude":-122.452465,"enrollment":1539,"teachers_total_fte":76.7,"number_of_schools":5,"agency_type":1,"lowest_grade_offered":-1,"highest_grade_offered":12,"county_name":"King County","phone":"(206)463-8530"},{"leaid":"5300990","lea_name":"Castle Rock School District","fips":53,"city_mailing":"CASTLE ROCK","state_mailing":"WA","zip_mailing":"98611","latitude":46.271822,"longitude":-122.905495,"enrollment":1508,"teachers_total_fte":86.38,"number_of_schools":4,"agency_type":1,"lowest_grade_offered":-1,"highest_grade_offered":12,"county_name":"Cowlitz County","phone":"(360)501-2940"},{"leaid":"5303180","lea_name":"Granger School District","fips":53,"city_mailing":"GRANGER","state_mailing":"WA","zip_mailing":"98932","latitude":46.347689,"longitude":-120.189083,"enrollment":1501,"teachers_total_fte":86.36,"number_of_schools":3,"agency_type":1,"lowest_grade_offered":-1,"highest_grade_offered":12,"county_name":"Yakima County","phone":"(509)854-1515"},{"leaid":"5305640","lea_name":"Nine Mile Falls School District","fips":53,"city_mailing":"NINE MILE FALLS","state_mailing":"WA","zip_mailing":"99026","latitude":47.780819,"longitude":-117.552556,"enrollment":1435,"teachers_total_fte":88.05,"number_of_schools":5,"agency_type":1,"lowest_grade_offered":-1,"highest_grade_offered":12,"county_name":"Spokane County","phone":"(509)340-4300"},{"leaid":"5305160","lea_name":"Montesano School District","fips":53,"city_mailing":"MONTESANO","state_mailing":"WA","zip_mailing":"98563","latitude":46.982869,"longitude":-123.595293,"enrollment":1430,"teachers_total_fte":82.87,"number_of_schools":3,"agency_type":1,"lowest_grade_offered":-1,"highest_grade_offered":12,"county_name":"Grays Harbor County","phone":"(360)249-3942"},{"leaid":"5302130","lea_name":"Dieringer School District","fips":53,"city_mailing":"Lake Tapps","state_mailing":"WA","zip_mailing":"98391","latitude":47.245729,"longitude":-122.19217,"enrollment":1402,"teachers_total_fte":83.75,"number_of_schools":3,"agency_type":1,"lowest_grade_offered":0,"highest_grade_offered":8,"county_name":"Pierce County","phone":"(253)862-2537"},{"leaid":"5304020","lea_name":"Kiona-Benton City School District","fips":53,"city_mailing":"BENTON CITY","state_mailing":"WA","zip_mailing":"99320","latitude":46.263436,"longitude":-119.490799,"enrollment":1372,"teachers_total_fte":85.76,"number_of_schools":3,"agency_type":1,"lowest_grade_offered":-1,"highest_grade_offered":12,"county_name":"Benton County","phone":"(509)588-2000"},{"leaid":"5301200","lea_name":"Lake Chelan School District","fips":53,"city_mailing":"CHELAN","state_mailing":"WA","zip_mailing":"98816","latitude":47.841235,"longitude":-120.014119,"enrollment":1335,"teachers_total_fte":84.46,"number_of_schools":6,"agency_type":1,"lowest_grade_offered":-1,"highest_grade_offered":12,"county_name":"Chelan County","phone":"(509)682-3515"},{"leaid":"5310170","lea_name":"Zillah School District","fips":53,"city_mailing":"ZILLAH","state_mailing":"WA","zip_mailing":"98953","latitude":46.407147,"longitude":-120.265206,"enrollment":1299,"teachers_total_fte":75.45,"number_of_schools":4,"agency_type":1,"lowest_grade_offered":-1,"highest_grade_offered":12,"county_name":"Yakima County","phone":"(509)829-5911"},{"leaid":"5305460","lea_name":"Naches Valley School District","fips":53,"city_mailing":"NACHES","state_mailing":"WA","zip_mailing":"98937","latitude":46.727929,"longitude":-120.695,"enrollment":1294,"teachers_total_fte":82.64,"number_of_schools":4,"agency_type":1,"lowest_grade_offered":0,"highest_grade_offered":12,"county_name":"Yakima County","phone":"(509)653-2220"},{"leaid":"5308820","lea_name":"Tenino School District","fips":53,"city_mailing":"TENINO","state_mailing":"WA","zip_mailing":"98589","latitude":46.861469,"longitude":-122.84729,"enrollment":1287,"teachers_total_fte":78.98,"number_of_schools":4,"agency_type":1,"lowest_grade_offered":-1,"highest_grade_offered":12,"county_name":"Thurston County","phone":"(360)264-3411"},{"leaid":"5300950","lea_name":"Cascade School District","fips":53,"city_mailing":"LEAVENWORTH","state_mailing":"WA","zip_mailing":"98826","latitude":47.59776,"longitude":-120.663771,"enrollment":1252,"teachers_total_fte":84.92,"number_of_schools":7,"agency_type":1,"lowest_grade_offered":-1,"highest_grade_offered":12,"county_name":"Chelan County","phone":"(509)548-5885"},{"leaid":"5306840","lea_name":"Port Townsend School District","fips":53,"city_mailing":"Port Townsend","state_mailing":"WA","zip_mailing":"98368","latitude":48.116989,"longitude":-122.769235,"enrollment":1206,"teachers_total_fte":77.07,"number_of_schools":4,"agency_type":1,"lowest_grade_offered":-1,"highest_grade_offered":12,"county_name":"Jefferson County","phone":"(360)379-4501"},{"leaid":"5308190","lea_name":"South Whidbey School District","fips":53,"city_mailing":"Langley","state_mailing":"WA","zip_mailing":"98260","latitude":48.008516,"longitude":-122.412012,"enrollment":1202,"teachers_total_fte":66.76,"number_of_schools":5,"agency_type":1,"lowest_grade_offered":-1,"highest_grade_offered":12,"county_name":"Island County","phone":"(360)221-6100"},{"leaid":"5308940","lea_name":"Tonasket School District","fips":53,"city_mailing":"TONASKET","state_mailing":"WA","zip_mailing":"98855","latitude":48.701185,"longitude":-119.432813,"enrollment":1166,"teachers_total_fte":72.04,"number_of_schools":5,"agency_type":1,"lowest_grade_offered":-1,"highest_grade_offered":12,"county_name":"Okanogan County","phone":"(509)486-2126"},{"leaid":"5303810","lea_name":"Kalama School District","fips":53,"city_mailing":"KALAMA","state_mailing":"WA","zip_mailing":"98625","latitude":46.007946,"longitude":-122.838855,"enrollment":1151,"teachers_total_fte":74.21,"number_of_schools":3,"agency_type":1,"lowest_grade_offered":0,"highest_grade_offered":12,"county_name":"Cowlitz County","phone":"(360)673-5282"},{"leaid":"5303990","lea_name":"Kettle Falls School District","fips":53,"city_mailing":"KETTLE FALLS","state_mailing":"WA","zip_mailing":"99141","latitude":48.61037,"longitude":-118.060311,"enrollment":1125,"teachers_total_fte":58.4,"number_of_schools":5,"agency_type":1,"lowest_grade_offered":-1,"highest_grade_offered":12,"county_name":"Stevens County","phone":"(509)738-6625"},{"leaid":"5309810","lea_name":"White Salmon Valley School District","fips":53,"city_mailing":"WHITE SALMON","state_mailing":"WA","zip_mailing":"98672","latitude":45.729182,"longitude":-121.488272,"enrollment":1114,"teachers_total_fte":66.41,"number_of_schools":5,"agency_type":1,"lowest_grade_offered":0,"highest_grade_offered":12,"county_name":"Klickitat County","phone":"(509)493-1500"},{"leaid":"5303510","lea_name":"Highland School District","fips":53,"city_mailing":"COWICHE","state_mailing":"WA","zip_mailing":"98923","latitude":46.674805,"longitude":-120.712021,"enrollment":1094,"teachers_total_fte":61.59,"number_of_schools":4,"agency_type":1,"lowest_grade_offered":-1,"highest_grade_offered":12,"county_name":"Yakima County","phone":"(509)678-8630"},{"leaid":"5305610","lea_name":"Newport School District","fips":53,"city_mailing":"NEWPORT","state_mailing":"WA","zip_mailing":"99156","latitude":48.176512,"longitude":-117.060522,"enrollment":1091,"teachers_total_fte":71.57,"number_of_schools":5,"agency_type":1,"lowest_grade_offered":-1,"highest_grade_offered":12,"county_name":"Pend Oreille County","phone":"(509)447-3167"},{"leaid":"5309240","lea_name":"Valley School District","fips":53,"city_mailing":"Valley","state_mailing":"WA","zip_mailing":"99181","latitude":48.170482,"longitude":-117.721184,"enrollment":1079,"teachers_total_fte":50.98,"number_of_schools":4,"agency_type":1,"lowest_grade_offered":-1,"highest_grade_offered":12,"county_name":"Stevens County","phone":"(509)937-2791"},{"leaid":"5306150","lea_name":"Okanogan School District","fips":53,"city_mailing":"OKANOGAN","state_mailing":"WA","zip_mailing":"98840","latitude":48.362223,"longitude":-119.581782,"enrollment":1065,"teachers_total_fte":62.89,"number_of_schools":6,"agency_type":1,"lowest_grade_offered":0,"highest_grade_offered":12,"county_name":"Okanogan County","phone":"(509)422-3629"},{"leaid":"5301800","lea_name":"Coupeville School District","fips":53,"city_mailing":"COUPEVILLE","state_mailing":"WA","zip_mailing":"98239","latitude":48.206754,"longitude":-122.684785,"enrollment":1055,"teachers_total_fte":57.83,"number_of_schools":7,"agency_type":1,"lowest_grade_offered":-1,"highest_grade_offered":12,"county_name":"Island County","phone":"(360)678-2404"},{"leaid":"5304800","lea_name":"Mary M. Knight School District","fips":53,"city_mailing":"ELMA","state_mailing":"WA","zip_mailing":"98541","latitude":47.19933,"longitude":-123.432421,"enrollment":1045,"teachers_total_fte":52.5,"number_of_schools":2,"agency_type":1,"lowest_grade_offered":-1,"highest_grade_offered":12,"county_name":"Mason County","phone":"(360)426-6767"},{"leaid":"5306060","lea_name":"Ocean Beach School District","fips":53,"city_mailing":"Long Beach","state_mailing":"WA","zip_mailing":"98631","latitude":46.348834,"longitude":-124.052321,"enrollment":1033,"teachers_total_fte":63.6,"number_of_schools":6,"agency_type":1,"lowest_grade_offered":-1,"highest_grade_offered":12,"county_name":"Pacific County","phone":"(360)642-3739"},{"leaid":"5300690","lea_name":"Brewster School District","fips":53,"city_mailing":"BREWSTER","state_mailing":"WA","zip_mailing":"98812","latitude":48.099412,"longitude":-119.783193,"enrollment":1012,"teachers_total_fte":58.08,"number_of_schools":4,"agency_type":1,"lowest_grade_offered":-1,"highest_grade_offered":12,"county_name":"Okanogan County","phone":"(509)689-3418"},{"leaid":"5301350","lea_name":"Cle Elum-Roslyn School District","fips":53,"city_mailing":"CLE ELUM","state_mailing":"WA","zip_mailing":"98922","latitude":47.205671,"longitude":-120.979831,"enrollment":972,"teachers_total_fte":56.16,"number_of_schools":4,"agency_type":1,"lowest_grade_offered":-1,"highest_grade_offered":12,"county_name":"Kittitas County","phone":"(509)649-4850"},{"leaid":"5307110","lea_name":"Rainier School District","fips":53,"city_mailing":"RAINIER","state_mailing":"WA","zip_mailing":"98576","latitude":46.886673,"longitude":-122.687356,"enrollment":931,"teachers_total_fte":57.0,"number_of_schools":3,"agency_type":1,"lowest_grade_offered":-1,"highest_grade_offered":12,"county_name":"Thurston County","phone":"(360)446-2207"},{"leaid":"5309510","lea_name":"Warden School District","fips":53,"city_mailing":"WARDEN","state_mailing":"WA","zip_mailing":"98857","latitude":46.9606,"longitude":-119.0415,"enrollment":902,"teachers_total_fte":50.79,"number_of_schools":3,"agency_type":1,"lowest_grade_offered":-1,"highest_grade_offered":12,"county_name":"Grant County","phone":"(509)349-2366"},{"leaid":"5305280","lea_name":"Mount Adams School District","fips":53,"city_mailing":"WHITE SWAN","state_mailing":"WA","zip_mailing":"98952","latitude":46.378457,"longitude":-120.732417,"enrollment":889,"teachers_total_fte":61.06,"number_of_schools":3,"agency_type":1,"lowest_grade_offered":-1,"highest_grade_offered":12,"county_name":"Yakima County","phone":"(509)874-2611"},{"leaid":"5302970","lea_name":"Freeman School District","fips":53,"city_mailing":"ROCKFORD","state_mailing":"WA","zip_mailing":"99030","latitude":47.5177,"longitude":-117.1944,"enrollment":878,"teachers_total_fte":54.96,"number_of_schools":3,"agency_type":1,"lowest_grade_offered":-1,"highest_grade_offered":12,"county_name":"Spokane County","phone":"(509)291-3695"},{"leaid":"5302910","lea_name":"Finley School District","fips":53,"city_mailing":"KENNEWICK","state_mailing":"WA","zip_mailing":"99337","latitude":46.154041,"longitude":-119.029164,"enrollment":871,"teachers_total_fte":50.35,"number_of_schools":3,"agency_type":1,"lowest_grade_offered":-1,"highest_grade_offered":12,"county_name":"Benton County","phone":"(509)586-3217"},{"leaid":"5306240","lea_name":"Onalaska School District","fips":53,"city_mailing":"ONALASKA","state_mailing":"WA","zip_mailing":"98570","latitude":46.581248,"longitude":-122.720144,"enrollment":868,"teachers_total_fte":52.01,"number_of_schools":3,"agency_type":1,"lowest_grade_offered":-1,"highest_grade_offered":12,"county_name":"Lewis County","phone":"(360)978-4111"},{"leaid":"5309930","lea_name":"Winlock School District","fips":53,"city_mailing":"WINLOCK","state_mailing":"WA","zip_mailing":"98596","latitude":46.492593,"longitude":-122.936904,"enrollment":858,"teachers_total_fte":50.61,"number_of_schools":4,"agency_type":1,"lowest_grade_offered":-1,"highest_grade_offered":12,"county_name":"Lewis County","phone":"(360)785-3582"},{"leaid":"5308520","lea_name":"Stevenson-Carson School District","fips":53,"city_mailing":"STEVENSON","state_mailing":"WA","zip_mailing":"98648","latitude":45.699385,"longitude":-121.88689,"enrollment":843,"teachers_total_fte":46.95,"number_of_schools":6,"agency_type":1,"lowest_grade_offered":-1,"highest_grade_offered":12,"county_name":"Skamania County","phone":"(509)427-5674"},{"leaid":"5308910","lea_name":"Toledo School District","fips":53,"city_mailing":"TOLEDO","state_mailing":"WA","zip_mailing":"98591","latitude":46.43871,"longitude":-122.846481,"enrollment":843,"teachers_total_fte":48.39,"number_of_schools":4,"agency_type":1,"lowest_grade_offered":-1,"highest_grade_offered":12,"county_name":"Lewis County","phone":"(360)864-6325"},{"leaid":"5305490","lea_name":"Napavine School District","fips":53,"city_mailing":"Napavine","state_mailing":"WA","zip_mailing":"98565","latitude":46.578167,"longitude":-122.903558,"enrollment":814,"teachers_total_fte":47.87,"number_of_schools":2,"agency_type":1,"lowest_grade_offered":-1,"highest_grade_offered":12,"county_name":"Lewis County","phone":"(360)262-3303"},{"leaid":"5301260","lea_name":"Chewelah School District","fips":53,"city_mailing":"CHEWELAH","state_mailing":"WA","zip_mailing":"99109","latitude":48.27802,"longitude":-117.715151,"enrollment":789,"teachers_total_fte":47.65,"number_of_schools":4,"agency_type":1,"lowest_grade_offered":0,"highest_grade_offered":12,"county_name":"Stevens County","phone":"(509)935-6800"},{"leaid":"5307650","lea_name":"San Juan Island School District","fips":53,"city_mailing":"FRIDAY HARBOR","state_mailing":"WA","zip_mailing":"98250","latitude":48.533637,"longitude":-123.020579,"enrollment":782,"teachers_total_fte":50.8,"number_of_schools":5,"agency_type":1,"lowest_grade_offered":0,"highest_grade_offered":12,"county_name":"San Juan County","phone":"(360)378-4133"},{"leaid":"5300720","lea_name":"Bridgeport School District","fips":53,"city_mailing":"BRIDGEPORT","state_mailing":"WA","zip_mailing":"98813","latitude":48.005585,"longitude":-119.675029,"enrollment":776,"teachers_total_fte":49.75,"number_of_schools":4,"agency_type":1,"lowest_grade_offered":-1,"highest_grade_offered":12,"county_name":"Douglas County","phone":"(509)686-5656"},{"leaid":"5303130","lea_name":"Grand Coulee Dam School District","fips":53,"city_mailing":"COULEE DAM","state_mailing":"WA","zip_mailing":"99116","latitude":47.962322,"longitude":-118.986487,"enrollment":771,"teachers_total_fte":44.59,"number_of_schools":3,"agency_type":1,"lowest_grade_offered":-1,"highest_grade_offered":12,"county_name":"Douglas County","phone":"(509)633-2143"},{"leaid":"5304650","lea_name":"Mabton School District","fips":53,"city_mailing":"MABTON","state_mailing":"WA","zip_mailing":"98935","latitude":46.212881,"longitude":-119.996993,"enrollment":771,"teachers_total_fte":50.78,"number_of_schools":3,"agency_type":1,"lowest_grade_offered":0,"highest_grade_offered":12,"county_name":"Yakima County","phone":"(509)894-4852"},{"leaid":"5306750","lea_name":"Pioneer School District","fips":53,"city_mailing":"SHELTON","state_mailing":"WA","zip_mailing":"98584","latitude":47.258921,"longitude":-123.001121,"enrollment":759,"teachers_total_fte":56.0,"number_of_schools":3,"agency_type":1,"lowest_grade_offered":-1,"highest_grade_offered":8,"county_name":"Mason County","phone":"(360)426-9115"},{"leaid":"5305020","lea_name":"Methow Valley School District","fips":53,"city_mailing":"WINTHROP","state_mailing":"WA","zip_mailing":"98862","latitude":48.4421,"longitude":-120.17,"enrollment":756,"teachers_total_fte":54.05,"number_of_schools":4,"agency_type":1,"lowest_grade_offered":-1,"highest_grade_offered":12,"county_name":"Okanogan County","phone":"(509)996-9205"},{"leaid":"5301590","lea_name":"Columbia (Walla Walla) School District","fips":53,"city_mailing":"BURBANK","state_mailing":"WA","zip_mailing":"99323","latitude":46.200065,"longitude":-119.008785,"enrollment":734,"teachers_total_fte":48.8,"number_of_schools":3,"agency_type":1,"lowest_grade_offered":0,"highest_grade_offered":12,"county_name":"Walla Walla County","phone":"(509)547-2136"},{"leaid":"5306990","lea_name":"Quilcene School District","fips":53,"city_mailing":"QUILCENE","state_mailing":"WA","zip_mailing":"98376","latitude":47.8236,"longitude":-122.8745,"enrollment":726,"teachers_total_fte":29.0,"number_of_schools":2,"agency_type":1,"lowest_grade_offered":-1,"highest_grade_offered":12,"county_name":"Jefferson County","phone":"(360)765-3363"},{"leaid":"5301290","lea_name":"Chimacum School District","fips":53,"city_mailing":"CHIMACUM","state_mailing":"WA","zip_mailing":"98325","latitude":48.012077,"longitude":-122.778031,"enrollment":717,"teachers_total_fte":43.78,"number_of_schools":5,"agency_type":1,"lowest_grade_offered":-1,"highest_grade_offered":12,"county_name":"Jefferson County","phone":"(360)302-5892"},{"leaid":"5306300","lea_name":"Orcas Island School District","fips":53,"city_mailing":"EASTSOUND","state_mailing":"WA","zip_mailing":"98245","latitude":48.699133,"longitude":-122.902922,"enrollment":701,"teachers_total_fte":40.19,"number_of_schools":6,"agency_type":1,"lowest_grade_offered":0,"highest_grade_offered":12,"county_name":"San Juan County","phone":"(360)376-2284"},{"leaid":"5309030","lea_name":"Toutle Lake School District","fips":53,"city_mailing":"TOUTLE","state_mailing":"WA","zip_mailing":"98649","latitude":46.3236,"longitude":-122.7405,"enrollment":690,"teachers_total_fte":38.8,"number_of_schools":2,"agency_type":1,"lowest_grade_offered":0,"highest_grade_offered":12,"county_name":"Cowlitz County","phone":"(360)274-6182"},{"leaid":"5305700","lea_name":"North Beach School District","fips":53,"city_mailing":"OCEAN SHORES","state_mailing":"WA","zip_mailing":"98569","latitude":47.019175,"longitude":-124.15839,"enrollment":689,"teachers_total_fte":46.83,"number_of_schools":4,"agency_type":1,"lowest_grade_offered":-1,"highest_grade_offered":12,"county_name":"Grays Harbor County","phone":"(360)289-2447"},{"leaid":"5307210","lea_name":"Reardan-Edwall School District","fips":53,"city_mailing":"REARDAN","state_mailing":"WA","zip_mailing":"99029","latitude":47.667947,"longitude":-117.875768,"enrollment":671,"teachers_total_fte":42.07,"number_of_schools":3,"agency_type":1,"lowest_grade_offered":0,"highest_grade_offered":12,"county_name":"Lincoln County","phone":"(509)796-2701"},{"leaid":"5300060","lea_name":"Adna School District","fips":53,"city_mailing":"ADNA","state_mailing":"WA","zip_mailing":"98522","latitude":46.634604,"longitude":-123.06045,"enrollment":648,"teachers_total_fte":36.84,"number_of_schools":2,"agency_type":1,"lowest_grade_offered":-1,"highest_grade_offered":12,"county_name":"Lewis County","phone":"(360)748-0362"},{"leaid":"5302010","lea_name":"Davenport School District","fips":53,"city_mailing":"DAVENPORT","state_mailing":"WA","zip_mailing":"99122","latitude":47.651475,"longitude":-118.150178,"enrollment":615,"teachers_total_fte":40.75,"number_of_schools":5,"agency_type":1,"lowest_grade_offered":-1,"highest_grade_offered":12,"county_name":"Lincoln County","phone":"(509)725-1481"},{"leaid":"5304740","lea_name":"Manson School District","fips":53,"city_mailing":"MANSON","state_mailing":"WA","zip_mailing":"98831","latitude":47.890943,"longitude":-120.151442,"enrollment":615,"teachers_total_fte":43.23,"number_of_schools":3,"agency_type":1,"lowest_grade_offered":0,"highest_grade_offered":12,"county_name":"Chelan County","phone":"(509)687-3140"},{"leaid":"5300280","lea_name":"Asotin-Anatone School District","fips":53,"city_mailing":"ASOTIN","state_mailing":"WA","zip_mailing":"99402","latitude":46.340483,"longitude":-117.050207,"enrollment":614,"teachers_total_fte":39.4,"number_of_schools":2,"agency_type":1,"lowest_grade_offered":-1,"highest_grade_offered":12,"county_name":"Asotin County","phone":"(509)243-1100"},{"leaid":"5304050","lea_name":"Kittitas School District","fips":53,"city_mailing":"KITTITAS","state_mailing":"WA","zip_mailing":"98934","latitude":46.988219,"longitude":-120.419684,"enrollment":613,"teachers_total_fte":36.0,"number_of_schools":4,"agency_type":1,"lowest_grade_offered":-1,"highest_grade_offered":12,"county_name":"Kittitas County","phone":"(509)955-3120"},{"leaid":"5304380","lea_name":"Liberty School District","fips":53,"city_mailing":"SPANGLE","state_mailing":"WA","zip_mailing":"99031","latitude":47.3821,"longitude":-117.3216,"enrollment":593,"teachers_total_fte":34.66,"number_of_schools":2,"agency_type":1,"lowest_grade_offered":-1,"highest_grade_offered":12,"county_name":"Spokane County","phone":"(509)624-4415"},{"leaid":"5305250","lea_name":"Mossyrock School District","fips":53,"city_mailing":"MOSSYROCK","state_mailing":"WA","zip_mailing":"98564","latitude":46.532588,"longitude":-122.486105,"enrollment":590,"teachers_total_fte":33.68,"number_of_schools":3,"agency_type":1,"lowest_grade_offered":0,"highest_grade_offered":12,"county_name":"Lewis County","phone":"(360)983-3183"},{"leaid":"5306090","lea_name":"Ocosta School District","fips":53,"city_mailing":"WESTPORT","state_mailing":"WA","zip_mailing":"98595","latitude":46.863504,"longitude":-124.10024,"enrollment":582,"teachers_total_fte":37.13,"number_of_schools":3,"agency_type":1,"lowest_grade_offered":-1,"highest_grade_offered":12,"county_name":"Grays Harbor County","phone":"(360)268-9125"},{"leaid":"5303330","lea_name":"Griffin School District","fips":53,"city_mailing":"OLYMPIA","state_mailing":"WA","zip_mailing":"98502","latitude":47.080628,"longitude":-123.018855,"enrollment":577,"teachers_total_fte":33.62,"number_of_schools":1,"agency_type":1,"lowest_grade_offered":-1,"highest_grade_offered":8,"county_name":"Thurston County","phone":"(360)866-5888"},{"leaid":"5309150","lea_name":"Union Gap School District","fips":53,"city_mailing":"UNION GAP","state_mailing":"WA","zip_mailing":"98903","latitude":46.556098,"longitude":-120.479357,"enrollment":577,"teachers_total_fte":37.0,"number_of_schools":1,"agency_type":1,"lowest_grade_offered":-1,"highest_grade_offered":8,"county_name":"Yakima County","phone":"(509)248-3966"},{"leaid":"5308100","lea_name":"South Bend School District","fips":53,"city_mailing":"SOUTH BEND","state_mailing":"WA","zip_mailing":"98586","latitude":46.661186,"longitude":-123.79479,"enrollment":576,"teachers_total_fte":38.34,"number_of_schools":4,"agency_type":1,"lowest_grade_offered":0,"highest_grade_offered":12,"county_name":"Pacific County","phone":"(360)875-6041"},{"leaid":"5301440","lea_name":"Colfax School District","fips":53,"city_mailing":"COLFAX","state_mailing":"WA","zip_mailing":"99111","latitude":46.8946,"longitude":-117.3606,"enrollment":562,"teachers_total_fte":35.17,"number_of_schools":2,"agency_type":1,"lowest_grade_offered":0,"highest_grade_offered":12,"county_name":"Whitman County","phone":"(509)397-3042"},{"leaid":"5304110","lea_name":"La Conner School District","fips":53,"city_mailing":"LA CONNER","state_mailing":"WA","zip_mailing":"98257","latitude":48.393943,"longitude":-122.489752,"enrollment":536,"teachers_total_fte":40.48,"number_of_schools":3,"agency_type":1,"lowest_grade_offered":0,"highest_grade_offered":12,"county_name":"Skagit County","phone":"(360)466-3171"},{"leaid":"5304830","lea_name":"Mary Walker School District","fips":53,"city_mailing":"SPRINGDALE","state_mailing":"WA","zip_mailing":"99173","latitude":48.059856,"longitude":-117.745927,"enrollment":531,"teachers_total_fte":28.55,"number_of_schools":4,"agency_type":1,"lowest_grade_offered":-1,"highest_grade_offered":12,"county_name":"Stevens County","phone":"(509)258-4534"},{"leaid":"5306420","lea_name":"Oroville School District","fips":53,"city_mailing":"OROVILLE","state_mailing":"WA","zip_mailing":"98844","latitude":48.932741,"longitude":-119.440067,"enrollment":530,"teachers_total_fte":38.14,"number_of_schools":2,"agency_type":1,"lowest_grade_offered":-1,"highest_grade_offered":12,"county_name":"Okanogan County","phone":"(509)476-2281"},{"leaid":"5308070","lea_name":"Soap Lake School District","fips":53,"city_mailing":"SOAP LAKE","state_mailing":"WA","zip_mailing":"98851","latitude":47.384833,"longitude":-119.49737,"enrollment":515,"teachers_total_fte":34.98,"number_of_schools":3,"agency_type":1,"lowest_grade_offered":-1,"highest_grade_offered":12,"county_name":"Grant County","phone":"(509)246-1822"},{"leaid":"5301660","lea_name":"Concrete School District","fips":53,"city_mailing":"CONCRETE","state_mailing":"WA","zip_mailing":"98237","latitude":48.531691,"longitude":-121.758155,"enrollment":495,"teachers_total_fte":36.0,"number_of_schools":4,"agency_type":1,"lowest_grade_offered":-1,"highest_grade_offered":12,"county_name":"Skagit County","phone":"(360)853-4000"},{"leaid":"5307140","lea_name":"Raymond School District","fips":53,"city_mailing":"RAYMOND","state_mailing":"WA","zip_mailing":"98577","latitude":46.684986,"longitude":-123.725165,"enrollment":483,"teachers_total_fte":34.97,"number_of_schools":3,"agency_type":1,"lowest_grade_offered":-1,"highest_grade_offered":12,"county_name":"Pacific County","phone":"(360)942-3415"},{"leaid":"5300840","lea_name":"Cape Flattery School District","fips":53,"city_mailing":"SEKIU","state_mailing":"WA","zip_mailing":"98381","latitude":48.26598,"longitude":-124.332835,"enrollment":479,"teachers_total_fte":39.51,"number_of_schools":4,"agency_type":1,"lowest_grade_offered":-1,"highest_grade_offered":12,"county_name":"Clallam County","phone":"(360)963-2329"},{"leaid":"5305190","lea_name":"Morton School District","fips":53,"city_mailing":"MORTON","state_mailing":"WA","zip_mailing":"98356","latitude":46.5528,"longitude":-122.2722,"enrollment":459,"teachers_total_fte":28.22,"number_of_schools":2,"agency_type":1,"lowest_grade_offered":-1,"highest_grade_offered":12,"county_name":"Lewis County","phone":"(360)496-5300"},{"leaid":"5301980","lea_name":"Darrington School District","fips":53,"city_mailing":"DARRINGTON","state_mailing":"WA","zip_mailing":"98241","latitude":48.247812,"longitude":-121.601718,"enrollment":446,"teachers_total_fte":29.0,"number_of_schools":2,"agency_type":1,"lowest_grade_offered":-1,"highest_grade_offered":12,"county_name":"Snohomish County","phone":"(360)436-1323"},{"leaid":"5301680","lea_name":"Conway School District","fips":53,"city_mailing":"MOUNT VERNON","state_mailing":"WA","zip_mailing":"98274","latitude":48.340472,"longitude":-122.318834,"enrollment":444,"teachers_total_fte":26.31,"number_of_schools":1,"agency_type":1,"lowest_grade_offered":0,"highest_grade_offered":8,"county_name":"Skagit County","phone":"(360)445-5785"},{"leaid":"5309330","lea_name":"Wahkiakum School District","fips":53,"city_mailing":"Cathlamet","state_mailing":"WA","zip_mailing":"98612","latitude":46.200278,"longitude":-123.377436,"enrollment":431,"teachers_total_fte":25.99,"number_of_schools":2,"agency_type":1,"lowest_grade_offered":0,"highest_grade_offered":12,"county_name":"Wahkiakum County","phone":"(360)795-3971"},{"leaid":"5302040","lea_name":"Dayton School District","fips":53,"city_mailing":"DAYTON","state_mailing":"WA","zip_mailing":"99328","latitude":46.316706,"longitude":-117.975102,"enrollment":393,"teachers_total_fte":31.07,"number_of_schools":4,"agency_type":1,"lowest_grade_offered":-1,"highest_grade_offered":12,"county_name":"Columbia County","phone":"(509)382-2543"},{"leaid":"5309630","lea_name":"Wellpinit School District","fips":53,"city_mailing":"WELLPINIT","state_mailing":"WA","zip_mailing":"99040","latitude":47.898331,"longitude":-117.988087,"enrollment":389,"teachers_total_fte":34.29,"number_of_schools":4,"agency_type":1,"lowest_grade_offered":0,"highest_grade_offered":12,"county_name":"Stevens County","phone":"(509)258-4535"},{"leaid":"5307260","lea_name":"Republic School District","fips":53,"city_mailing":"REPUBLIC","state_mailing":"WA","zip_mailing":"99166","latitude":48.641812,"longitude":-118.727111,"enrollment":378,"teachers_total_fte":23.61,"number_of_schools":4,"agency_type":1,"lowest_grade_offered":0,"highest_grade_offered":12,"county_name":"Ferry County","phone":"(509)775-3173"},{"leaid":"5307380","lea_name":"Ritzville School District","fips":53,"city_mailing":"RITZVILLE","state_mailing":"WA","zip_mailing":"99169","latitude":47.126087,"longitude":-118.368355,"enrollment":362,"teachers_total_fte":24.74,"number_of_schools":3,"agency_type":1,"lowest_grade_offered":0,"highest_grade_offered":12,"county_name":"Adams County","phone":"(509)659-1660"},{"leaid":"5301920","lea_name":"Cusick School District","fips":53,"city_mailing":"CUSICK","state_mailing":"WA","zip_mailing":"99119","latitude":48.337,"longitude":-117.2988,"enrollment":356,"teachers_total_fte":24.0,"number_of_schools":4,"agency_type":1,"lowest_grade_offered":0,"highest_grade_offered":12,"county_name":"Pend Oreille County","phone":"(509)445-1125"},{"leaid":"5306780","lea_name":"Pomeroy School District","fips":53,"city_mailing":"POMEROY","state_mailing":"WA","zip_mailing":"99347","latitude":46.4729,"longitude":-117.5969,"enrollment":351,"teachers_total_fte":24.47,"number_of_schools":2,"agency_type":1,"lowest_grade_offered":-1,"highest_grade_offered":12,"county_name":"Garfield County","phone":"(509)843-3393"},{"leaid":"5309750","lea_name":"White Pass School District","fips":53,"city_mailing":"Randle","state_mailing":"WA","zip_mailing":"98377","latitude":46.536704,"longitude":-121.92987,"enrollment":347,"teachers_total_fte":21.03,"number_of_schools":2,"agency_type":1,"lowest_grade_offered":0,"highest_grade_offered":12,"county_name":"Lewis County","phone":"(360)497-3791"},{"leaid":"5303600","lea_name":"Hood Canal School District","fips":53,"city_mailing":"SHELTON","state_mailing":"WA","zip_mailing":"98584","latitude":47.333201,"longitude":-123.15869,"enrollment":346,"teachers_total_fte":23.0,"number_of_schools":1,"agency_type":1,"lowest_grade_offered":-1,"highest_grade_offered":8,"county_name":"Mason County","phone":"(360)877-5463"},{"leaid":"5309870","lea_name":"Willapa Valley School District","fips":53,"city_mailing":"MENLO","state_mailing":"WA","zip_mailing":"98561","latitude":46.624158,"longitude":-123.65146,"enrollment":344,"teachers_total_fte":24.52,"number_of_schools":2,"agency_type":1,"lowest_grade_offered":0,"highest_grade_offered":12,"county_name":"Pacific County","phone":"(360)942-5855"},{"leaid":"5306000","lea_name":"Oakville School District","fips":53,"city_mailing":"OAKVILLE","state_mailing":"WA","zip_mailing":"98568","latitude":46.841324,"longitude":-123.240785,"enrollment":341,"teachers_total_fte":26.64,"number_of_schools":4,"agency_type":1,"lowest_grade_offered":-1,"highest_grade_offered":12,"county_name":"Grays Harbor County","phone":"(360)273-0171"},{"leaid":"5302550","lea_name":"Entiat School District","fips":53,"city_mailing":"ENTIAT","state_mailing":"WA","zip_mailing":"98822","latitude":47.664444,"longitude":-120.225939,"enrollment":337,"teachers_total_fte":25.01,"number_of_schools":2,"agency_type":1,"lowest_grade_offered":-1,"highest_grade_offered":12,"county_name":"Chelan County","phone":"(509)784-1800"},{"leaid":"5301830","lea_name":"Crescent School District","fips":53,"city_mailing":"JOYCE","state_mailing":"WA","zip_mailing":"98343","latitude":48.1362,"longitude":-123.7465,"enrollment":336,"teachers_total_fte":21.48,"number_of_schools":2,"agency_type":1,"lowest_grade_offered":0,"highest_grade_offered":12,"county_name":"Clallam County","phone":"(360)928-3311"},{"leaid":"5304890","lea_name":"McCleary School District","fips":53,"city_mailing":"MCCLEARY","state_mailing":"WA","zip_mailing":"98557","latitude":47.04924,"longitude":-123.265739,"enrollment":332,"teachers_total_fte":22.1,"number_of_schools":1,"agency_type":1,"lowest_grade_offered":-1,"highest_grade_offered":8,"county_name":"Grays Harbor County","phone":"(360)495-3204"},{"leaid":"5305520","lea_name":"Naselle-Grays River Valley School District","fips":53,"city_mailing":"NASELLE","state_mailing":"WA","zip_mailing":"98638","latitude":46.376734,"longitude":-123.801799,"enrollment":316,"teachers_total_fte":21.16,"number_of_schools":2,"agency_type":1,"lowest_grade_offered":0,"highest_grade_offered":12,"county_name":"Pacific County","phone":"(360)484-7121"},{"leaid":"5309390","lea_name":"Waitsburg School District","fips":53,"city_mailing":"WAITSBURG","state_mailing":"WA","zip_mailing":"99361","latitude":46.2667,"longitude":-118.1538,"enrollment":300,"teachers_total_fte":19.0,"number_of_schools":3,"agency_type":1,"lowest_grade_offered":-1,"highest_grade_offered":12,"county_name":"Walla Walla County","phone":"(509)337-6301"},{"leaid":"5305880","lea_name":"Northport School District","fips":53,"city_mailing":"NORTHPORT","state_mailing":"WA","zip_mailing":"99157","latitude":48.911853,"longitude":-117.789274,"enrollment":283,"teachers_total_fte":20.08,"number_of_schools":3,"agency_type":1,"lowest_grade_offered":0,"highest_grade_offered":12,"county_name":"Stevens County","phone":"(509)732-4441"},{"leaid":"5306660","lea_name":"Pe Ell School District","fips":53,"city_mailing":"PE ELL","state_mailing":"WA","zip_mailing":"98572","latitude":46.5749,"longitude":-123.2991,"enrollment":271,"teachers_total_fte":20.16,"number_of_schools":2,"agency_type":1,"lowest_grade_offered":-1,"highest_grade_offered":12,"county_name":"Lewis County","phone":"(360)291-3244"},{"leaid":"5306600","lea_name":"Pateros School District","fips":53,"city_mailing":"PATEROS","state_mailing":"WA","zip_mailing":"98846","latitude":48.051967,"longitude":-119.906507,"enrollment":269,"teachers_total_fte":21.3,"number_of_schools":3,"agency_type":1,"lowest_grade_offered":-1,"highest_grade_offered":12,"county_name":"Okanogan County","phone":"(509)923-2343"},{"leaid":"5307800","lea_name":"Selkirk School District","fips":53,"city_mailing":"METALINE FALLS","state_mailing":"WA","zip_mailing":"99153","latitude":48.86127,"longitude":-117.374001,"enrollment":263,"teachers_total_fte":19.89,"number_of_schools":3,"agency_type":1,"lowest_grade_offered":-1,"highest_grade_offered":12,"county_name":"Pend Oreille County","phone":"(509)446-2951"},{"leaid":"5306870","lea_name":"Prescott School District","fips":53,"city_mailing":"PRESCOTT","state_mailing":"WA","zip_mailing":"99348","latitude":46.297383,"longitude":-118.320078,"enrollment":261,"teachers_total_fte":23.62,"number_of_schools":4,"agency_type":1,"lowest_grade_offered":-1,"highest_grade_offered":12,"county_name":"Walla Walla County","phone":"(509)849-2217"},{"leaid":"5308850","lea_name":"Thorp School District","fips":53,"city_mailing":"THORP","state_mailing":"WA","zip_mailing":"98946","latitude":47.069427,"longitude":-120.675495,"enrollment":257,"teachers_total_fte":20.25,"number_of_schools":1,"agency_type":1,"lowest_grade_offered":0,"highest_grade_offered":12,"county_name":"Kittitas County","phone":"(509)964-2107"},{"leaid":"5301890","lea_name":"Curlew School District","fips":53,"city_mailing":"CURLEW","state_mailing":"WA","zip_mailing":"99118","latitude":48.87442,"longitude":-118.604473,"enrollment":249,"teachers_total_fte":17.38,"number_of_schools":2,"agency_type":1,"lowest_grade_offered":-1,"highest_grade_offered":12,"county_name":"Ferry County","phone":"(509)779-4931"},{"leaid":"5303240","lea_name":"Grapeview School District","fips":53,"city_mailing":"GRAPEVIEW","state_mailing":"WA","zip_mailing":"98546","latitude":47.32,"longitude":-122.9167,"enrollment":241,"teachers_total_fte":17.96,"number_of_schools":1,"agency_type":1,"lowest_grade_offered":0,"highest_grade_offered":8,"county_name":"Mason County","phone":"(360)275-4921"},{"leaid":"5306120","lea_name":"Odessa School District","fips":53,"city_mailing":"ODESSA","state_mailing":"WA","zip_mailing":"99159","latitude":47.330708,"longitude":-118.688616,"enrollment":236,"teachers_total_fte":17.25,"number_of_schools":2,"agency_type":1,"lowest_grade_offered":-1,"highest_grade_offered":12,"county_name":"Lincoln County","phone":"(509)982-2668"},{"leaid":"5309600","lea_name":"Waterville School District","fips":53,"city_mailing":"WATERVILLE","state_mailing":"WA","zip_mailing":"98858","latitude":47.6452,"longitude":-120.0695,"enrollment":232,"teachers_total_fte":20.01,"number_of_schools":2,"agency_type":1,"lowest_grade_offered":0,"highest_grade_offered":12,"county_name":"Douglas County","phone":"(509)745-8584"},{"leaid":"5304530","lea_name":"Lopez School District","fips":53,"city_mailing":"LOPEZ ISLAND","state_mailing":"WA","zip_mailing":"98261","latitude":48.492136,"longitude":-122.897935,"enrollment":228,"teachers_total_fte":13.5,"number_of_schools":3,"agency_type":1,"lowest_grade_offered":0,"highest_grade_offered":12,"county_name":"San Juan County","phone":"(360)468-2202"},{"leaid":"5304500","lea_name":"Loon Lake School District","fips":53,"city_mailing":"LOON LAKE","state_mailing":"WA","zip_mailing":"99148","latitude":48.065,"longitude":-117.6314,"enrollment":221,"teachers_total_fte":12.1,"number_of_schools":2,"agency_type":1,"lowest_grade_offered":-1,"highest_grade_offered":8,"county_name":"Stevens County","phone":"(509)233-2212"},{"leaid":"5304410","lea_name":"Lind School District","fips":53,"city_mailing":"Lind","state_mailing":"WA","zip_mailing":"99341","latitude":46.973353,"longitude":-118.618066,"enrollment":219,"teachers_total_fte":18.36,"number_of_schools":3,"agency_type":1,"lowest_grade_offered":-1,"highest_grade_offered":12,"county_name":"Adams County","phone":"(509)677-3481"},{"leaid":"5309840","lea_name":"Wilbur School District","fips":53,"city_mailing":"WILBUR","state_mailing":"WA","zip_mailing":"99185","latitude":47.753241,"longitude":-118.705664,"enrollment":217,"teachers_total_fte":19.47,"number_of_schools":2,"agency_type":1,"lowest_grade_offered":0,"highest_grade_offered":12,"county_name":"Lincoln County","phone":"(509)647-2221"},{"leaid":"5304590","lea_name":"Lyle School District","fips":53,"city_mailing":"LYLE","state_mailing":"WA","zip_mailing":"98635","latitude":45.694257,"longitude":-121.280414,"enrollment":212,"teachers_total_fte":16.21,"number_of_schools":3,"agency_type":1,"lowest_grade_offered":0,"highest_grade_offered":12,"county_name":"Klickitat County","phone":"(509)365-2191"},{"leaid":"5309000","lea_name":"Touchet School District","fips":53,"city_mailing":"TOUCHET","state_mailing":"WA","zip_mailing":"99360","latitude":46.043441,"longitude":-118.671939,"enrollment":204,"teachers_total_fte":20.0,"number_of_schools":1,"agency_type":1,"lowest_grade_offered":0,"highest_grade_offered":12,"county_name":"Walla Walla County","phone":"(509)394-2352"},{"leaid":"5300002","lea_name":"Inchelium School District","fips":53,"city_mailing":"INCHELIUM","state_mailing":"WA","zip_mailing":"99138","latitude":48.301363,"longitude":-118.198168,"enrollment":201,"teachers_total_fte":18.21,"number_of_schools":3,"agency_type":1,"lowest_grade_offered":0,"highest_grade_offered":12,"county_name":"Ferry County","phone":"(509)722-6181"},{"leaid":"5309060","lea_name":"Trout Lake School District","fips":53,"city_mailing":"TROUT LAKE","state_mailing":"WA","zip_mailing":"98650","latitude":45.989195,"longitude":-121.515747,"enrollment":199,"teachers_total_fte":15.99,"number_of_schools":2,"agency_type":1,"lowest_grade_offered":0,"highest_grade_offered":12,"county_name":"Klickitat County","phone":"(509)395-2571"},{"leaid":"5307050","lea_name":"Lake Quinault School District","fips":53,"city_mailing":"AMANDA PARK","state_mailing":"WA","zip_mailing":"98526","latitude":47.460165,"longitude":-123.897492,"enrollment":196,"teachers_total_fte":15.0,"number_of_schools":1,"agency_type":1,"lowest_grade_offered":0,"highest_grade_offered":12,"county_name":"Grays Harbor County","phone":"(360)288-2260"},{"leaid":"5308220","lea_name":"Southside School District","fips":53,"city_mailing":"SHELTON","state_mailing":"WA","zip_mailing":"98584","latitude":47.198698,"longitude":-123.055935,"enrollment":195,"teachers_total_fte":13.68,"number_of_schools":1,"agency_type":1,"lowest_grade_offered":0,"highest_grade_offered":7,"county_name":"Mason County","phone":"(360)426-8437"},{"leaid":"5308790","lea_name":"Tekoa School District","fips":53,"city_mailing":"TEKOA","state_mailing":"WA","zip_mailing":"99033","latitude":47.223992,"longitude":-117.067435,"enrollment":190,"teachers_total_fte":11.89,"number_of_schools":2,"agency_type":1,"lowest_grade_offered":-1,"highest_grade_offered":12,"county_name":"Whitman County","phone":"(509)284-3281"},{"leaid":"5308400","lea_name":"Starbuck School District","fips":53,"city_mailing":"STARBUCK","state_mailing":"WA","zip_mailing":"99359","latitude":46.517284,"longitude":-118.121192,"enrollment":185,"teachers_total_fte":4.0,"number_of_schools":2,"agency_type":1,"lowest_grade_offered":0,"highest_grade_offered":12,"county_name":"Columbia County","phone":"(509)399-2381"},{"leaid":"5300870","lea_name":"Carbonado School District","fips":53,"city_mailing":"CARBONADO","state_mailing":"WA","zip_mailing":"98323","latitude":47.081347,"longitude":-122.054216,"enrollment":180,"teachers_total_fte":12.5,"number_of_schools":1,"agency_type":1,"lowest_grade_offered":0,"highest_grade_offered":8,"county_name":"Pierce County","phone":"(360)829-0121"},{"leaid":"5303300","lea_name":"Green Mountain School District","fips":53,"city_mailing":"WOODLAND","state_mailing":"WA","zip_mailing":"98674","latitude":45.948256,"longitude":-122.538843,"enrollment":176,"teachers_total_fte":10.96,"number_of_schools":1,"agency_type":1,"lowest_grade_offered":0,"highest_grade_offered":8,"county_name":"Clark County","phone":"(360)225-7366"},{"leaid":"5307560","lea_name":"Rosalia School District","fips":53,"city_mailing":"ROSALIA","state_mailing":"WA","zip_mailing":"99170","latitude":47.2309,"longitude":-117.3691,"enrollment":173,"teachers_total_fte":17.0,"number_of_schools":1,"agency_type":1,"lowest_grade_offered":-1,"highest_grade_offered":12,"county_name":"Whitman County","phone":"(509)523-3061"},{"leaid":"5308730","lea_name":"Taholah School District","fips":53,"city_mailing":"TAHOLAH","state_mailing":"WA","zip_mailing":"98587","latitude":47.344146,"longitude":-124.287469,"enrollment":168,"teachers_total_fte":16.76,"number_of_schools":2,"agency_type":1,"lowest_grade_offered":0,"highest_grade_offered":12,"county_name":"Grays Harbor County","phone":"(360)276-4780"},{"leaid":"5306540","lea_name":"Palouse School District","fips":53,"city_mailing":"PALOUSE","state_mailing":"WA","zip_mailing":"99161","latitude":46.912588,"longitude":-117.070953,"enrollment":166,"teachers_total_fte":16.74,"number_of_schools":3,"agency_type":1,"lowest_grade_offered":-1,"highest_grade_offered":12,"county_name":"Whitman County","phone":"(509)878-1921"},{"leaid":"5301710","lea_name":"Cosmopolis School District","fips":53,"city_mailing":"COSMOPOLIS","state_mailing":"WA","zip_mailing":"98537","latitude":46.952885,"longitude":-123.772102,"enrollment":165,"teachers_total_fte":14.41,"number_of_schools":1,"agency_type":1,"lowest_grade_offered":0,"highest_grade_offered":6,"county_name":"Grays Harbor County","phone":"(360)532-7181"},{"leaid":"5303440","lea_name":"Coulee-Hartline School District","fips":53,"city_mailing":"COULEE CITY","state_mailing":"WA","zip_mailing":"99115","latitude":47.613641,"longitude":-119.293549,"enrollment":164,"teachers_total_fte":16.9,"number_of_schools":3,"agency_type":1,"lowest_grade_offered":0,"highest_grade_offered":12,"county_name":"Grant County","phone":"(509)632-5231"},{"leaid":"5309990","lea_name":"Wishkah Valley School District","fips":53,"city_mailing":"Aberdeen","state_mailing":"WA","zip_mailing":"98520","latitude":47.117414,"longitude":-123.770965,"enrollment":157,"teachers_total_fte":14.38,"number_of_schools":1,"agency_type":1,"lowest_grade_offered":0,"highest_grade_offered":12,"county_name":"Grays Harbor County","phone":"(360)532-3128"},{"leaid":"5301500","lea_name":"Colton School District","fips":53,"city_mailing":"COLTON","state_mailing":"WA","zip_mailing":"99113","latitude":46.566468,"longitude":-117.130996,"enrollment":150,"teachers_total_fte":15.87,"number_of_schools":1,"agency_type":1,"lowest_grade_offered":-1,"highest_grade_offered":12,"county_name":"Whitman County","phone":"(509)229-3385"},{"leaid":"5308310","lea_name":"St. John School District","fips":53,"city_mailing":"SAINT JOHN","state_mailing":"WA","zip_mailing":"99171","latitude":47.087742,"longitude":-117.58582,"enrollment":148,"teachers_total_fte":14.69,"number_of_schools":2,"agency_type":1,"lowest_grade_offered":-1,"highest_grade_offered":12,"county_name":"Whitman County","phone":"(509)648-3336"},{"leaid":"5305970","lea_name":"Oakesdale School District","fips":53,"city_mailing":"OAKESDALE","state_mailing":"WA","zip_mailing":"99158","latitude":47.1267,"longitude":-117.2438,"enrollment":147,"teachers_total_fte":11.09,"number_of_schools":2,"agency_type":1,"lowest_grade_offered":-1,"highest_grade_offered":12,"county_name":"Whitman County","phone":"(509)285-5296"},{"leaid":"5300090","lea_name":"Almira School District","fips":53,"city_mailing":"ALMIRA","state_mailing":"WA","zip_mailing":"99103","latitude":47.7073,"longitude":-118.9412,"enrollment":144,"teachers_total_fte":10.68,"number_of_schools":1,"agency_type":1,"lowest_grade_offered":0,"highest_grade_offered":8,"county_name":"Lincoln County","phone":"(509)639-2414"},{"leaid":"5306630","lea_name":"Paterson School District","fips":53,"city_mailing":"PATERSON","state_mailing":"WA","zip_mailing":"99345","latitude":45.9386,"longitude":-119.6091,"enrollment":142,"teachers_total_fte":12.26,"number_of_schools":1,"agency_type":1,"lowest_grade_offered":0,"highest_grade_offered":8,"county_name":"Benton County","phone":"(509)875-2601"},{"leaid":"5301560","lea_name":"Columbia (Stevens) School District","fips":53,"city_mailing":"HUNTERS","state_mailing":"WA","zip_mailing":"99137","latitude":48.119717,"longitude":-118.203028,"enrollment":139,"teachers_total_fte":11.69,"number_of_schools":2,"agency_type":1,"lowest_grade_offered":-1,"highest_grade_offered":12,"county_name":"Stevens County","phone":"(509)722-3311"},{"leaid":"5306390","lea_name":"Orondo School District","fips":53,"city_mailing":"ORONDO","state_mailing":"WA","zip_mailing":"98843","latitude":47.640996,"longitude":-120.21649,"enrollment":139,"teachers_total_fte":12.06,"number_of_schools":1,"agency_type":1,"lowest_grade_offered":-1,"highest_grade_offered":8,"county_name":"Douglas County","phone":"(509)784-2443"},{"leaid":"5303360","lea_name":"Harrington School District","fips":53,"city_mailing":"HARRINGTON","state_mailing":"WA","zip_mailing":"99134","latitude":47.479089,"longitude":-118.250926,"enrollment":133,"teachers_total_fte":14.0,"number_of_schools":2,"agency_type":1,"lowest_grade_offered":0,"highest_grade_offered":12,"county_name":"Lincoln County","phone":"(509)253-4331"},{"leaid":"5305550","lea_name":"Nespelem School District","fips":53,"city_mailing":"NESPELEM","state_mailing":"WA","zip_mailing":"99155","latitude":48.1655,"longitude":-118.9874,"enrollment":131,"teachers_total_fte":12.01,"number_of_schools":1,"agency_type":1,"lowest_grade_offered":-1,"highest_grade_offered":8,"county_name":"Okanogan County","phone":"(509)634-4541"},{"leaid":"5303000","lea_name":"Garfield School District","fips":53,"city_mailing":"GARFIELD","state_mailing":"WA","zip_mailing":"99130","latitude":47.013565,"longitude":-117.140136,"enrollment":121,"teachers_total_fte":11.85,"number_of_schools":3,"agency_type":1,"lowest_grade_offered":-1,"highest_grade_offered":12,"county_name":"Whitman County","phone":"(509)878-1921"},{"leaid":"5309900","lea_name":"Wilson Creek School District","fips":53,"city_mailing":"WILSON CREEK","state_mailing":"WA","zip_mailing":"98860","latitude":47.4258,"longitude":-119.1209,"enrollment":115,"teachers_total_fte":14.25,"number_of_schools":2,"agency_type":1,"lowest_grade_offered":0,"highest_grade_offered":12,"county_name":"Grant County","phone":"(509)345-2541"},{"leaid":"5300510","lea_name":"Bickleton School District","fips":53,"city_mailing":"Bickleton","state_mailing":"WA","zip_mailing":"99322","latitude":45.999168,"longitude":-120.292293,"enrollment":104,"teachers_total_fte":12.0,"number_of_schools":1,"agency_type":1,"lowest_grade_offered":0,"highest_grade_offered":12,"county_name":"Klickitat County","phone":"(509)896-5473"},{"leaid":"5304080","lea_name":"Klickitat School District","fips":53,"city_mailing":"KLICKITAT","state_mailing":"WA","zip_mailing":"98628","latitude":45.816408,"longitude":-121.153587,"enrollment":103,"teachers_total_fte":7.01,"number_of_schools":1,"agency_type":1,"lowest_grade_offered":0,"highest_grade_offered":12,"county_name":"Klickitat County","phone":"(509)369-4145"},{"leaid":"5304710","lea_name":"Mansfield School District","fips":53,"city_mailing":"MANSFIELD","state_mailing":"WA","zip_mailing":"98830","latitude":47.8164,"longitude":-119.6436,"enrollment":103,"teachers_total_fte":11.0,"number_of_schools":1,"agency_type":1,"lowest_grade_offered":-1,"highest_grade_offered":12,"county_name":"Douglas County","phone":"(509)683-1012"},{"leaid":"5301860","lea_name":"Creston School District","fips":53,"city_mailing":"CRESTON","state_mailing":"WA","zip_mailing":"99117","latitude":47.7549,"longitude":-118.5201,"enrollment":99,"teachers_total_fte":10.0,"number_of_schools":2,"agency_type":1,"lowest_grade_offered":0,"highest_grade_offered":12,"county_name":"Lincoln County","phone":"(509)636-2721"},{"leaid":"5301050","lea_name":"Centerville School District","fips":53,"city_mailing":"CENTERVILLE","state_mailing":"WA","zip_mailing":"98613","latitude":45.752464,"longitude":-120.899806,"enrollment":97,"teachers_total_fte":5.0,"number_of_schools":1,"agency_type":1,"lowest_grade_offered":0,"highest_grade_offered":8,"county_name":"Klickitat County","phone":"(509)773-4893"},{"leaid":"5300630","lea_name":"Boistfort School District","fips":53,"city_mailing":"CURTIS","state_mailing":"WA","zip_mailing":"98538","latitude":46.550178,"longitude":-123.133145,"enrollment":86,"teachers_total_fte":4.44,"number_of_schools":1,"agency_type":1,"lowest_grade_offered":-1,"highest_grade_offered":8,"county_name":"Lewis County","phone":"(360)245-3343"},{"leaid":"5302520","lea_name":"Endicott School District","fips":53,"city_mailing":"ENDICOTT","state_mailing":"WA","zip_mailing":"99125","latitude":46.933,"longitude":-117.6904,"enrollment":86,"teachers_total_fte":11.96,"number_of_schools":1,"agency_type":1,"lowest_grade_offered":-1,"highest_grade_offered":8,"county_name":"Whitman County","phone":"(509)657-3523"},{"leaid":"5302340","lea_name":"Easton School District","fips":53,"city_mailing":"EASTON","state_mailing":"WA","zip_mailing":"98925","latitude":47.236652,"longitude":-121.176769,"enrollment":82,"teachers_total_fte":9.0,"number_of_schools":2,"agency_type":1,"lowest_grade_offered":0,"highest_grade_offered":12,"county_name":"Kittitas County","phone":"(509)656-2317"},{"leaid":"5308580","lea_name":"Summit Valley School District","fips":53,"city_mailing":"ADDY","state_mailing":"WA","zip_mailing":"99101","latitude":48.306898,"longitude":-117.976348,"enrollment":81,"teachers_total_fte":5.41,"number_of_schools":1,"agency_type":1,"lowest_grade_offered":-1,"highest_grade_offered":8,"county_name":"Stevens County","phone":"(509)935-6362"},{"leaid":"5305820","lea_name":"North River School District","fips":53,"city_mailing":"COSMOPOLIS","state_mailing":"WA","zip_mailing":"98537","latitude":46.775509,"longitude":-123.483906,"enrollment":75,"teachers_total_fte":8.45,"number_of_schools":1,"agency_type":1,"lowest_grade_offered":-1,"highest_grade_offered":12,"county_name":"Pacific County","phone":"(360)532-3079"},{"leaid":"5300750","lea_name":"Brinnon School District","fips":53,"city_mailing":"BRINNON","state_mailing":"WA","zip_mailing":"98320","latitude":47.697279,"longitude":-122.903119,"enrollment":74,"teachers_total_fte":5.71,"number_of_schools":1,"agency_type":1,"lowest_grade_offered":0,"highest_grade_offered":8,"county_name":"Jefferson County","phone":"(360)680-1107"},{"leaid":"5306330","lea_name":"Orchard Prairie School District","fips":53,"city_mailing":"SPOKANE","state_mailing":"WA","zip_mailing":"99203","latitude":47.728005,"longitude":-117.314253,"enrollment":74,"teachers_total_fte":6.8,"number_of_schools":1,"agency_type":1,"lowest_grade_offered":0,"highest_grade_offered":7,"county_name":"Spokane County","phone":"(509)467-9517"},{"leaid":"5307950","lea_name":"Skamania School District","fips":53,"city_mailing":"SKAMANIA","state_mailing":"WA","zip_mailing":"98648","latitude":45.6171,"longitude":-122.0492,"enrollment":73,"teachers_total_fte":5.96,"number_of_schools":1,"agency_type":1,"lowest_grade_offered":0,"highest_grade_offered":8,"county_name":"Skamania County","phone":"(509)427-8239"},