{"1000004": [{"ncessch": "100000400012", "school_name": "Charter School of Wilmington", "city": "Wilmington", "state": "DE", "zip": "19807", "lat": 39.7536420000001, "lon": -75.587488, "charter": true, "level": "", "enrollment": 968, "teachers_fte": 51.0}], "1000005": [{"ncessch": "100000500013", "school_name": "Positive Outcomes Charter School", "city": "Camden", "state": "DE", "zip": "19934", "lat": 39.10835, "lon": -75.538757, "charter": true, "level": "", "enrollment": 115, "teachers_fte": 15.0}], "1000006": [{"ncessch": "100000600017", "school_name": "East Side Charter School", "city": "Wilmington", "state": "DE", "zip": "19802", "lat": 39.7515440000001, "lon": -75.522728, "charter": true, "level": "", "enrollment": 472, "teachers_fte": 42.0}], "1000007": [{"ncessch": "100000700070", "school_name": "Campus Community School", "city": "Dover", "state": "DE", "zip": "19904", "lat": 39.1650530000001, "lon": -75.5369929999999, "charter": true, "level": "", "enrollment": 402, "teachers_fte": 27.0}], "1000010": [{"ncessch": "100001000079", "school_name": "Edison (Thomas A.) Charter School", "city": "Wilmington", "state": "DE", "zip": "19802", "lat": 39.748365, "lon": -75.5327090009999, "charter": true, "level": "", "enrollment": 632, "teachers_fte": 37.0}], "1000011": [{"ncessch": "100001100091", "school_name": "Sussex Academy", "city": "Georgetown", "state": "DE", "zip": "19947", "lat": 38.6971750000001, "lon": -75.368097, "charter": true, "level": "", "enrollment": 1118, "teachers_fte": 61.0}], "1000014": [{"ncessch": "100001400106", "school_name": "Kuumba Academy Charter School", "city": "Wilmington", "state": "DE", "zip": "19801", "lat": 39.74677, "lon": -75.544100999, "charter": true, "level": "", "enrollment": 643, "teachers_fte": 58.0}], "1000015": [{"ncessch": "100001500112", "school_name": "Newark Charter School", "city": "Newark", "state": "DE", "zip": "19711", "lat": 39.6531410000001, "lon": -75.787829, "charter": true, "level": "", "enrollment": 2987, "teachers_fte": 176.800003051758}], "1000016": [{"ncessch": "100001600143", "school_name": "Delaware Military Academy", "city": "Wilmington", "state": "DE", "zip": "19804", "lat": 39.721594, "lon": -75.5851259999999, "charter": true, "level": "", "enrollment": 584, "teachers_fte": 33.0}], "1000017": [{"ncessch": "100001700144", "school_name": "Academy Of Dover Charter School", "city": "Dover", "state": "DE", "zip": "19904", "lat": 39.161793, "lon": -75.544382, "charter": true, "level": "", "enrollment": 411, "teachers_fte": 29.0}], "1000018": [{"ncessch": "100001800122", "school_name": "Providence Creek Academy Charter School", "city": "Clayton", "state": "DE", "zip": "19938", "lat": 39.294338001, "lon": -75.646303, "charter": true, "level": "", "enrollment": 730, "teachers_fte": 46.0}], "1000019": [{"ncessch": "100001900123", "school_name": "MOT Charter School", "city": "Middletown", "state": "DE", "zip": "19709", "lat": 39.422675, "lon": -75.740239, "charter": true, "level": "", "enrollment": 1383, "teachers_fte": 72.0}], "1000024": [{"ncessch": "100002400256", "school_name": "Charter School of New Castle", "city": "New Castle", "state": "DE", "zip": "19720", "lat": 39.6782690000001, "lon": -75.54525, "charter": true, "level": "", "enrollment": 752, "teachers_fte": 42.0}], "1000026": [{"ncessch": "100002600259", "school_name": "Odyssey Charter School", "city": "Wilmington", "state": "DE", "zip": "19805", "lat": 39.7593830000001, "lon": -75.598801, "charter": true, "level": "", "enrollment": 2123, "teachers_fte": 163.0}], "1000050": [{"ncessch": "100005000342", "school_name": "Las Americas ASPIRA Academy", "city": "Newark", "state": "DE", "zip": "19711", "lat": 39.68773, "lon": -75.702281, "charter": true, "level": "", "enrollment": 1341, "teachers_fte": 88.8000030517578}], "1000052": [{"ncessch": "100005200346", "school_name": "Gateway Charter School", "city": "Wilmington", "state": "DE", "zip": "19808", "lat": 39.749515, "lon": -75.6257429999999, "charter": true, "level": "", "enrollment": 186, "teachers_fte": 24.0}], "1000053": [{"ncessch": "100005300359", "school_name": "Academia Antonia Alonso", "city": "Newark", "state": "DE", "zip": "19702", "lat": 39.6623520000001, "lon": -75.6753889999999, "charter": true, "level": "", "enrollment": 718, "teachers_fte": 43.0}], "1000054": [{"ncessch": "100005400362", "school_name": "First State Montessori Academy", "city": "Wilmington", "state": "DE", "zip": "19801", "lat": 39.74483, "lon": -75.545531, "charter": true, "level": "", "enrollment": 629, "teachers_fte": 34.0}], "1000055": [{"ncessch": "100005500363", "school_name": "Early College School at Del State", "city": "Dover", "state": "DE", "zip": "19901", "lat": 39.1946820000001, "lon": -75.550354, "charter": true, "level": "", "enrollment": 519, "teachers_fte": 27.0}], "1000057": [{"ncessch": "100005700368", "school_name": "First State Military Academy", "city": "Clayton", "state": "DE", "zip": "19938", "lat": 39.2933610010001, "lon": -75.638188, "charter": true, "level": "", "enrollment": 439, "teachers_fte": 24.0}], "1000059": [{"ncessch": "100005900372", "school_name": "Freire Charter School", "city": "Wilmington", "state": "DE", "zip": "19801", "lat": 39.74992, "lon": -75.546661, "charter": true, "level": "", "enrollment": 450, "teachers_fte": 27.0}], "1000062": [{"ncessch": "100006200373", "school_name": "Great Oaks Charter School", "city": "Wilmington", "state": "DE", "zip": "19801", "lat": 39.74677, "lon": -75.544100999, "charter": true, "level": "", "enrollment": 217, "teachers_fte": 14.0}], "1000063": [{"ncessch": "100006300387", "school_name": "Sussex Montessori School", "city": "Seaford", "state": "DE", "zip": "19973", "lat": 38.645386, "lon": -75.639405999, "charter": true, "level": "", "enrollment": 403, "teachers_fte": 19.0}], "1000080": [{"ncessch": "100008000014", "school_name": "Meredith (Everett) Middle School", "city": "Middletown", "state": "DE", "zip": "19709", "lat": 39.4431799990001, "lon": -75.716110999, "charter": false, "level": "", "enrollment": 810, "teachers_fte": 54.0}, {"ncessch": "100008000024", "school_name": "Middletown High School", "city": "Middletown", "state": "DE", "zip": "19709", "lat": 39.4498310000001, "lon": -75.692653, "charter": false, "level": "", "enrollment": 1355, "teachers_fte": 95.0}, {"ncessch": "100008000026", "school_name": "Redding (Louis L.) Middle School", "city": "Middletown", "state": "DE", "zip": "19709", "lat": 39.4522049990001, "lon": -75.709851, "charter": false, "level": "", "enrollment": 618, "teachers_fte": 44.0}, {"ncessch": "100008000027", "school_name": "Silver Lake Elementary School", "city": "Middletown", "state": "DE", "zip": "19709", "lat": 39.446788999, "lon": -75.7099469999999, "charter": false, "level": "", "enrollment": 602, "teachers_fte": 38.0}, {"ncessch": "100008000028", "school_name": "Townsend Elementary School", "city": "Townsend", "state": "DE", "zip": "19734", "lat": 39.3959990010001, "lon": -75.6881109999999, "charter": false, "level": "", "enrollment": 432, "teachers_fte": 30.0}, {"ncessch": "100008000103", "school_name": "Appoquinimink PreSchool Center", "city": "Middletown", "state": "DE", "zip": "19709", "lat": 39.4433280000001, "lon": -75.7176949999999, "charter": false, "level": "", "enrollment": 127, "teachers_fte": 19.0}, {"ncessch": "100008000121", "school_name": "Loss (Olive B.) Elementary School", "city": "Bear", "state": "DE", "zip": "19701", "lat": 39.5611020000001, "lon": -75.741846, "charter": false, "level": "", "enrollment": 576, "teachers_fte": 37.5}, {"ncessch": "100008000142", "school_name": "Brick Mill Elementary School", "city": "Middletown", "state": "DE", "zip": "19709", "lat": 39.458893, "lon": -75.6865089999999, "charter": false, "level": "", "enrollment": 451, "teachers_fte": 33.0}, {"ncessch": "100008000178", "school_name": "Cedar Lane Early Childhood Center", "city": "Middletown", "state": "DE", "zip": "19709", "lat": 39.5031950000001, "lon": -75.6873659999999, "charter": false, "level": "", "enrollment": 251, "teachers_fte": 18.0}, {"ncessch": "100008000222", "school_name": "Waters (Alfred G.) Middle School", "city": "Middletown", "state": "DE", "zip": "19709", "lat": 39.503522, "lon": -75.689128, "charter": false, "level": "", "enrollment": 911, "teachers_fte": 52.0}, {"ncessch": "100008000225", "school_name": "Appoquinimink High School", "city": "Middletown", "state": "DE", "zip": "19709", "lat": 39.4541850000001, "lon": -75.7474579999999, "charter": false, "level": "", "enrollment": 1484, "teachers_fte": 91.4000015258789}, {"ncessch": "100008000314", "school_name": "Townsend Early Childhood Center", "city": "Townsend", "state": "DE", "zip": "19734", "lat": 39.395383, "lon": -75.6866669999999, "charter": false, "level": "", "enrollment": 197, "teachers_fte": 12.0}, {"ncessch": "100008000332", "school_name": "Cedar Lane Elementary School", "city": "Middletown", "state": "DE", "zip": "19709", "lat": 39.501485001, "lon": -75.687583, "charter": false, "level": "", "enrollment": 600, "teachers_fte": 39.0}, {"ncessch": "100008000339", "school_name": "Bunker Hill Elementary School", "city": "Middletown", "state": "DE", "zip": "19709", "lat": 39.455403001, "lon": -75.743882, "charter": false, "level": "", "enrollment": 655, "teachers_fte": 43.0}, {"ncessch": "100008000347", "school_name": "Old State Elementary School", "city": "Townsend", "state": "DE", "zip": "19734", "lat": 39.4365960000001, "lon": -75.6511599999999, "charter": false, "level": "", "enrollment": 763, "teachers_fte": 53.0}, {"ncessch": "100008000348", "school_name": "Spring Meadow Early Childhood Center", "city": "Townsend", "state": "DE", "zip": "19734", "lat": 39.4360070000001, "lon": -75.6483919999999, "charter": false, "level": "", "enrollment": 210, "teachers_fte": 17.0}, {"ncessch": "100008000380", "school_name": "Lorewood Grove Elementary School", "city": "Middletown", "state": "DE", "zip": "19709", "lat": 39.5330020000001, "lon": -75.6802539999999, "charter": false, "level": "", "enrollment": 763, "teachers_fte": 50.5}, {"ncessch": "100008000390", "school_name": "Odessa High School", "city": "Townsend", "state": "DE", "zip": "19734", "lat": 39.438117, "lon": -75.652315001, "charter": false, "level": "", "enrollment": 917, "teachers_fte": 61.0}, {"ncessch": "100008000391", "school_name": "Cantwells Bridge Middle School", "city": "Townsend", "state": "DE", "zip": "19734", "lat": 39.4381240000001, "lon": -75.650134, "charter": false, "level": "", "enrollment": 805, "teachers_fte": 46.5999984741211}, {"ncessch": "100008000393", "school_name": "Brick Mill Early Childhood Center", "city": "Middletown", "state": "DE", "zip": "19709", "lat": 39.458893, "lon": -75.6865089999999, "charter": false, "level": "", "enrollment": 277, "teachers_fte": 28.0}, {"ncessch": "100008000394", "school_name": "Crystal Run Elementary School", "city": "Odessa", "state": "DE", "zip": "19730", "lat": 39.452996, "lon": -75.6639749999999, "charter": false, "level": "", "enrollment": null, "teachers_fte": null}], "1000170": [{"ncessch": "100017000029", "school_name": "Cape Henlopen High School", "city": "Lewes", "state": "DE", "zip": "19958", "lat": 38.757843, "lon": -75.149356, "charter": false, "level": "", "enrollment": 1813, "teachers_fte": 122.0}, {"ncessch": "100017000030", "school_name": "H. O. Brittingham Elementary School", "city": "Milton", "state": "DE", "zip": "19968", "lat": 38.780655, "lon": -75.318745, "charter": false, "level": "", "enrollment": 484, "teachers_fte": 36.0}, {"ncessch": "100017000033", "school_name": "Mariner Middle School", "city": "Milton", "state": "DE", "zip": "19968", "lat": 38.7645219990001, "lon": -75.312362, "charter": false, "level": "", "enrollment": 664, "teachers_fte": 47.0}, {"ncessch": "100017000035", "school_name": "Rehoboth Elementary School", "city": "Rehoboth Beach", "state": "DE", "zip": "19971", "lat": 38.7091790000001, "lon": -75.088319, "charter": false, "level": "", "enrollment": 525, "teachers_fte": 44.0}, {"ncessch": "100017000036", "school_name": "Lewes Elementary School", "city": "Lewes", "state": "DE", "zip": "19958", "lat": 38.768553001, "lon": -75.1463869999999, "charter": false, "level": "", "enrollment": 582, "teachers_fte": 41.0}, {"ncessch": "100017000037", "school_name": "Beacon Middle School", "city": "Lewes", "state": "DE", "zip": "19958", "lat": 38.7143980010001, "lon": -75.148716, "charter": false, "level": "", "enrollment": 648, "teachers_fte": 48.0}, {"ncessch": "100017000140", "school_name": "Milton Elementary School", "city": "Milton", "state": "DE", "zip": "19968", "lat": 38.772032, "lon": -75.314879, "charter": false, "level": "", "enrollment": 556, "teachers_fte": 40.0}, {"ncessch": "100017000304", "school_name": "Sussex Consortium", "city": "Lewes", "state": "DE", "zip": "19958", "lat": 38.7491120010001, "lon": -75.231624, "charter": false, "level": "", "enrollment": 421, "teachers_fte": 88.0}, {"ncessch": "100017000382", "school_name": "Love Creek Elementary School", "city": "Lewes", "state": "DE", "zip": "19958", "lat": 38.7164230010001, "lon": -75.1522679999999, "charter": false, "level": "", "enrollment": 643, "teachers_fte": 0.0}, {"ncessch": "100017000396", "school_name": "Frederick D Thomas Middle School", "city": "Lewes", "state": "DE", "zip": "19958", "lat": 38.7545400000001, "lon": -75.149682, "charter": false, "level": "", "enrollment": null, "teachers_fte": null}], "1000180": [{"ncessch": "100018000018", "school_name": "Kent Elementary Intensive Learning Center", "city": "Camden", "state": "DE", "zip": "19934", "lat": 39.11981, "lon": -75.5500309999999, "charter": false, "level": "", "enrollment": 28, "teachers_fte": 6.0}, {"ncessch": "100018000038", "school_name": "Allen Frear Elementary School", "city": "Camden", "state": "DE", "zip": "19934", "lat": 39.10171, "lon": -75.511851, "charter": false, "level": "", "enrollment": 672, "teachers_fte": 48.0}, {"ncessch": "100018000040", "school_name": "Caesar Rodney High School", "city": "Camden", "state": "DE", "zip": "19934", "lat": 39.1185610000001, "lon": -75.541239, "charter": false, "level": "", "enrollment": 2257, "teachers_fte": 141.0}, {"ncessch": "100018000041", "school_name": "Dover Air Force Base Middle School", "city": "Dover", "state": "DE", "zip": "19901", "lat": 39.117689001, "lon": -75.487902, "charter": false, "level": "", "enrollment": 125, "teachers_fte": 15.0}, {"ncessch": "100018000043", "school_name": "John S. Charlton School", "city": "Camden", "state": "DE", "zip": "19934", "lat": 39.1022740000001, "lon": -75.510914, "charter": false, "level": "", "enrollment": 261, "teachers_fte": 43.0}, {"ncessch": "100018000044", "school_name": "Major George S. Welch Elementary School", "city": "Dover", "state": "DE", "zip": "19901", "lat": 39.117689001, "lon": -75.487902, "charter": false, "level": "", "enrollment": 353, "teachers_fte": 33.0}, {"ncessch": "100018000045", "school_name": "Nellie Hughes Stokes Elementary School", "city": "Dover", "state": "DE", "zip": "19904", "lat": 39.1012450000001, "lon": -75.552681, "charter": false, "level": "", "enrollment": 461, "teachers_fte": 32.0}, {"ncessch": "100018000046", "school_name": "Star Hill Elementary School", "city": "Dover", "state": "DE", "zip": "19901", "lat": 39.0995120000001, "lon": -75.5335889999999, "charter": false, "level": "", "enrollment": 147, "teachers_fte": 7.0}, {"ncessch": "100018000047", "school_name": "W. B. Simpson Elementary School", "city": "Camden", "state": "DE", "zip": "19934", "lat": 39.11981, "lon": -75.5500309999999, "charter": false, "level": "", "enrollment": 571, "teachers_fte": 39.0}, {"ncessch": "100018000048", "school_name": "W. Reily Brown Elementary School", "city": "Dover", "state": "DE", "zip": "19904", "lat": 39.131585, "lon": -75.538922, "charter": false, "level": "", "enrollment": 540, "teachers_fte": 40.0}, {"ncessch": "100018000071", "school_name": "F. Niel Postlethwait Middle School", "city": "Camden", "state": "DE", "zip": "19934", "lat": 39.0998290000001, "lon": -75.511493, "charter": false, "level": "", "enrollment": 629, "teachers_fte": 41.0}, {"ncessch": "100018000072", "school_name": "Fred Fifer III Middle School", "city": "Camden", "state": "DE", "zip": "19934", "lat": 39.116157, "lon": -75.5500919999999, "charter": false, "level": "", "enrollment": 679, "teachers_fte": 46.0}, {"ncessch": "100018000309", "school_name": "J. Ralph McIlvaine Early Childhood Center", "city": "Magnolia", "state": "DE", "zip": "19962", "lat": 39.072074, "lon": -75.474593, "charter": false, "level": "", "enrollment": 523, "teachers_fte": 34.0}, {"ncessch": "100018000395", "school_name": "David E. Robinson Elementary School", "city": "Wyoming", "state": "DE", "zip": "19934", "lat": 39.080943, "lon": -75.5058109999999, "charter": false, "level": "", "enrollment": 522, "teachers_fte": 40.0}, {"ncessch": "100018000398", "school_name": "Magnolia Middle School", "city": "Magnolia", "state": "DE", "zip": "19962", "lat": 39.084299, "lon": -75.480358, "charter": false, "level": "", "enrollment": 518, "teachers_fte": 25.0}], "1000190": [{"ncessch": "100019000011", "school_name": "North Dover Elementary School", "city": "Dover", "state": "DE", "zip": "19904", "lat": 39.1791490000001, "lon": -75.553716999, "charter": false, "level": "", "enrollment": 315, "teachers_fte": 23.0}, {"ncessch": "100019000049", "school_name": "Central Middle School", "city": "Dover", "state": "DE", "zip": "19901", "lat": 39.1644259990001, "lon": -75.523134001, "charter": false, "level": "", "enrollment": 860, "teachers_fte": 58.0}, {"ncessch": "100019000050", "school_name": "Dover High School", "city": "Dover", "state": "DE", "zip": "19904", "lat": 39.1566020000001, "lon": -75.573707999, "charter": false, "level": "", "enrollment": 1771, "teachers_fte": 107.269996643066}, {"ncessch": "100019000051", "school_name": "East Dover Elementary School", "city": "Dover", "state": "DE", "zip": "19901", "lat": 39.1563820000001, "lon": -75.504918, "charter": false, "level": "", "enrollment": 330, "teachers_fte": 28.0}, {"ncessch": "100019000052", "school_name": "Fairview Elementary School", "city": "Dover", "state": "DE", "zip": "19904", "lat": 39.1699850000001, "lon": -75.5392669989999, "charter": false, "level": "", "enrollment": 281, "teachers_fte": 17.7700004577637}, {"ncessch": "100019000053", "school_name": "Hartly Elementary School", "city": "Hartly", "state": "DE", "zip": "19953", "lat": 39.1664210000001, "lon": -75.716528, "charter": false, "level": "", "enrollment": 246, "teachers_fte": 21.7700004577637}, {"ncessch": "100019000054", "school_name": "Kent County Community School", "city": "Dover", "state": "DE", "zip": "19904", "lat": 39.1612040000001, "lon": -75.540398, "charter": false, "level": "", "enrollment": 276, "teachers_fte": 29.0}, {"ncessch": "100019000055", "school_name": "South Dover Elementary School", "city": "Dover", "state": "DE", "zip": "19901", "lat": 39.14842, "lon": -75.519758, "charter": false, "level": "", "enrollment": 610, "teachers_fte": 38.0}, {"ncessch": "100019000056", "school_name": "Towne Point Elementary School", "city": "Dover", "state": "DE", "zip": "19901", "lat": 39.1781060010001, "lon": -75.5218389999999, "charter": false, "level": "", "enrollment": 334, "teachers_fte": 20.0}, {"ncessch": "100019000057", "school_name": "Booker T. Washington Elementary School", "city": "Dover", "state": "DE", "zip": "19904", "lat": 39.1597, "lon": -75.538985, "charter": false, "level": "", "enrollment": 334, "teachers_fte": 32.0}, {"ncessch": "100019000058", "school_name": "William Henry Middle School", "city": "Dover", "state": "DE", "zip": "19904", "lat": 39.1612040000001, "lon": -75.540398, "charter": false, "level": "", "enrollment": 857, "teachers_fte": 50.0}, {"ncessch": "100019000328", "school_name": "Kent County Secondary ILC", "city": "Dover", "state": "DE", "zip": "19904", "lat": 39.1641020000001, "lon": -75.538640001, "charter": false, "level": "", "enrollment": 82, "teachers_fte": 12.0}, {"ncessch": "100019000392", "school_name": "Capital Early Childhood Center", "city": "Dover", "state": "DE", "zip": "19904", "lat": 39.1516730000001, "lon": -75.5514670009999, "charter": false, "level": "", "enrollment": 100, "teachers_fte": 1.0}, {"ncessch": "100019000399", "school_name": "Middle School of Excellence", "city": "Dover", "state": "DE", "zip": "19904", "lat": 39.176478, "lon": -75.539769001, "charter": false, "level": "", "enrollment": null, "teachers_fte": null}, {"ncessch": "100019000400", "school_name": "Middle School of Innovation", "city": "Dover", "state": "DE", "zip": "19904", "lat": 39.176478, "lon": -75.539769001, "charter": false, "level": "", "enrollment": null, "teachers_fte": null}], "1000200": [{"ncessch": "100020000005", "school_name": "Marshall (Thurgood) Elementary School", "city": "Newark", "state": "DE", "zip": "19702", "lat": 39.645091, "lon": -75.683646, "charter": false, "level": "", "enrollment": 556, "teachers_fte": 38.0}, {"ncessch": "100020000010", "school_name": "Douglass School", "city": "Wilmington", "state": "DE", "zip": "19805", "lat": 39.7382720000001, "lon": -75.580483, "charter": false, "level": "", "enrollment": 86, "teachers_fte": null}, {"ncessch": "100020000117", "school_name": "Keene (William B.) Elementary School", "city": "Newark", "state": "DE", "zip": "19702", "lat": 39.603614001, "lon": -75.7279609999999, "charter": false, "level": "", "enrollment": 474, "teachers_fte": 35.0}, {"ncessch": "100020000210", "school_name": "Delaware School for the Deaf", "city": "Newark", "state": "DE", "zip": "19713", "lat": 39.674431, "lon": -75.706368001, "charter": false, "level": "", "enrollment": 132, "teachers_fte": 36.0}, {"ncessch": "100020000214", "school_name": "Wilson (Etta J.) Elementary School", "city": "Newark", "state": "DE", "zip": "19711", "lat": 39.7162910000001, "lon": -75.7070009999999, "charter": false, "level": "", "enrollment": 267, "teachers_fte": 20.0}, {"ncessch": "100020000217", "school_name": "Stubbs Early Education Center", "city": "Wilmington", "state": "DE", "zip": "19801", "lat": 39.7442950000001, "lon": -75.540265, "charter": false, "level": "", "enrollment": 190, "teachers_fte": 22.0}, {"ncessch": "100020000218", "school_name": "Smith (Jennie E.) Elementary School", "city": "Newark", "state": "DE", "zip": "19713", "lat": 39.6737190000001, "lon": -75.710103999, "charter": false, "level": "", "enrollment": 456, "teachers_fte": 37.4000015258789}, {"ncessch": "100020000221", "school_name": "McVey (Joseph M.) Elementary School", "city": "Newark", "state": "DE", "zip": "19713", "lat": 39.655219, "lon": -75.748418, "charter": false, "level": "", "enrollment": 330, "teachers_fte": 29.3999996185303}, {"ncessch": "100020000223", "school_name": "Maclary (R. Elisabeth) Elementary School", "city": "Newark", "state": "DE", "zip": "19711", "lat": 39.701646, "lon": -75.735043, "charter": false, "level": "", "enrollment": 266, "teachers_fte": 23.0}, {"ncessch": "100020000224", "school_name": "Leasure (May B.) Elementary School", "city": "Newark", "state": "DE", "zip": "19702", "lat": 39.6213249990001, "lon": -75.6802979999999, "charter": false, "level": "", "enrollment": 335, "teachers_fte": 30.0}, {"ncessch": "100020000227", "school_name": "Pyle (Sarah) Academy", "city": "Wilmington", "state": "DE", "zip": "19801", "lat": 39.7394320000001, "lon": -75.5459319999999, "charter": false, "level": "", "enrollment": null, "teachers_fte": 1.0}, {"ncessch": "100020000228", "school_name": "Downes (John R.) Elementary School", "city": "Newark", "state": "DE", "zip": "19711", "lat": 39.6835189990001, "lon": -75.776666, "charter": false, "level": "", "enrollment": 385, "teachers_fte": 32.4000015258789}, {"ncessch": "100020000229", "school_name": "Jones (Albert H.) Elementary School", "city": "Newark", "state": "DE", "zip": "19702", "lat": 39.6674080000001, "lon": -75.662592001, "charter": false, "level": "", "enrollment": 301, "teachers_fte": 23.0}, {"ncessch": "100020000231", "school_name": "Brookside Elementary School", "city": "Newark", "state": "DE", "zip": "19713", "lat": 39.667945, "lon": -75.726821, "charter": false, "level": "", "enrollment": 253, "teachers_fte": 26.0}, {"ncessch": "100020000232", "school_name": "The Bayard School", "city": "Wilmington", "state": "DE", "zip": "19805", "lat": 39.7435100000001, "lon": -75.571576001, "charter": false, "level": "", "enrollment": 508, "teachers_fte": 55.0}, {"ncessch": "100020000233", "school_name": "The Bancroft School", "city": "Wilmington", "state": "DE", "zip": "19801", "lat": 39.740801, "lon": -75.5439459999999, "charter": false, "level": "", "enrollment": 524, "teachers_fte": 45.0}, {"ncessch": "100020000234", "school_name": "Shue-Medill Middle School", "city": "Newark", "state": "DE", "zip": "19711", "lat": 39.697279, "lon": -75.705228999, "charter": false, "level": "", "enrollment": 808, "teachers_fte": 63.0}, {"ncessch": "100020000235", "school_name": "Kirk (George V.) Middle School", "city": "Newark", "state": "DE", "zip": "19713", "lat": 39.672219, "lon": -75.710568999, "charter": false, "level": "", "enrollment": 742, "teachers_fte": 54.0}, {"ncessch": "100020000236", "school_name": "Gauger-Cobbs Middle School", "city": "Newark", "state": "DE", "zip": "19713", "lat": 39.6585529990001, "lon": -75.717969, "charter": false, "level": "", "enrollment": 779, "teachers_fte": 65.0}, {"ncessch": "100020000238", "school_name": "Newark High School", "city": "Newark", "state": "DE", "zip": "19711", "lat": 39.680681001, "lon": -75.738905, "charter": false, "level": "", "enrollment": 1105, "teachers_fte": 65.0}, {"ncessch": "100020000239", "school_name": "Glasgow High School", "city": "Newark", "state": "DE", "zip": "19702", "lat": 39.6301940010001, "lon": -75.7417149999999, "charter": false, "level": "", "enrollment": 895, "teachers_fte": 47.0}, {"ncessch": "100020000240", "school_name": "Christiana High School", "city": "Newark", "state": "DE", "zip": "19713", "lat": 39.665237, "lon": -75.695504, "charter": false, "level": "", "enrollment": 1256, "teachers_fte": 86.0}, {"ncessch": "100020000305", "school_name": "Brennen School (The)", "city": "Newark", "state": "DE", "zip": "19713", "lat": 39.6744410000001, "lon": -75.711037, "charter": false, "level": "", "enrollment": 445, "teachers_fte": 93.0}, {"ncessch": "100020000312", "school_name": "Gallaher (Robert S.) Elementary School", "city": "Newark", "state": "DE", "zip": "19713", "lat": 39.68132, "lon": -75.677681, "charter": false, "level": "", "enrollment": 519, "teachers_fte": 48.0}, {"ncessch": "100020000316", "school_name": "West Park Place Elementary School", "city": "Newark", "state": "DE", "zip": "19711", "lat": 39.6730910000001, "lon": -75.7622049999999, "charter": false, "level": "", "enrollment": 319, "teachers_fte": 27.0}, {"ncessch": "100020000323", "school_name": "Brader (Henry M.) Elementary School", "city": "Newark", "state": "DE", "zip": "19702", "lat": 39.6255150000001, "lon": -75.7535369999999, "charter": false, "level": "", "enrollment": 323, "teachers_fte": 30.0}, {"ncessch": "100020000343", "school_name": "Oberle (William) Elementary School", "city": "Bear", "state": "DE", "zip": "19701", "lat": 39.616026, "lon": -75.696187, "charter": false, "level": "", "enrollment": 543, "teachers_fte": 39.0}, {"ncessch": "100020000349", "school_name": "Christina Early Education Center", "city": "Newark", "state": "DE", "zip": "19713", "lat": 39.67245, "lon": -75.7088909999999, "charter": false, "level": "", "enrollment": 295, "teachers_fte": 26.0}], "1000230": [{"ncessch": "100023000118", "school_name": "Southern Elementary School", "city": "New Castle", "state": "DE", "zip": "19720", "lat": 39.5649690000001, "lon": -75.626183999, "charter": false, "level": "", "enrollment": 737, "teachers_fte": 62.0}, {"ncessch": "100023000196", "school_name": "Leach (John G.) School", "city": "New Castle", "state": "DE", "zip": "19720", "lat": 39.6866140010001, "lon": -75.557785001, "charter": false, "level": "", "enrollment": 88, "teachers_fte": 17.0}, {"ncessch": "100023000197", "school_name": "Wilmington Manor Elementary School", "city": "New Castle", "state": "DE", "zip": "19720", "lat": 39.683857, "lon": -75.5830329999999, "charter": false, "level": "", "enrollment": 482, "teachers_fte": 38.0}, {"ncessch": "100023000198", "school_name": "Pleasantville Elementary School", "city": "New Castle", "state": "DE", "zip": "19720", "lat": 39.6675450000001, "lon": -75.62546, "charter": false, "level": "", "enrollment": 379, "teachers_fte": 32.0}, {"ncessch": "100023000200", "school_name": "Eisenberg (Harry O.) Elementary School", "city": "New Castle", "state": "DE", "zip": "19720", "lat": 39.6899470000001, "lon": -75.558682, "charter": false, "level": "", "enrollment": 399, "teachers_fte": 34.0}, {"ncessch": "100023000203", "school_name": "The Colwyck Center", "city": "New Castle", "state": "DE", "zip": "19720", "lat": 39.6871140000001, "lon": -75.558775, "charter": false, "level": "", "enrollment": 177, "teachers_fte": 24.0}, {"ncessch": "100023000204", "school_name": "Castle Hills Elementary School", "city": "New Castle", "state": "DE", "zip": "19720", "lat": 39.681270999, "lon": -75.56764, "charter": false, "level": "", "enrollment": 492, "teachers_fte": 40.0}, {"ncessch": "100023000205", "school_name": "Downie (Carrie) Elementary School", "city": "New Castle", "state": "DE", "zip": "19720", "lat": 39.6652100000001, "lon": -75.576373, "charter": false, "level": "", "enrollment": 353, "teachers_fte": 25.0}, {"ncessch": "100023000206", "school_name": "Read (George) Middle School", "city": "New Castle", "state": "DE", "zip": "19720", "lat": 39.6769180000001, "lon": -75.5857559999999, "charter": false, "level": "", "enrollment": 694, "teachers_fte": 51.0}, {"ncessch": "100023000208", "school_name": "Bedford (Gunning) Middle School", "city": "New Castle", "state": "DE", "zip": "19720", "lat": 39.564285, "lon": -75.630083999, "charter": false, "level": "", "enrollment": 936, "teachers_fte": 54.0}, {"ncessch": "100023000209", "school_name": "Penn (William) High School", "city": "New Castle", "state": "DE", "zip": "19720", "lat": 39.668621999, "lon": -75.584878999, "charter": false, "level": "", "enrollment": 2239, "teachers_fte": 124.0}, {"ncessch": "100023000237", "school_name": "Wilbur (Kathleen H.) Elementary", "city": "Bear", "state": "DE", "zip": "19701", "lat": 39.5834349990001, "lon": -75.666936, "charter": false, "level": "", "enrollment": 1044, "teachers_fte": 75.0}, {"ncessch": "100023000271", "school_name": "McCullough (Calvin R. ) Middle School", "city": "New Castle", "state": "DE", "zip": "19720", "lat": 39.6978970000001, "lon": -75.5588079999999, "charter": false, "level": "", "enrollment": 705, "teachers_fte": 42.0}, {"ncessch": "100023000366", "school_name": "New Castle Elementary School", "city": "New Castle", "state": "DE", "zip": "19720", "lat": 39.66445, "lon": -75.570711, "charter": false, "level": "", "enrollment": 407, "teachers_fte": 33.0}, {"ncessch": "100023000378", "school_name": "The Wallace Wallin School", "city": "New Castle", "state": "DE", "zip": "19720", "lat": 39.6705690000001, "lon": -75.587034, "charter": false, "level": "", "enrollment": 0, "teachers_fte": 0.0}], "1000270": [{"ncessch": "100027000078", "school_name": "Delmar Middle School", "city": "Delmar", "state": "DE", "zip": "19940", "lat": 38.458803, "lon": -75.566858001, "charter": false, "level": "", "enrollment": 757, "teachers_fte": 34.0}, {"ncessch": "100027000080", "school_name": "Delmar High School", "city": "Delmar", "state": "DE", "zip": "19940", "lat": 38.458803, "lon": -75.566858001, "charter": false, "level": "", "enrollment": 670, "teachers_fte": 35.0}, {"ncessch": "100027000386", "school_name": "Delmar Middle Level ILC", "city": "Delmar", "state": "DE", "zip": "19940", "lat": 38.458736, "lon": -75.566906, "charter": false, "level": "", "enrollment": 0, "teachers_fte": null}], "1000680": [{"ncessch": "100068000065", "school_name": "Carver (G.W.) Educational Center", "city": "Frankford", "state": "DE", "zip": "19945", "lat": 38.5202200000001, "lon": -75.2233409999999, "charter": false, "level": "", "enrollment": null, "teachers_fte": 1.0}, {"ncessch": "100068000067", "school_name": "North Georgetown Elementary School", "city": "Georgetown", "state": "DE", "zip": "19947", "lat": 38.7054180000001, "lon": -75.399552, "charter": false, "level": "", "enrollment": 774, "teachers_fte": 52.5}, {"ncessch": "100068000074", "school_name": "Long Neck Elementary School", "city": "Millsboro", "state": "DE", "zip": "19966", "lat": 38.6305520000001, "lon": -75.185758, "charter": false, "level": "", "enrollment": 693, "teachers_fte": 47.0}, {"ncessch": "100068000075", "school_name": "Southern Delaware School of the Arts", "city": "Selbyville", "state": "DE", "zip": "19975", "lat": 38.4619929990001, "lon": -75.22569, "charter": false, "level": "", "enrollment": 456, "teachers_fte": 32.0}, {"ncessch": "100068000081", "school_name": "East Millsboro Elementary School", "city": "Millsboro", "state": "DE", "zip": "19966", "lat": 38.5850980000001, "lon": -75.278395, "charter": false, "level": "", "enrollment": 815, "teachers_fte": 46.0}, {"ncessch": "100068000082", "school_name": "Clayton (John M.) Elementary School", "city": "Frankford", "state": "DE", "zip": "19945", "lat": 38.5361320000001, "lon": -75.236864, "charter": false, "level": "", "enrollment": 481, "teachers_fte": 37.0}, {"ncessch": "100068000083", "school_name": "Georgetown Elementary School", "city": "Georgetown", "state": "DE", "zip": "19947", "lat": 38.6846400000001, "lon": -75.390301, "charter": false, "level": "", "enrollment": 840, "teachers_fte": 62.0}, {"ncessch": "100068000084", "school_name": "Ennis (Howard T.) School", "city": "Georgetown", "state": "DE", "zip": "19947", "lat": 38.632034, "lon": -75.322233, "charter": false, "level": "", "enrollment": 241, "teachers_fte": 38.0}, {"ncessch": "100068000085", "school_name": "Indian River High School", "city": "Dagsboro", "state": "DE", "zip": "19945", "lat": 38.5424100000001, "lon": -75.2302619989999, "charter": false, "level": "", "enrollment": 1088, "teachers_fte": 82.0}, {"ncessch": "100068000086", "school_name": "Lord Baltimore Elementary School", "city": "Ocean View", "state": "DE", "zip": "19970", "lat": 38.54519, "lon": -75.099936, "charter": false, "level": "", "enrollment": 579, "teachers_fte": 44.0}, {"ncessch": "100068000087", "school_name": "Selbyville Middle School", "city": "Selbyville", "state": "DE", "zip": "19975", "lat": 38.4622130000001, "lon": -75.209080001, "charter": false, "level": "", "enrollment": 719, "teachers_fte": 52.0}, {"ncessch": "100068000088", "school_name": "Showell (Phillip C.) Elementary School", "city": "Selbyville", "state": "DE", "zip": "19975", "lat": 38.4615010000001, "lon": -75.2152129999999, "charter": false, "level": "", "enrollment": 279, "teachers_fte": 22.0}, {"ncessch": "100068000090", "school_name": "Sussex Central High School", "city": "Georgetown", "state": "DE", "zip": "19947", "lat": 38.630347, "lon": -75.32611, "charter": false, "level": "", "enrollment": 2039, "teachers_fte": 138.0}, {"ncessch": "100068000245", "school_name": "Georgetown Middle School", "city": "Georgetown", "state": "DE", "zip": "19947", "lat": 38.6846400000001, "lon": -75.390301, "charter": false, "level": "", "enrollment": 885, "teachers_fte": 60.0}, {"ncessch": "100068000303", "school_name": "Millsboro Middle School", "city": "Millsboro", "state": "DE", "zip": "19966", "lat": 38.5901660000001, "lon": -75.2878660009999, "charter": false, "level": "", "enrollment": 771, "teachers_fte": 53.0}, {"ncessch": "100068000384", "school_name": "Indian River Intensive Learning Center", "city": "Selbyville", "state": "DE", "zip": "19975", "lat": 38.461346, "lon": -75.226375, "charter": false, "level": "", "enrollment": 139, "teachers_fte": null}], "1000750": [{"ncessch": "100075000092", "school_name": "POLYTECH High School", "city": "Woodside", "state": "DE", "zip": "19980", "lat": 39.0723840000001, "lon": -75.5464239999999, "charter": false, "level": "", "enrollment": 1203, "teachers_fte": 93.0}], "1000790": [{"ncessch": "100079000077", "school_name": "Lake Forest Central Elementary School", "city": "Felton", "state": "DE", "zip": "19943", "lat": 38.9902910000001, "lon": -75.552648, "charter": false, "level": "", "enrollment": 570, "teachers_fte": 39.5}, {"ncessch": "100079000094", "school_name": "Lake Forest East Elementary School", "city": "Frederica", "state": "DE", "zip": "19946", "lat": 39.0069220010001, "lon": -75.473271, "charter": false, "level": "", "enrollment": 322, "teachers_fte": 24.0}, {"ncessch": "100079000095", "school_name": "Lake Forest High School", "city": "Felton", "state": "DE", "zip": "19943", "lat": 38.9878800000001, "lon": -75.5514879999999, "charter": false, "level": "", "enrollment": 870, "teachers_fte": 54.0}, {"ncessch": "100079000096", "school_name": "Lake Forest North Elementary School", "city": "Felton", "state": "DE", "zip": "19943", "lat": 39.0076510000001, "lon": -75.570005, "charter": false, "level": "", "enrollment": 452, "teachers_fte": 35.0}, {"ncessch": "100079000097", "school_name": "Lake Forest South Elementary School", "city": "Harrington", "state": "DE", "zip": "19952", "lat": 38.9303570000001, "lon": -75.5831679999999, "charter": false, "level": "", "enrollment": 379, "teachers_fte": 32.0}, {"ncessch": "100079000098", "school_name": "Chipman (W.T.) Middle School", "city": "Harrington", "state": "DE", "zip": "19952", "lat": 38.9287629990001, "lon": -75.582053, "charter": false, "level": "", "enrollment": 965, "teachers_fte": 52.0}, {"ncessch": "100079000383", "school_name": "Delaware Early Childhood Center", "city": "Harrington", "state": "DE", "zip": "19952", "lat": 38.9226850000001, "lon": -75.582939, "charter": false, "level": "", "enrollment": 53, "teachers_fte": 5.0}], "1000810": [{"ncessch": "100081000100", "school_name": "Laurel Senior High School", "city": "Laurel", "state": "DE", "zip": "19956", "lat": 38.5465100010001, "lon": -75.5656129989999, "charter": false, "level": "", "enrollment": 747, "teachers_fte": 39.2000007629395}, {"ncessch": "100081000101", "school_name": "North Laurel Early Learning Academy", "city": "Laurel", "state": "DE", "zip": "19956", "lat": 38.564313, "lon": -75.568182, "charter": false, "level": "", "enrollment": 254, "teachers_fte": 24.0}, {"ncessch": "100081000364", "school_name": "Laurel Elementary School", "city": "Laurel", "state": "DE", "zip": "19956", "lat": 38.552017, "lon": -75.5690509999999, "charter": false, "level": "", "enrollment": 1124, "teachers_fte": 69.1999969482422}, {"ncessch": "100081000365", "school_name": "Laurel Middle School", "city": "Laurel", "state": "DE", "zip": "19956", "lat": 38.545982001, "lon": -75.566342, "charter": false, "level": "", "enrollment": 473, "teachers_fte": 33.0}], "1001080": [{"ncessch": "100108000002", "school_name": "Morris (Evelyn I.) Early Childhood", "city": "Lincoln", "state": "DE", "zip": "19960", "lat": 38.869511001, "lon": -75.417796, "charter": false, "level": "", "enrollment": 410, "teachers_fte": 35.0}, {"ncessch": "100108000107", "school_name": "Banneker (Benjamin) Elementary School", "city": "Milford", "state": "DE", "zip": "19963", "lat": 38.920555, "lon": -75.431363, "charter": false, "level": "", "enrollment": 484, "teachers_fte": 32.0}, {"ncessch": "100108000109", "school_name": "Ross (Lulu M.) Elementary School", "city": "Milford", "state": "DE", "zip": "19963", "lat": 38.90673, "lon": -75.417682, "charter": false, "level": "", "enrollment": 668, "teachers_fte": 46.0}, {"ncessch": "100108000111", "school_name": "Milford Senior High School", "city": "Milford", "state": "DE", "zip": "19963", "lat": 38.930013, "lon": -75.427329, "charter": false, "level": "", "enrollment": 1279, "teachers_fte": 76.0}, {"ncessch": "100108000344", "school_name": "Mispillion Elementary", "city": "Milford", "state": "DE", "zip": "19963", "lat": 38.905655, "lon": -75.416011, "charter": false, "level": "", "enrollment": 561, "teachers_fte": 38.0}, {"ncessch": "100108000345", "school_name": "Milford Central Academy", "city": "Milford", "state": "DE", "zip": "19963", "lat": 38.930662, "lon": -75.4270759999999, "charter": false, "level": "", "enrollment": 1068, "teachers_fte": 63.0}], "1001240": [{"ncessch": "100124000009", "school_name": "Springer Middle School", "city": "Wilmington", "state": "DE", "zip": "19803", "lat": 39.8046780000001, "lon": -75.536421, "charter": false, "level": "", "enrollment": 797, "teachers_fte": 58.0}, {"ncessch": "100124000062", "school_name": "Claymont Elementary School", "city": "Claymont", "state": "DE", "zip": "19703", "lat": 39.8037590000001, "lon": -75.463898, "charter": false, "level": "", "enrollment": 850, "teachers_fte": 60.5999984741211}, {"ncessch": "100124000242", "school_name": "Brandywine High School", "city": "Wilmington", "state": "DE", "zip": "19803", "lat": 39.800147, "lon": -75.5213659999999, "charter": false, "level": "", "enrollment": 950, "teachers_fte": 69.25}, {"ncessch": "100124000243", "school_name": "duPont (Pierre S.) Middle School", "city": "Wilmington", "state": "DE", "zip": "19802", "lat": 39.7643580010001, "lon": -75.532905001, "charter": false, "level": "", "enrollment": 821, "teachers_fte": 68.0}, {"ncessch": "100124000246", "school_name": "Mount Pleasant High School", "city": "Wilmington", "state": "DE", "zip": "19809", "lat": 39.772475, "lon": -75.504958, "charter": false, "level": "", "enrollment": 1107, "teachers_fte": 77.0999984741211}, {"ncessch": "100124000247", "school_name": "Concord High School", "city": "Wilmington", "state": "DE", "zip": "19810", "lat": 39.830295, "lon": -75.524851, "charter": false, "level": "", "enrollment": 1014, "teachers_fte": 73.5999984741211}, {"ncessch": "100124000277", "school_name": "Bush (Charles W.) Pre-School", "city": "Wilmington", "state": "DE", "zip": "19810", "lat": 39.820681, "lon": -75.526061, "charter": false, "level": "", "enrollment": 247, "teachers_fte": 16.2000007629395}, {"ncessch": "100124000281", "school_name": "Maple Lane Elementary School", "city": "Claymont", "state": "DE", "zip": "19703", "lat": 39.792398, "lon": -75.472347, "charter": false, "level": "", "enrollment": 363, "teachers_fte": 28.7000007629395}, {"ncessch": "100124000282", "school_name": "Lombardy Elementary School", "city": "Wilmington", "state": "DE", "zip": "19803", "lat": 39.784541, "lon": -75.535151, "charter": false, "level": "", "enrollment": 464, "teachers_fte": 33.5}, {"ncessch": "100124000283", "school_name": "Lancashire Elementary School", "city": "Wilmington", "state": "DE", "zip": "19810", "lat": 39.8231230000001, "lon": -75.494288, "charter": false, "level": "", "enrollment": 514, "teachers_fte": 34.0}, {"ncessch": "100124000285", "school_name": "Harlan (David W. ) Elementary School", "city": "Wilmington", "state": "DE", "zip": "19802", "lat": 39.7629400010001, "lon": -75.5299439999999, "charter": false, "level": "", "enrollment": 337, "teachers_fte": 33.5999984741211}, {"ncessch": "100124000288", "school_name": "Forwood Elementary School", "city": "Wilmington", "state": "DE", "zip": "19810", "lat": 39.8062130000001, "lon": -75.50462, "charter": false, "level": "", "enrollment": 351, "teachers_fte": 30.3999996185303}, {"ncessch": "100124000291", "school_name": "Carrcroft Elementary School", "city": "Wilmington", "state": "DE", "zip": "19803", "lat": 39.788304, "lon": -75.50222, "charter": false, "level": "", "enrollment": 477, "teachers_fte": 36.0}, {"ncessch": "100124000293", "school_name": "Hanby Elementary School", "city": "Wilmington", "state": "DE", "zip": "19810", "lat": 39.820681, "lon": -75.526061, "charter": false, "level": "", "enrollment": 530, "teachers_fte": 38.0}, {"ncessch": "100124000294", "school_name": "Talley Middle School", "city": "Wilmington", "state": "DE", "zip": "19810", "lat": 39.8230570000001, "lon": -75.47227, "charter": false, "level": "", "enrollment": 841, "teachers_fte": 64.6999969482422}, {"ncessch": "100124000318", "school_name": "Mount Pleasant Elementary School", "city": "Wilmington", "state": "DE", "zip": "19809", "lat": 39.7706480000001, "lon": -75.496318, "charter": false, "level": "", "enrollment": 704, "teachers_fte": 54.5999984741211}, {"ncessch": "100124000385", "school_name": "Brandywine SITE", "city": "Claymont", "state": "DE", "zip": "19703", "lat": 39.8025929990001, "lon": -75.465265, "charter": false, "level": "", "enrollment": null, "teachers_fte": 6.0}], "1001280": [{"ncessch": "100128000154", "school_name": "Delcastle Technical High School", "city": "Wilmington", "state": "DE", "zip": "19804", "lat": 39.7261070000001, "lon": -75.626918, "charter": false, "level": "", "enrollment": 1585, "teachers_fte": 128.0}, {"ncessch": "100128000181", "school_name": "St. Georges Technical High School", "city": "Middletown", "state": "DE", "zip": "19709", "lat": 39.527945001, "lon": -75.666753, "charter": false, "level": "", "enrollment": 1153, "teachers_fte": 79.0}, {"ncessch": "100128000296", "school_name": "Hodgson (Paul M.) Vocational Technical High School", "city": "Newark", "state": "DE", "zip": "19702", "lat": 39.600918001, "lon": -75.740333, "charter": false, "level": "", "enrollment": 1061, "teachers_fte": 80.0}, {"ncessch": "100128000297", "school_name": "Howard High School of Technology", "city": "Wilmington", "state": "DE", "zip": "19801", "lat": 39.7456230010001, "lon": -75.5409759999999, "charter": false, "level": "", "enrollment": 889, "teachers_fte": 66.5599975585938}], "1001300": [{"ncessch": "100130000004", "school_name": "Calloway (Cab) School of the Arts", "city": "Wilmington", "state": "DE", "zip": "19807", "lat": 39.7536890000001, "lon": -75.587458, "charter": false, "level": "", "enrollment": 930, "teachers_fte": 52.0}, {"ncessch": "100130000104", "school_name": "Brandywine Springs School", "city": "Wilmington", "state": "DE", "zip": "19808", "lat": 39.7432370000001, "lon": -75.653719001, "charter": false, "level": "", "enrollment": 945, "teachers_fte": 61.5}, {"ncessch": "100130000116", "school_name": "First State School", "city": "Wilmington", "state": "DE", "zip": "19899", "lat": 39.7514610000001, "lon": -75.549772, "charter": false, "level": "", "enrollment": 18, "teachers_fte": 5.0}, {"ncessch": "100130000179", "school_name": "North Star Elementary School", "city": "Hockessin", "state": "DE", "zip": "19707", "lat": 39.766705001, "lon": -75.714058999, "charter": false, "level": "", "enrollment": 610, "teachers_fte": 39.0}, {"ncessch": "100130000219", "school_name": "Shortlidge (Evan G.) Academy", "city": "Wilmington", "state": "DE", "zip": "19802", "lat": 39.7522989990001, "lon": -75.544975001, "charter": false, "level": "", "enrollment": 417, "teachers_fte": 28.0}, {"ncessch": "100130000248", "school_name": "Richardson Park Learning Center", "city": "Wilmington", "state": "DE", "zip": "19804", "lat": 39.7229850000001, "lon": -75.590726, "charter": false, "level": "", "enrollment": null, "teachers_fte": 0.0}, {"ncessch": "100130000249", "school_name": "Meadowood Program", "city": "Newark", "state": "DE", "zip": "19711", "lat": 39.7041970000001, "lon": -75.6839859999999, "charter": false, "level": "", "enrollment": 120, "teachers_fte": 16.0}, {"ncessch": "100130000250", "school_name": "Warner Elementary School", "city": "Wilmington", "state": "DE", "zip": "19802", "lat": 39.7585480000001, "lon": -75.548751, "charter": false, "level": "", "enrollment": 360, "teachers_fte": 41.0999984741211}, {"ncessch": "100130000252", "school_name": "Richardson Park Elementary School", "city": "Wilmington", "state": "DE", "zip": "19804", "lat": 39.723395, "lon": -75.5910489999999, "charter": false, "level": "", "enrollment": 519, "teachers_fte": 56.5}, {"ncessch": "100130000254", "school_name": "Mote (Anna P.) Elementary School", "city": "Wilmington", "state": "DE", "zip": "19808", "lat": 39.7354260000001, "lon": -75.638213, "charter": false, "level": "", "enrollment": 331, "teachers_fte": 33.0}, {"ncessch": "100130000255", "school_name": "Marbrook Elementary School", "city": "Wilmington", "state": "DE", "zip": "19808", "lat": 39.7420989990001, "lon": -75.624901, "charter": false, "level": "", "enrollment": 399, "teachers_fte": 38.0}, {"ncessch": "100130000258", "school_name": "Lewis (William C.) Dual Language Elementary School", "city": "Wilmington", "state": "DE", "zip": "19806", "lat": 39.749423, "lon": -75.5578369999999, "charter": false, "level": "", "enrollment": 371, "teachers_fte": 42.0}, {"ncessch": "100130000261", "school_name": "Johnson (Joseph E. Jr) Elementary School", "city": "Wilmington", "state": "DE", "zip": "19806", "lat": 39.7618590000001, "lon": -75.565867999, "charter": false, "level": "", "enrollment": 284, "teachers_fte": 21.5}, {"ncessch": "100130000262", "school_name": "Heritage Elementary School", "city": "Wilmington", "state": "DE", "zip": "19808", "lat": 39.7226640000001, "lon": -75.685281, "charter": false, "level": "", "enrollment": 476, "teachers_fte": 39.5}, {"ncessch": "100130000264", "school_name": "Baltz (Austin D.) Elementary School", "city": "Wilmington", "state": "DE", "zip": "19805", "lat": 39.743566, "lon": -75.5993579999999, "charter": false, "level": "", "enrollment": 528, "teachers_fte": 44.2000007629395}, {"ncessch": "100130000265", "school_name": "Forest Oak Elementary School", "city": "Newark", "state": "DE", "zip": "19711", "lat": 39.7050360000001, "lon": -75.683304, "charter": false, "level": "", "enrollment": 465, "teachers_fte": 35.5}, {"ncessch": "100130000266", "school_name": "Stanton Middle School", "city": "Wilmington", "state": "DE", "zip": "19804", "lat": 39.7142390000001, "lon": -75.651011, "charter": false, "level": "", "enrollment": 643, "teachers_fte": 42.5}, {"ncessch": "100130000267", "school_name": "Skyline Middle School", "city": "Wilmington", "state": "DE", "zip": "19808", "lat": 39.724213999, "lon": -75.687359, "charter": false, "level": "", "enrollment": 475, "teachers_fte": 40.0}, {"ncessch": "100130000269", "school_name": "duPont (H.B.) Middle School", "city": "Hockessin", "state": "DE", "zip": "19707", "lat": 39.8004, "lon": -75.691618999, "charter": false, "level": "", "enrollment": 754, "teachers_fte": 48.0}, {"ncessch": "100130000270", "school_name": "Conrad Schools of Science", "city": "Wilmington", "state": "DE", "zip": "19804", "lat": 39.722654999, "lon": -75.6013140009999, "charter": false, "level": "", "enrollment": 1169, "teachers_fte": 65.0}, {"ncessch": "100130000272", "school_name": "duPont (Alexis I.) Middle School", "city": "Greenville", "state": "DE", "zip": "19807", "lat": 39.767728, "lon": -75.583407, "charter": false, "level": "", "enrollment": 492, "teachers_fte": 34.0999984741211}, {"ncessch": "100130000274", "school_name": "McKean (Thomas) High School", "city": "Wilmington", "state": "DE", "zip": "19808", "lat": 39.7578590000001, "lon": -75.666397, "charter": false, "level": "", "enrollment": 927, "teachers_fte": 71.0}, {"ncessch": "100130000275", "school_name": "Dickinson (John) School", "city": "Wilmington", "state": "DE", "zip": "19808", "lat": 39.7280450000001, "lon": -75.674024999, "charter": false, "level": "", "enrollment": 1058, "teachers_fte": 64.0}, {"ncessch": "100130000276", "school_name": "duPont (Alexis I.) High School", "city": "Wilmington", "state": "DE", "zip": "19807", "lat": 39.777686999, "lon": -75.6009069999999, "charter": false, "level": "", "enrollment": 680, "teachers_fte": 48.0}, {"ncessch": "100130000315", "school_name": "Richey Elementary School", "city": "Wilmington", "state": "DE", "zip": "19804", "lat": 39.717837999, "lon": -75.607883, "charter": false, "level": "", "enrollment": 367, "teachers_fte": 26.5}, {"ncessch": "100130000334", "school_name": "Linden Hill Elementary School", "city": "Wilmington", "state": "DE", "zip": "19808", "lat": 39.733868999, "lon": -75.692872, "charter": false, "level": "", "enrollment": 555, "teachers_fte": 39.0}, {"ncessch": "100130000371", "school_name": "William F. Cooke Jr. Elementary", "city": "Hockessin", "state": "DE", "zip": "19707", "lat": 39.7668870000001, "lon": -75.669133, "charter": false, "level": "", "enrollment": 621, "teachers_fte": 40.5}, {"ncessch": "100130000389", "school_name": "Red Clay Early Years Program", "city": "Wilmington", "state": "DE", "zip": "19804", "lat": 39.7123020000001, "lon": -75.652732, "charter": false, "level": "", "enrollment": 257, "teachers_fte": 24.0}], "1001530": [{"ncessch": "100153000020", "school_name": "Blades Elementary School", "city": "Blades", "state": "DE", "zip": "19973", "lat": 38.630991001, "lon": -75.606348001, "charter": false, "level": "", "enrollment": 396, "teachers_fte": 26.0}, {"ncessch": "100153000155", "school_name": "Seaford Central Elementary School", "city": "Seaford", "state": "DE", "zip": "19973", "lat": 38.65139, "lon": -75.616138, "charter": false, "level": "", "enrollment": 452, "teachers_fte": 31.0}, {"ncessch": "100153000156", "school_name": "Seaford Middle School", "city": "Seaford", "state": "DE", "zip": "19973", "lat": 38.648538, "lon": -75.61213, "charter": false, "level": "", "enrollment": 828, "teachers_fte": 60.0}, {"ncessch": "100153000157", "school_name": "Frederick Douglass Elementary School", "city": "Seaford", "state": "DE", "zip": "19973", "lat": 38.6456430000001, "lon": -75.603848001, "charter": false, "level": "", "enrollment": 411, "teachers_fte": 32.0}, {"ncessch": "100153000158", "school_name": "Seaford Senior High School", "city": "Seaford", "state": "DE", "zip": "19973", "lat": 38.651909, "lon": -75.6136, "charter": false, "level": "", "enrollment": 879, "teachers_fte": 50.0}, {"ncessch": "100153000160", "school_name": "West Seaford Elementary School", "city": "Seaford", "state": "DE", "zip": "19973", "lat": 38.642908999, "lon": -75.631872, "charter": false, "level": "", "enrollment": 389, "teachers_fte": 27.0}, {"ncessch": "100153000322", "school_name": "Sussex Orthopedic Program", "city": "Seaford", "state": "DE", "zip": "19973", "lat": 38.65139, "lon": -75.616138, "charter": false, "level": "", "enrollment": 55, "teachers_fte": null}], "1001620": [{"ncessch": "100162000141", "school_name": "Smyrna Middle School", "city": "Smyrna", "state": "DE", "zip": "19977", "lat": 39.3025950000001, "lon": -75.623778, "charter": false, "level": "", "enrollment": 1027, "teachers_fte": 62.0}, {"ncessch": "100162000216", "school_name": "Sunnyside Elementary School", "city": "Smyrna", "state": "DE", "zip": "19977", "lat": 39.2738130000001, "lon": -75.611093, "charter": false, "level": "", "enrollment": 538, "teachers_fte": 34.0}, {"ncessch": "100162000298", "school_name": "Smyrna Elementary School", "city": "Smyrna", "state": "DE", "zip": "19977", "lat": 39.2954940000001, "lon": -75.608378, "charter": false, "level": "", "enrollment": 474, "teachers_fte": 31.0}, {"ncessch": "100162000299", "school_name": "Smyrna High School", "city": "Smyrna", "state": "DE", "zip": "19977", "lat": 39.2996690000001, "lon": -75.627131, "charter": false, "level": "", "enrollment": 1807, "teachers_fte": 109.0}, {"ncessch": "100162000300", "school_name": "Moore (John Bassett) School", "city": "Smyrna", "state": "DE", "zip": "19977", "lat": 39.298592999, "lon": -75.6053219999999, "charter": false, "level": "", "enrollment": 724, "teachers_fte": 47.0}, {"ncessch": "100162000301", "school_name": "North Smyrna Elementary School", "city": "Smyrna", "state": "DE", "zip": "19977", "lat": 39.304473, "lon": -75.613502, "charter": false, "level": "", "enrollment": 505, "teachers_fte": 42.0}, {"ncessch": "100162000302", "school_name": "Clayton Elementary School", "city": "Clayton", "state": "DE", "zip": "19938", "lat": 39.2880140010001, "lon": -75.636185, "charter": false, "level": "", "enrollment": 475, "teachers_fte": 31.0}, {"ncessch": "100162000352", "school_name": "Clayton Intermediate School", "city": "Clayton", "state": "DE", "zip": "19938", "lat": 39.2718090000001, "lon": -75.646447, "charter": false, "level": "", "enrollment": 517, "teachers_fte": 29.0}], "1001680": [{"ncessch": "100168000170", "school_name": "Sussex Technical High School", "city": "Georgetown", "state": "DE", "zip": "19947", "lat": 38.6440470000001, "lon": -75.442171, "charter": false, "level": "", "enrollment": 1292, "teachers_fte": 89.0}], "1001850": [{"ncessch": "100185000073", "school_name": "Woodbridge Middle School", "city": "Bridgeville", "state": "DE", "zip": "19933", "lat": 38.7399160000001, "lon": -75.6008619999999, "charter": false, "level": "", "enrollment": 598, "teachers_fte": 43.0}, {"ncessch": "100185000193", "school_name": "Woodbridge Early Childhood Education Center", "city": "Greenwood", "state": "DE", "zip": "19950", "lat": 38.8038110000001, "lon": -75.587103, "charter": false, "level": "", "enrollment": 592, "teachers_fte": 44.0}, {"ncessch": "100185000194", "school_name": "Woodbridge High School", "city": "Greenwood", "state": "DE", "zip": "19950", "lat": 38.7782950000001, "lon": -75.612572999, "charter": false, "level": "", "enrollment": 723, "teachers_fte": 47.0}, {"ncessch": "100185000370", "school_name": "Phillis Wheatley Elementary School", "city": "Bridgeville", "state": "DE", "zip": "19933", "lat": 38.750463999, "lon": -75.6027579999999, "charter": false, "level": "", "enrollment": 581, "teachers_fte": 44.0}, {"ncessch": "100185000401", "school_name": "SCOPE - South", "city": "Frankford", "state": "DE", "zip": "19945", "lat": 38.494269999, "lon": -75.164477, "charter": false, "level": "", "enrollment": null, "teachers_fte": null}, {"ncessch": "100185000402", "school_name": "SCOPE - North", "city": "Bridgeville", "state": "DE", "zip": "19933", "lat": 38.7595700000001, "lon": -75.595542001, "charter": false, "level": "", "enrollment": null, "teachers_fte": null}]}