{"1500030": [{"ncessch": "150003000001", "school_name": "Enchanted Lake Elementary School", "city": "Kailua", "state": "HI", "zip": "96734", "lat": 21.382886, "lon": -157.732306, "charter": false, "level": "", "enrollment": 309, "teachers_fte": 18.0}, {"ncessch": "150003000002", "school_name": "Hauula Elementary School", "city": "Hauula", "state": "HI", "zip": "96717", "lat": 21.6061020000001, "lon": -157.908129, "charter": false, "level": "", "enrollment": 357, "teachers_fte": 26.0}, {"ncessch": "150003000003", "school_name": "Heeia Elementary School", "city": "Kaneohe", "state": "HI", "zip": "96744", "lat": 21.4185120000001, "lon": -157.80842, "charter": false, "level": "", "enrollment": 378, "teachers_fte": 26.5}, {"ncessch": "150003000004", "school_name": "Kaaawa Elementary School", "city": "Kaaawa", "state": "HI", "zip": "96730", "lat": 21.547942, "lon": -157.847045999, "charter": false, "level": "", "enrollment": 114, "teachers_fte": 8.5}, {"ncessch": "150003000005", "school_name": "Kaelepulu Elementary School", "city": "Kailua", "state": "HI", "zip": "96734", "lat": 21.3812730000001, "lon": -157.742514999, "charter": false, "level": "", "enrollment": 193, "teachers_fte": 14.0}, {"ncessch": "150003000006", "school_name": "Kahaluu Elementary School", "city": "Kaneohe", "state": "HI", "zip": "96744", "lat": 21.457438, "lon": -157.845755, "charter": false, "level": "", "enrollment": 260, "teachers_fte": 21.0}, {"ncessch": "150003000007", "school_name": "Kahuku High & Intermediate School", "city": "Kahuku", "state": "HI", "zip": "96731", "lat": 21.675348, "lon": -157.947764, "charter": false, "level": "", "enrollment": 1319, "teachers_fte": 94.0}, {"ncessch": "150003000008", "school_name": "Kailua Elementary School", "city": "Kailua", "state": "HI", "zip": "96734", "lat": 21.394847, "lon": -157.741364001, "charter": false, "level": "", "enrollment": 309, "teachers_fte": 21.0}, {"ncessch": "150003000009", "school_name": "Kailua High School", "city": "Kailua", "state": "HI", "zip": "96734", "lat": 21.3850669990001, "lon": -157.747760001, "charter": false, "level": "", "enrollment": 836, "teachers_fte": 56.0}, {"ncessch": "150003000010", "school_name": "Kailua Intermediate School", "city": "Kailua", "state": "HI", "zip": "96734", "lat": 21.3942230000001, "lon": -157.7363, "charter": false, "level": "", "enrollment": 706, "teachers_fte": 51.0}, {"ncessch": "150003000011", "school_name": "Kainalu Elementary School", "city": "Kailua", "state": "HI", "zip": "96734", "lat": 21.4129360000001, "lon": -157.74764, "charter": false, "level": "", "enrollment": 517, "teachers_fte": 34.0}, {"ncessch": "150003000012", "school_name": "Kalaheo High School", "city": "Kailua", "state": "HI", "zip": "96734", "lat": 21.4081130000001, "lon": -157.757387, "charter": false, "level": "", "enrollment": 856, "teachers_fte": 49.0}, {"ncessch": "150003000013", "school_name": "Kaneohe Elementary School", "city": "Kaneohe", "state": "HI", "zip": "96744", "lat": 21.3957750000001, "lon": -157.796650001, "charter": false, "level": "", "enrollment": 564, "teachers_fte": 38.0}, {"ncessch": "150003000014", "school_name": "Kapunahala Elementary School", "city": "Kaneohe", "state": "HI", "zip": "96744", "lat": 21.4079990000001, "lon": -157.803742, "charter": false, "level": "", "enrollment": 456, "teachers_fte": 37.0}, {"ncessch": "150003000015", "school_name": "Keolu Elementary School", "city": "Kailua", "state": "HI", "zip": "96734", "lat": 21.3716800010001, "lon": -157.735455, "charter": false, "level": "", "enrollment": 106, "teachers_fte": 11.0}, {"ncessch": "150003000016", "school_name": "Governor Samuel Wilder King Intermediate School", "city": "Kaneohe", "state": "HI", "zip": "96744", "lat": 21.427425, "lon": -157.805831, "charter": false, "level": "", "enrollment": 517, "teachers_fte": 37.0}, {"ncessch": "150003000017", "school_name": "Laie Elementary School", "city": "Laie", "state": "HI", "zip": "96762", "lat": 21.649163001, "lon": -157.925491, "charter": false, "level": "", "enrollment": 662, "teachers_fte": 39.0}, {"ncessch": "150003000018", "school_name": "Ka'ohao Public Charter School", "city": "Kailua", "state": "HI", "zip": "96734", "lat": 21.3939179990001, "lon": -157.725855, "charter": true, "level": "", "enrollment": 328, "teachers_fte": 23.6399993896484}, {"ncessch": "150003000019", "school_name": "Maunawili Elementary School", "city": "Kailua", "state": "HI", "zip": "96734", "lat": 21.3772230000001, "lon": -157.752124001, "charter": false, "level": "", "enrollment": 345, "teachers_fte": 26.0}, {"ncessch": "150003000020", "school_name": "Mokapu Elementary School", "city": "Kailua", "state": "HI", "zip": "96734", "lat": 21.444898, "lon": -157.749392, "charter": false, "level": "", "enrollment": 883, "teachers_fte": 51.0}, {"ncessch": "150003000021", "school_name": "Reverend Benjamin Parker Elementary School", "city": "Kaneohe", "state": "HI", "zip": "96744", "lat": 21.4138030010001, "lon": -157.798556, "charter": false, "level": "", "enrollment": 283, "teachers_fte": 19.0}, {"ncessch": "150003000022", "school_name": "Blanche Pope Elementary School", "city": "Waimanalo", "state": "HI", "zip": "96795", "lat": 21.328399, "lon": -157.694802, "charter": false, "level": "", "enrollment": 204, "teachers_fte": 17.0}, {"ncessch": "150003000023", "school_name": "Puohala Elementary School", "city": "Kaneohe", "state": "HI", "zip": "96744", "lat": 21.409798, "lon": -157.791346001, "charter": false, "level": "", "enrollment": 319, "teachers_fte": 20.0}, {"ncessch": "150003000024", "school_name": "Sunset Beach Elementary School", "city": "Haleiwa", "state": "HI", "zip": "96712", "lat": 21.6634279990001, "lon": -158.050109, "charter": false, "level": "", "enrollment": 366, "teachers_fte": 27.0}, {"ncessch": "150003000025", "school_name": "Waiahole Elementary School", "city": "Kaneohe", "state": "HI", "zip": "96744", "lat": 21.4830610000001, "lon": -157.852348, "charter": false, "level": "", "enrollment": 97, "teachers_fte": 9.0}, {"ncessch": "150003000026", "school_name": "Waimanalo Elementary & Intermediate School", "city": "Waimanalo", "state": "HI", "zip": "96795", "lat": 21.3461740010001, "lon": -157.71482, "charter": false, "level": "", "enrollment": 349, "teachers_fte": 33.0}, {"ncessch": "150003000027", "school_name": "Ernest Bowen DeSilva Elementary School", "city": "Hilo", "state": "HI", "zip": "96720", "lat": 19.710702, "lon": -155.114399, "charter": false, "level": "", "enrollment": 486, "teachers_fte": 24.0}, {"ncessch": "150003000028", "school_name": "Haaheo Elementary School", "city": "Hilo", "state": "HI", "zip": "96720", "lat": 19.7445290000001, "lon": -155.093322, "charter": false, "level": "", "enrollment": 166, "teachers_fte": 12.0}, {"ncessch": "150003000029", "school_name": "Hilo High School", "city": "Hilo", "state": "HI", "zip": "96720", "lat": 19.721774, "lon": -155.096713, "charter": false, "level": "", "enrollment": 1317, "teachers_fte": 78.0}, {"ncessch": "150003000030", "school_name": "Hilo Intermediate School", "city": "Hilo", "state": "HI", "zip": "96720", "lat": 19.7201400000001, "lon": -155.095936, "charter": false, "level": "", "enrollment": 473, "teachers_fte": 41.0}, {"ncessch": "150003000031", "school_name": "Hilo Union Elementary School", "city": "Hilo", "state": "HI", "zip": "96720", "lat": 19.72299, "lon": -155.091669, "charter": false, "level": "", "enrollment": 422, "teachers_fte": 36.0}, {"ncessch": "150003000032", "school_name": "Holualoa Elementary School", "city": "Holualoa", "state": "HI", "zip": "96725", "lat": 19.616405, "lon": -155.94878, "charter": false, "level": "", "enrollment": 460, "teachers_fte": 30.0}, {"ncessch": "150003000033", "school_name": "Honaunau Elementary School", "city": "Captain Cook", "state": "HI", "zip": "96704", "lat": 19.450635999, "lon": -155.878885, "charter": false, "level": "", "enrollment": 138, "teachers_fte": 9.5}, {"ncessch": "150003000034", "school_name": "Honokaa High & Intermediate School", "city": "Honokaa", "state": "HI", "zip": "96727", "lat": 20.0771790000001, "lon": -155.464148, "charter": false, "level": "", "enrollment": 668, "teachers_fte": 38.0}, {"ncessch": "150003000035", "school_name": "Hookena Elementary School", "city": "Captain Cook", "state": "HI", "zip": "96704", "lat": 19.3867080000001, "lon": -155.879127, "charter": false, "level": "", "enrollment": 121, "teachers_fte": 7.0}, {"ncessch": "150003000036", "school_name": "Prince Jonah Kalanianaole Elementary & Intermediate School", "city": "Papaikou", "state": "HI", "zip": "96781", "lat": 19.790308, "lon": -155.094006, "charter": false, "level": "", "enrollment": 234, "teachers_fte": 19.0}, {"ncessch": "150003000037", "school_name": "Chiefess Kapiolani Elementary School", "city": "Hilo", "state": "HI", "zip": "96720", "lat": 19.7139050000001, "lon": -155.078346, "charter": false, "level": "", "enrollment": 375, "teachers_fte": 28.0}, {"ncessch": "150003000038", "school_name": "Kau High & Pahala Elementary School", "city": "Pahala", "state": "HI", "zip": "96777", "lat": 19.2019720000001, "lon": -155.47973, "charter": false, "level": "", "enrollment": 527, "teachers_fte": 44.0}, {"ncessch": "150003000039", "school_name": "Kaumana Elementary School", "city": "Hilo", "state": "HI", "zip": "96720", "lat": 19.686601001, "lon": -155.134755001, "charter": false, "level": "", "enrollment": 240, "teachers_fte": 17.0}, {"ncessch": "150003000040", "school_name": "Keaau Middle School", "city": "Keaau", "state": "HI", "zip": "96749", "lat": 19.6217340000001, "lon": -155.038094, "charter": false, "level": "", "enrollment": 749, "teachers_fte": 50.0}, {"ncessch": "150003000041", "school_name": "Kealakehe Elementary School", "city": "Kailua-Kona", "state": "HI", "zip": "96740", "lat": 19.668566001, "lon": -155.982611999, "charter": false, "level": "", "enrollment": 842, "teachers_fte": 55.5}, {"ncessch": "150003000042", "school_name": "Keaukaha Elementary School", "city": "Hilo", "state": "HI", "zip": "96720", "lat": 19.728623, "lon": -155.044657001, "charter": false, "level": "", "enrollment": 369, "teachers_fte": 29.0}, {"ncessch": "150003000043", "school_name": "Kohala High School", "city": "Kapaau", "state": "HI", "zip": "96755", "lat": 20.2388359990001, "lon": -155.818491, "charter": false, "level": "", "enrollment": 275, "teachers_fte": 22.5}, {"ncessch": "150003000044", "school_name": "Konawaena Elementary School", "city": "Kealakekua", "state": "HI", "zip": "96750", "lat": 19.506218, "lon": -155.922237, "charter": false, "level": "", "enrollment": 552, "teachers_fte": 34.0}, {"ncessch": "150003000045", "school_name": "Konawaena High School", "city": "Kealakekua", "state": "HI", "zip": "96750", "lat": 19.509758, "lon": -155.915333, "charter": false, "level": "", "enrollment": 941, "teachers_fte": 52.0}, {"ncessch": "150003000046", "school_name": "Laupahoehoe Community - PCS", "city": "Laupahoehoe", "state": "HI", "zip": "96764", "lat": 19.9796660000001, "lon": -155.228333, "charter": true, "level": "", "enrollment": 320, "teachers_fte": 26.0}, {"ncessch": "150003000047", "school_name": "Mountain View Elementary School", "city": "Mountain View", "state": "HI", "zip": "96771", "lat": 19.554110001, "lon": -155.10237, "charter": false, "level": "", "enrollment": 493, "teachers_fte": 35.5}, {"ncessch": "150003000048", "school_name": "Naalehu Elementary School", "city": "Naalehu", "state": "HI", "zip": "96772", "lat": 19.061158, "lon": -155.579255, "charter": false, "level": "", "enrollment": 422, "teachers_fte": 26.0}, {"ncessch": "150003000049", "school_name": "Paauilo Elementary & Intermediate School", "city": "Paauilo", "state": "HI", "zip": "96776", "lat": 20.0393710000001, "lon": -155.372904, "charter": false, "level": "", "enrollment": 181, "teachers_fte": 16.0}, {"ncessch": "150003000050", "school_name": "Pahoa High & Intermediate School", "city": "Pahoa", "state": "HI", "zip": "96778", "lat": 19.491143999, "lon": -154.941894, "charter": false, "level": "", "enrollment": 723, "teachers_fte": 50.0}, {"ncessch": "150003000051", "school_name": "Waiakea Elementary School", "city": "Hilo", "state": "HI", "zip": "96720", "lat": 19.695139, "lon": -155.075093, "charter": false, "level": "", "enrollment": 789, "teachers_fte": 53.0}, {"ncessch": "150003000052", "school_name": "Waiakea High School", "city": "Hilo", "state": "HI", "zip": "96720", "lat": 19.6989090000001, "lon": -155.076625, "charter": false, "level": "", "enrollment": 1297, "teachers_fte": 77.0}, {"ncessch": "150003000053", "school_name": "Waiakea Intermediate School", "city": "Hilo", "state": "HI", "zip": "96720", "lat": 19.695254, "lon": -155.07724, "charter": false, "level": "", "enrollment": 774, "teachers_fte": 56.0}, {"ncessch": "150003000054", "school_name": "Waiakeawaena Elementary School", "city": "Hilo", "state": "HI", "zip": "96720", "lat": 19.6834440000001, "lon": -155.067726, "charter": false, "level": "", "enrollment": 684, "teachers_fte": 51.0}, {"ncessch": "150003000055", "school_name": "Waimea Elementary School", "city": "Kamuela", "state": "HI", "zip": "96743", "lat": 20.019149999, "lon": -155.669873, "charter": false, "level": "", "enrollment": 465, "teachers_fte": 32.0}, {"ncessch": "150003000056", "school_name": "Henry Perrine Baldwin High School", "city": "Wailuku", "state": "HI", "zip": "96793", "lat": 20.890858, "lon": -156.491099, "charter": false, "level": "", "enrollment": 1338, "teachers_fte": 76.0}, {"ncessch": "150003000057", "school_name": "Haiku Elementary School", "city": "Haiku", "state": "HI", "zip": "96708", "lat": 20.928575, "lon": -156.321616, "charter": false, "level": "", "enrollment": 341, "teachers_fte": 20.0}, {"ncessch": "150003000058", "school_name": "Hana High & Elementary School", "city": "Hana", "state": "HI", "zip": "96713", "lat": 20.7768530000001, "lon": -155.998863, "charter": false, "level": "", "enrollment": 378, "teachers_fte": 27.0}, {"ncessch": "150003000059", "school_name": "Iao Intermediate School", "city": "Wailuku", "state": "HI", "zip": "96793", "lat": 20.8848560000001, "lon": -156.500318001, "charter": false, "level": "", "enrollment": 780, "teachers_fte": 54.0}, {"ncessch": "150003000060", "school_name": "Kahului Elementary School", "city": "Kahului", "state": "HI", "zip": "96732", "lat": 20.878521, "lon": -156.470841, "charter": false, "level": "", "enrollment": 848, "teachers_fte": 55.0}, {"ncessch": "150003000061", "school_name": "King Kamehameha III Elementary School", "city": "Lahaina", "state": "HI", "zip": "96761", "lat": 20.8703400000001, "lon": -156.676823, "charter": false, "level": "", "enrollment": 607, "teachers_fte": 41.0}, {"ncessch": "150003000062", "school_name": "Kaunakakai Elementary School", "city": "Kaunakakai", "state": "HI", "zip": "96748", "lat": 21.0885480000001, "lon": -157.017732001, "charter": false, "level": "", "enrollment": 257, "teachers_fte": 21.0}, {"ncessch": "150003000064", "school_name": "Kihei Elementary School", "city": "Kihei", "state": "HI", "zip": "96753", "lat": 20.747704001, "lon": -156.447551, "charter": false, "level": "", "enrollment": 720, "teachers_fte": 54.0}, {"ncessch": "150003000065", "school_name": "Kilohana Elementary School", "city": "Kaunakakai", "state": "HI", "zip": "96748", "lat": 21.0594780000001, "lon": -156.835731, "charter": false, "level": "", "enrollment": 75, "teachers_fte": 9.0}, {"ncessch": "150003000066", "school_name": "Kualapuu School - Public Conversion Charter", "city": "Kualapuu", "state": "HI", "zip": "96757", "lat": 21.15783, "lon": -157.040169999, "charter": true, "level": "", "enrollment": 319, "teachers_fte": 24.0}, {"ncessch": "150003000067", "school_name": "Kula Elementary School", "city": "Kula", "state": "HI", "zip": "96790", "lat": 20.7612940000001, "lon": -156.329559, "charter": false, "level": "", "enrollment": 365, "teachers_fte": 25.0}, {"ncessch": "150003000068", "school_name": "Lahaina Intermediate School", "city": "Lahaina", "state": "HI", "zip": "96761", "lat": 20.8867990000001, "lon": -156.6624, "charter": false, "level": "", "enrollment": 647, "teachers_fte": 45.0}, {"ncessch": "150003000069", "school_name": "Lahainaluna High School", "city": "Lahaina", "state": "HI", "zip": "96761", "lat": 20.888993, "lon": -156.658132, "charter": false, "level": "", "enrollment": 1037, "teachers_fte": 68.0}, {"ncessch": "150003000070", "school_name": "Lanai High & Elementary School", "city": "Lanai City", "state": "HI", "zip": "96763", "lat": 20.8261390000001, "lon": -156.923206, "charter": false, "level": "", "enrollment": 566, "teachers_fte": 41.0}, {"ncessch": "150003000071", "school_name": "Lihikai Elementary School", "city": "Kahului", "state": "HI", "zip": "96732", "lat": 20.8806000000001, "lon": -156.484466999, "charter": false, "level": "", "enrollment": 723, "teachers_fte": 46.0}, {"ncessch": "150003000072", "school_name": "Makawao Elementary School", "city": "Makawao", "state": "HI", "zip": "96768", "lat": 20.8569199990001, "lon": -156.313797, "charter": false, "level": "", "enrollment": 491, "teachers_fte": 33.0}, {"ncessch": "150003000073", "school_name": "Maui High School", "city": "Kahului", "state": "HI", "zip": "96732", "lat": 20.8743230000001, "lon": -156.472451001, "charter": false, "level": "", "enrollment": 1999, "teachers_fte": 122.0}, {"ncessch": "150003000074", "school_name": "Maunaloa Elementary School", "city": "Maunaloa", "state": "HI", "zip": "96770", "lat": 21.130993, "lon": -157.208935, "charter": false, "level": "", "enrollment": 46, "teachers_fte": 6.0}, {"ncessch": "150003000075", "school_name": "Molokai High School", "city": "Hoolehua", "state": "HI", "zip": "96729", "lat": 21.163578, "lon": -157.0483, "charter": false, "level": "", "enrollment": 381, "teachers_fte": 24.0}, {"ncessch": "150003000076", "school_name": "Paia Elementary School", "city": "Paia", "state": "HI", "zip": "96779", "lat": 20.900581001, "lon": -156.363352, "charter": false, "level": "", "enrollment": 404, "teachers_fte": 21.0}, {"ncessch": "150003000077", "school_name": "Pukalani Elementary School", "city": "Pukalani", "state": "HI", "zip": "96768", "lat": 20.83986, "lon": -156.345749001, "charter": false, "level": "", "enrollment": 440, "teachers_fte": 29.0}, {"ncessch": "150003000079", "school_name": "Waihee Elementary School", "city": "Wailuku", "state": "HI", "zip": "96793", "lat": 20.9341000000001, "lon": -156.514181, "charter": false, "level": "", "enrollment": 587, "teachers_fte": 38.0}, {"ncessch": "150003000080", "school_name": "Wailuku Elementary School", "city": "Wailuku", "state": "HI", "zip": "96793", "lat": 20.883272, "lon": -156.505543, "charter": false, "level": "", "enrollment": 562, "teachers_fte": 37.0}, {"ncessch": "150003000081", "school_name": "Eleele Elementary School", "city": "Eleele", "state": "HI", "zip": "96705", "lat": 21.9100100000001, "lon": -159.58366, "charter": false, "level": "", "enrollment": 408, "teachers_fte": 29.0}, {"ncessch": "150003000082", "school_name": "Hanalei Elementary School", "city": "Hanalei", "state": "HI", "zip": "96714", "lat": 22.19989, "lon": -159.502373, "charter": false, "level": "", "enrollment": 192, "teachers_fte": 17.5}, {"ncessch": "150003000083", "school_name": "Kalaheo Elementary School", "city": "Kalaheo", "state": "HI", "zip": "96741", "lat": 21.923298, "lon": -159.520895, "charter": false, "level": "", "enrollment": 399, "teachers_fte": 28.0}, {"ncessch": "150003000084", "school_name": "Kapaa Elementary School", "city": "Kapaa", "state": "HI", "zip": "96746", "lat": 22.089753, "lon": -159.313533, "charter": false, "level": "", "enrollment": 839, "teachers_fte": 52.0}, {"ncessch": "150003000085", "school_name": "Kapaa High School", "city": "Kapaa", "state": "HI", "zip": "96746", "lat": 22.091075, "lon": -159.311509, "charter": false, "level": "", "enrollment": 1005, "teachers_fte": 56.0}, {"ncessch": "150003000086", "school_name": "Kauai High School", "city": "Lihue", "state": "HI", "zip": "96766", "lat": 21.9587280000001, "lon": -159.359980999, "charter": false, "level": "", "enrollment": 1108, "teachers_fte": 70.0}, {"ncessch": "150003000088", "school_name": "Kekaha Elementary School", "city": "Kekaha", "state": "HI", "zip": "96752", "lat": 21.9718360000001, "lon": -159.716254001, "charter": false, "level": "", "enrollment": 337, "teachers_fte": 19.0}, {"ncessch": "150003000089", "school_name": "Kilauea Elementary School", "city": "Kilauea", "state": "HI", "zip": "96754", "lat": 22.2062320000001, "lon": -159.409366, "charter": false, "level": "", "enrollment": 270, "teachers_fte": 19.0}, {"ncessch": "150003000090", "school_name": "Koloa Elementary School", "city": "Koloa", "state": "HI", "zip": "96756", "lat": 21.8985240000001, "lon": -159.467437, "charter": false, "level": "", "enrollment": 342, "teachers_fte": 22.0}, {"ncessch": "150003000091", "school_name": "Niihau High & Elementary School", "city": "Waimea", "state": "HI", "zip": "96796", "lat": 21.9578100000001, "lon": -159.668121, "charter": false, "level": "", "enrollment": 17, "teachers_fte": 2.0}, {"ncessch": "150003000092", "school_name": "Waimea Canyon Middle School", "city": "Waimea", "state": "HI", "zip": "96796", "lat": 21.9615020000001, "lon": -159.67256, "charter": false, "level": "", "enrollment": 477, "teachers_fte": 33.0}, {"ncessch": "150003000093", "school_name": "Waimea High School", "city": "Waimea", "state": "HI", "zip": "96796", "lat": 21.9578100000001, "lon": -159.668121, "charter": false, "level": "", "enrollment": 767, "teachers_fte": 49.0}, {"ncessch": "150003000094", "school_name": "Elsie H Wilcox Elementary School", "city": "Lihue", "state": "HI", "zip": "96766", "lat": 21.9754799990001, "lon": -159.364255, "charter": false, "level": "", "enrollment": 731, "teachers_fte": 50.0}, {"ncessch": "150003000096", "school_name": "Hawaii School for the Deaf and Blind", "city": "Honolulu", "state": "HI", "zip": "96815", "lat": 21.2726190000001, "lon": -157.814692, "charter": false, "level": "", "enrollment": 54, "teachers_fte": 17.0}, {"ncessch": "150003000098", "school_name": "Olomana School", "city": "Kailua", "state": "HI", "zip": "96734", "lat": 21.371806, "lon": -157.748971999, "charter": false, "level": "", "enrollment": 69, "teachers_fte": 43.5}, {"ncessch": "150003000099", "school_name": "Mililani Mauka Elementary School", "city": "Mililani", "state": "HI", "zip": "96789", "lat": 21.47105, "lon": -158.001355, "charter": false, "level": "", "enrollment": 673, "teachers_fte": 44.0}, {"ncessch": "150003000100", "school_name": "Castle High School", "city": "Kaneohe", "state": "HI", "zip": "96744", "lat": 21.4031800000001, "lon": -157.794653, "charter": false, "level": "", "enrollment": 1108, "teachers_fte": 78.5}, {"ncessch": "150003000101", "school_name": "Aikahi Elementary School", "city": "Kailua", "state": "HI", "zip": "96734", "lat": 21.4252540000001, "lon": -157.750152, "charter": false, "level": "", "enrollment": 456, "teachers_fte": 28.5}, {"ncessch": "150003000102", "school_name": "Mililani High School", "city": "Mililani", "state": "HI", "zip": "96789", "lat": 21.4539970010001, "lon": -158.009303, "charter": false, "level": "", "enrollment": 2565, "teachers_fte": 151.0}, {"ncessch": "150003000103", "school_name": "Moanalua High School", "city": "Honolulu", "state": "HI", "zip": "96819", "lat": 21.347096999, "lon": -157.899688, "charter": false, "level": "", "enrollment": 2064, "teachers_fte": 121.0}, {"ncessch": "150003000104", "school_name": "Moanalua Elementary School", "city": "Honolulu", "state": "HI", "zip": "96819", "lat": 21.3492660000001, "lon": -157.891695, "charter": false, "level": "", "enrollment": 671, "teachers_fte": 37.0}, {"ncessch": "150003000105", "school_name": "Mililani Waena Elementary School", "city": "Mililani", "state": "HI", "zip": "96789", "lat": 21.4554870000001, "lon": -158.010535, "charter": false, "level": "", "enrollment": 714, "teachers_fte": 48.0}, {"ncessch": "150003000106", "school_name": "Mililani Uka Elementary School", "city": "Mililani", "state": "HI", "zip": "96789", "lat": 21.437438001, "lon": -158.015049999, "charter": false, "level": "", "enrollment": 691, "teachers_fte": 45.0}, {"ncessch": "150003000107", "school_name": "Makalapa Elementary School", "city": "Honolulu", "state": "HI", "zip": "96818", "lat": 21.361413, "lon": -157.928704, "charter": false, "level": "", "enrollment": 555, "teachers_fte": 34.0}, {"ncessch": "150003000108", "school_name": "Leilehua High School", "city": "Wahiawa", "state": "HI", "zip": "96786", "lat": 21.501015001, "lon": -158.012252, "charter": false, "level": "", "enrollment": 1625, "teachers_fte": 113.5}, {"ncessch": "150003000109", "school_name": "Waiau Elementary School", "city": "Pearl City", "state": "HI", "zip": "96782", "lat": 21.3985510000001, "lon": -157.953693, "charter": false, "level": "", "enrollment": 458, "teachers_fte": 34.0}, {"ncessch": "150003000110", "school_name": "Waianae High School", "city": "Waianae", "state": "HI", "zip": "96792", "lat": 21.455422001, "lon": -158.199657999, "charter": false, "level": "", "enrollment": 1831, "teachers_fte": 138.0}, {"ncessch": "150003000111", "school_name": "Waianae Elementary School", "city": "Waianae", "state": "HI", "zip": "96792", "lat": 21.4460280000001, "lon": -158.18449, "charter": false, "level": "", "enrollment": 446, "teachers_fte": 33.0}, {"ncessch": "150003000112", "school_name": "Pohakea Elementary School", "city": "Ewa Beach", "state": "HI", "zip": "96706", "lat": 21.314312, "lon": -158.009965, "charter": false, "level": "", "enrollment": 492, "teachers_fte": 32.0}, {"ncessch": "150003000113", "school_name": "Pearl City Highlands School", "city": "Pearl City", "state": "HI", "zip": "96782", "lat": 21.4033610000001, "lon": -157.965211, "charter": false, "level": "", "enrollment": 530, "teachers_fte": 33.0}, {"ncessch": "150003000114", "school_name": "Pearl City High School", "city": "Pearl City", "state": "HI", "zip": "96782", "lat": 21.413747001, "lon": -157.951378999, "charter": false, "level": "", "enrollment": 1519, "teachers_fte": 100.0}, {"ncessch": "150003000115", "school_name": "Pearl City Elementary School", "city": "Pearl City", "state": "HI", "zip": "96782", "lat": 21.395245, "lon": -157.972183, "charter": false, "level": "", "enrollment": 411, "teachers_fte": 30.0}, {"ncessch": "150003000116", "school_name": "Palisades Elementary School", "city": "Pearl City", "state": "HI", "zip": "96782", "lat": 21.425554, "lon": -157.952639001, "charter": false, "level": "", "enrollment": 376, "teachers_fte": 20.0}, {"ncessch": "150003000117", "school_name": "Nanakuli High & Intermediate School", "city": "Waianae", "state": "HI", "zip": "96792", "lat": 21.3879650000001, "lon": -158.132015, "charter": false, "level": "", "enrollment": 960, "teachers_fte": 76.0}, {"ncessch": "150003000118", "school_name": "Nanakuli Elementary School", "city": "Waianae", "state": "HI", "zip": "96792", "lat": 21.3860960000001, "lon": -158.136049, "charter": false, "level": "", "enrollment": 361, "teachers_fte": 26.5}, {"ncessch": "150003000119", "school_name": "Nanaikapono Elementary School", "city": "Waianae", "state": "HI", "zip": "96792", "lat": 21.383128001, "lon": -158.143766, "charter": false, "level": "", "enrollment": 730, "teachers_fte": 54.0}, {"ncessch": "150003000120", "school_name": "Momilani Elementary School", "city": "Pearl City", "state": "HI", "zip": "96782", "lat": 21.412827, "lon": -157.954726001, "charter": false, "level": "", "enrollment": 408, "teachers_fte": 21.0}, {"ncessch": "150003000121", "school_name": "Mauka Lani Elementary School", "city": "Kapolei", "state": "HI", "zip": "96707", "lat": 21.3586920000001, "lon": -158.083462, "charter": false, "level": "", "enrollment": 538, "teachers_fte": 39.0}, {"ncessch": "150003000122", "school_name": "Manana Elementary School", "city": "Pearl City", "state": "HI", "zip": "96782", "lat": 21.4085029990001, "lon": -157.971536, "charter": false, "level": "", "enrollment": 290, "teachers_fte": 19.0}, {"ncessch": "150003000123", "school_name": "Makakilo Elementary School", "city": "Kapolei", "state": "HI", "zip": "96707", "lat": 21.344432, "lon": -158.084966, "charter": false, "level": "", "enrollment": 456, "teachers_fte": 30.0}, {"ncessch": "150003000124", "school_name": "Makaha Elementary School", "city": "Waianae", "state": "HI", "zip": "96792", "lat": 21.4706019990001, "lon": -158.212311, "charter": false, "level": "", "enrollment": 418, "teachers_fte": 39.0}, {"ncessch": "150003000125", "school_name": "Maili Elementary School", "city": "Waianae", "state": "HI", "zip": "96792", "lat": 21.419904, "lon": -158.172514, "charter": false, "level": "", "enrollment": 655, "teachers_fte": 44.5}, {"ncessch": "150003000126", "school_name": "Lehua Elementary School", "city": "Pearl City", "state": "HI", "zip": "96782", "lat": 21.3889770000001, "lon": -157.971126, "charter": false, "level": "", "enrollment": 259, "teachers_fte": 22.0}, {"ncessch": "150003000127", "school_name": "Kaimiloa Elementary School", "city": "Ewa Beach", "state": "HI", "zip": "96706", "lat": 21.3193690000001, "lon": -158.008992, "charter": false, "level": "", "enrollment": 635, "teachers_fte": 48.0}, {"ncessch": "150003000128", "school_name": "Iroquois Point Elementary School", "city": "Ewa Beach", "state": "HI", "zip": "96706", "lat": 21.320009, "lon": -157.982067, "charter": false, "level": "", "enrollment": 582, "teachers_fte": 33.0}, {"ncessch": "150003000129", "school_name": "Ilima Intermediate School", "city": "Ewa Beach", "state": "HI", "zip": "96706", "lat": 21.31679, "lon": -158.011534, "charter": false, "level": "", "enrollment": 615, "teachers_fte": 45.0}, {"ncessch": "150003000130", "school_name": "Honowai Elementary School", "city": "Waipahu", "state": "HI", "zip": "96797", "lat": 21.383701, "lon": -158.02611, "charter": false, "level": "", "enrollment": 590, "teachers_fte": 45.0}, {"ncessch": "150003000131", "school_name": "Highlands Intermediate School", "city": "Pearl City", "state": "HI", "zip": "96782", "lat": 21.401076, "lon": -157.962492001, "charter": false, "level": "", "enrollment": 736, "teachers_fte": 53.0}, {"ncessch": "150003000132", "school_name": "Ewa Beach Elementary School", "city": "Ewa Beach", "state": "HI", "zip": "96706", "lat": 21.315341, "lon": -158.014845, "charter": false, "level": "", "enrollment": 744, "teachers_fte": 43.0}, {"ncessch": "150003000133", "school_name": "Ewa Elementary School", "city": "Ewa Beach", "state": "HI", "zip": "96706", "lat": 21.344431, "lon": -158.034345, "charter": false, "level": "", "enrollment": 1118, "teachers_fte": 64.0}, {"ncessch": "150003000134", "school_name": "James Campbell High School", "city": "Ewa Beach", "state": "HI", "zip": "96706", "lat": 21.315596999, "lon": -158.007986, "charter": false, "level": "", "enrollment": 3039, "teachers_fte": 184.0}, {"ncessch": "150003000135", "school_name": "Barbers Point Elementary School", "city": "Kapolei", "state": "HI", "zip": "96707", "lat": 21.322188, "lon": -158.081968, "charter": false, "level": "", "enrollment": 518, "teachers_fte": 33.0}, {"ncessch": "150003000136", "school_name": "August Ahrens Elementary School", "city": "Waipahu", "state": "HI", "zip": "96797", "lat": 21.393624, "lon": -158.002345, "charter": false, "level": "", "enrollment": 1187, "teachers_fte": 83.0}, {"ncessch": "150003000137", "school_name": "Major Sheldon Wheeler Middle School", "city": "Wahiawa", "state": "HI", "zip": "96786", "lat": 21.4867760000001, "lon": -158.037845001, "charter": false, "level": "", "enrollment": 646, "teachers_fte": 49.0}, {"ncessch": "150003000138", "school_name": "Major Sheldon Wheeler Elementary School", "city": "Wahiawa", "state": "HI", "zip": "96786", "lat": 21.486999999, "lon": -158.039, "charter": false, "level": "", "enrollment": 635, "teachers_fte": 43.0}, {"ncessch": "150003000139", "school_name": "Gustav H Webling Elementary School", "city": "Aiea", "state": "HI", "zip": "96701", "lat": 21.3811690000001, "lon": -157.920458, "charter": false, "level": "", "enrollment": 439, "teachers_fte": 27.5}, {"ncessch": "150003000140", "school_name": "Waimalu Elementary School", "city": "Aiea", "state": "HI", "zip": "96701", "lat": 21.3903050000001, "lon": -157.950086, "charter": false, "level": "", "enrollment": 370, "teachers_fte": 31.0}, {"ncessch": "150003000141", "school_name": "Waialua High & Intermediate School", "city": "Waialua", "state": "HI", "zip": "96791", "lat": 21.5654190000001, "lon": -158.126209001, "charter": false, "level": "", "enrollment": 621, "teachers_fte": 44.0}, {"ncessch": "150003000142", "school_name": "Waialua Elementary School", "city": "Waialua", "state": "HI", "zip": "96791", "lat": 21.575296, "lon": -158.121339, "charter": false, "level": "", "enrollment": 442, "teachers_fte": 28.5}, {"ncessch": "150003000143", "school_name": "Wahiawa Middle School", "city": "Wahiawa", "state": "HI", "zip": "96786", "lat": 21.494311, "lon": -158.018525, "charter": false, "level": "", "enrollment": 650, "teachers_fte": 53.0}, {"ncessch": "150003000144", "school_name": "Wahiawa Elementary School", "city": "Wahiawa", "state": "HI", "zip": "96786", "lat": 21.5048360010001, "lon": -158.017923, "charter": false, "level": "", "enrollment": 436, "teachers_fte": 32.0}, {"ncessch": "150003000145", "school_name": "Sergeant Samuel K Solomon Elementary School", "city": "Wahiawa", "state": "HI", "zip": "96786", "lat": 21.49026, "lon": -158.072741, "charter": false, "level": "", "enrollment": 762, "teachers_fte": 54.0}, {"ncessch": "150003000146", "school_name": "Major General William R Shafter Elementary School", "city": "Honolulu", "state": "HI", "zip": "96819", "lat": 21.341735, "lon": -157.885057, "charter": false, "level": "", "enrollment": 392, "teachers_fte": 27.0}, {"ncessch": "150003000147", "school_name": "Alvah A Scott Elementary School", "city": "Aiea", "state": "HI", "zip": "96701", "lat": 21.3823630000001, "lon": -157.9332, "charter": false, "level": "", "enrollment": 412, "teachers_fte": 26.0}, {"ncessch": "150003000148", "school_name": "Salt Lake Elementary School", "city": "Honolulu", "state": "HI", "zip": "96818", "lat": 21.35164, "lon": -157.911877, "charter": false, "level": "", "enrollment": 664, "teachers_fte": 42.0}, {"ncessch": "150003000149", "school_name": "Red Hill Elementary School", "city": "Honolulu", "state": "HI", "zip": "96819", "lat": 21.3685110000001, "lon": -157.899505, "charter": false, "level": "", "enrollment": 438, "teachers_fte": 30.0}, {"ncessch": "150003000150", "school_name": "Admiral Arthur W Radford High School", "city": "Honolulu", "state": "HI", "zip": "96818", "lat": 21.359537, "lon": -157.928105, "charter": false, "level": "", "enrollment": 1267, "teachers_fte": 69.0}, {"ncessch": "150003000151", "school_name": "Pearl Ridge Elementary School", "city": "Aiea", "state": "HI", "zip": "96701", "lat": 21.3885339990001, "lon": -157.944971, "charter": false, "level": "", "enrollment": 433, "teachers_fte": 28.0}, {"ncessch": "150003000152", "school_name": "Pearl Harbor Kai Elementary School", "city": "Honolulu", "state": "HI", "zip": "96818", "lat": 21.3488130000001, "lon": -157.937799, "charter": false, "level": "", "enrollment": 355, "teachers_fte": 28.0}, {"ncessch": "150003000153", "school_name": "Pearl Harbor Elementary School", "city": "Honolulu", "state": "HI", "zip": "96818", "lat": 21.346549, "lon": -157.930222, "charter": false, "level": "", "enrollment": 420, "teachers_fte": 36.0}, {"ncessch": "150003000154", "school_name": "Admiral Chester W Nimitz Elementary School", "city": "Honolulu", "state": "HI", "zip": "96818", "lat": 21.3408700000001, "lon": -157.935273, "charter": false, "level": "", "enrollment": 533, "teachers_fte": 37.5}, {"ncessch": "150003000155", "school_name": "Mokulele Elementary School", "city": "Honolulu", "state": "HI", "zip": "96818", "lat": 21.3431200000001, "lon": -157.94107, "charter": false, "level": "", "enrollment": 221, "teachers_fte": 19.0}, {"ncessch": "150003000156", "school_name": "Moanalua Middle School", "city": "Honolulu", "state": "HI", "zip": "96819", "lat": 21.3496230010001, "lon": -157.89341, "charter": false, "level": "", "enrollment": 692, "teachers_fte": 43.5}, {"ncessch": "150003000157", "school_name": "Ahuimanu Elementary School", "city": "Kaneohe", "state": "HI", "zip": "96744", "lat": 21.4346110010001, "lon": -157.830889, "charter": false, "level": "", "enrollment": 282, "teachers_fte": 20.5}, {"ncessch": "150003000158", "school_name": "Waipahu Intermediate School", "city": "Waipahu", "state": "HI", "zip": "96797", "lat": 21.381308, "lon": -158.013471999, "charter": false, "level": "", "enrollment": 1084, "teachers_fte": 77.0}, {"ncessch": "150003000159", "school_name": "Waipahu Elementary School", "city": "Waipahu", "state": "HI", "zip": "96797", "lat": 21.384714999, "lon": -158.015617999, "charter": false, "level": "", "enrollment": 863, "teachers_fte": 74.0}, {"ncessch": "150003000160", "school_name": "Kalihi Kai Elementary School", "city": "Honolulu", "state": "HI", "zip": "96817", "lat": 21.326689, "lon": -157.877832001, "charter": false, "level": "", "enrollment": 528, "teachers_fte": 38.0}, {"ncessch": "150003000161", "school_name": "Waipahu High School", "city": "Waipahu", "state": "HI", "zip": "96797", "lat": 21.3892510000001, "lon": -157.993039, "charter": false, "level": "", "enrollment": 2661, "teachers_fte": 165.0}, {"ncessch": "150003000162", "school_name": "Kalihi Elementary School", "city": "Honolulu", "state": "HI", "zip": "96819", "lat": 21.3526610000001, "lon": -157.861181, "charter": false, "level": "", "enrollment": 193, "teachers_fte": 17.0}, {"ncessch": "150003000163", "school_name": "Kalani High School", "city": "Honolulu", "state": "HI", "zip": "96821", "lat": 21.279228, "lon": -157.77329, "charter": false, "level": "", "enrollment": 1414, "teachers_fte": 83.0}, {"ncessch": "150003000164", "school_name": "King David Kalakaua Middle School", "city": "Honolulu", "state": "HI", "zip": "96819", "lat": 21.328604, "lon": -157.87613, "charter": false, "level": "", "enrollment": 898, "teachers_fte": 64.0}, {"ncessch": "150003000165", "school_name": "Princess Victoria Kaiulani Elementary School", "city": "Honolulu", "state": "HI", "zip": "96817", "lat": 21.321464, "lon": -157.867498, "charter": false, "level": "", "enrollment": 259, "teachers_fte": 23.0}, {"ncessch": "150003000166", "school_name": "Kapolei Elementary School", "city": "Kapolei", "state": "HI", "zip": "96707", "lat": 21.3342390010001, "lon": -158.064212001, "charter": false, "level": "", "enrollment": 749, "teachers_fte": 52.0}, {"ncessch": "150003000167", "school_name": "Kipapa Elementary School", "city": "Mililani", "state": "HI", "zip": "96789", "lat": 21.461221, "lon": -158.012469, "charter": false, "level": "", "enrollment": 518, "teachers_fte": 34.0}, {"ncessch": "150003000168", "school_name": "Kaala Elementary School", "city": "Wahiawa", "state": "HI", "zip": "96786", "lat": 21.493993, "lon": -158.036618001, "charter": false, "level": "", "enrollment": 384, "teachers_fte": 32.0}, {"ncessch": "150003000169", "school_name": "Iliahi Elementary School", "city": "Wahiawa", "state": "HI", "zip": "96786", "lat": 21.505011, "lon": -157.998743, "charter": false, "level": "", "enrollment": 333, "teachers_fte": 23.0}, {"ncessch": "150003000170", "school_name": "Lt Col Horrace Meek Hickam Elementary School", "city": "Honolulu", "state": "HI", "zip": "96818", "lat": 21.343244, "lon": -157.963051, "charter": false, "level": "", "enrollment": 481, "teachers_fte": 37.0}, {"ncessch": "150003000171", "school_name": "Helemano Elementary School", "city": "Wahiawa", "state": "HI", "zip": "96786", "lat": 21.51406, "lon": -158.022962, "charter": false, "level": "", "enrollment": 457, "teachers_fte": 40.0}, {"ncessch": "150003000172", "school_name": "Haleiwa Elementary School", "city": "Haleiwa", "state": "HI", "zip": "96712", "lat": 21.584523001, "lon": -158.113912, "charter": false, "level": "", "enrollment": 228, "teachers_fte": 16.0}, {"ncessch": "150003000173", "school_name": "Daniel K Inouye Elementary School", "city": "Wahiawa", "state": "HI", "zip": "96786", "lat": 21.4990490000001, "lon": -158.056543, "charter": false, "level": "", "enrollment": 623, "teachers_fte": 37.0}, {"ncessch": "150003000174", "school_name": "Aliamanu Middle School", "city": "Honolulu", "state": "HI", "zip": "96818", "lat": 21.34299, "lon": -157.914655, "charter": false, "level": "", "enrollment": 688, "teachers_fte": 48.0}, {"ncessch": "150003000175", "school_name": "Aliamanu Elementary School", "city": "Honolulu", "state": "HI", "zip": "96818", "lat": 21.342676, "lon": -157.913276, "charter": false, "level": "", "enrollment": 638, "teachers_fte": 39.0}, {"ncessch": "150003000176", "school_name": "Aiea Intermediate School", "city": "Aiea", "state": "HI", "zip": "96701", "lat": 21.380552, "lon": -157.923878, "charter": false, "level": "", "enrollment": 468, "teachers_fte": 34.0}, {"ncessch": "150003000177", "school_name": "Aiea High School", "city": "Aiea", "state": "HI", "zip": "96701", "lat": 21.384469, "lon": -157.929743, "charter": false, "level": "", "enrollment": 995, "teachers_fte": 66.0}, {"ncessch": "150003000178", "school_name": "Aiea Elementary School", "city": "Aiea", "state": "HI", "zip": "96701", "lat": 21.375725, "lon": -157.928003, "charter": false, "level": "", "enrollment": 289, "teachers_fte": 19.0}, {"ncessch": "150003000179", "school_name": "Mayor John H Wilson Elementary School", "city": "Honolulu", "state": "HI", "zip": "96816", "lat": 21.282109, "lon": -157.784689001, "charter": false, "level": "", "enrollment": 522, "teachers_fte": 36.5}, {"ncessch": "150003000180", "school_name": "President George Washington Middle School", "city": "Honolulu", "state": "HI", "zip": "96826", "lat": 21.2963510000001, "lon": -157.835530001, "charter": false, "level": "", "enrollment": 569, "teachers_fte": 54.0}, {"ncessch": "150003000182", "school_name": "Waikiki Elementary School", "city": "Honolulu", "state": "HI", "zip": "96815", "lat": 21.2681700000001, "lon": -157.814398999, "charter": false, "level": "", "enrollment": 554, "teachers_fte": 36.5}, {"ncessch": "150003000183", "school_name": "Waialae Elementary - PCS", "city": "Honolulu", "state": "HI", "zip": "96816", "lat": 21.276647, "lon": -157.792207, "charter": true, "level": "", "enrollment": 459, "teachers_fte": 37.0}, {"ncessch": "150003000184", "school_name": "Robert Louis Stevenson Middle School", "city": "Honolulu", "state": "HI", "zip": "96822", "lat": 21.3104880000001, "lon": -157.840599, "charter": false, "level": "", "enrollment": 576, "teachers_fte": 38.0}, {"ncessch": "150003000185", "school_name": "Royal Elementary School", "city": "Honolulu", "state": "HI", "zip": "96813", "lat": 21.3119380000001, "lon": -157.853829999, "charter": false, "level": "", "enrollment": 325, "teachers_fte": 21.0}, {"ncessch": "150003000186", "school_name": "President Theodore Roosevelt High School", "city": "Honolulu", "state": "HI", "zip": "96822", "lat": 21.3104430000001, "lon": -157.837222, "charter": false, "level": "", "enrollment": 1433, "teachers_fte": 82.5}, {"ncessch": "150003000187", "school_name": "Puuhale Elementary School", "city": "Honolulu", "state": "HI", "zip": "96819", "lat": 21.3273789990001, "lon": -157.884507, "charter": false, "level": "", "enrollment": 243, "teachers_fte": 20.5}, {"ncessch": "150003000188", "school_name": "Pauoa Elementary School", "city": "Honolulu", "state": "HI", "zip": "96813", "lat": 21.3187609990001, "lon": -157.844071, "charter": false, "level": "", "enrollment": 371, "teachers_fte": 24.0}, {"ncessch": "150003000189", "school_name": "Palolo Elementary School", "city": "Honolulu", "state": "HI", "zip": "96816", "lat": 21.299406, "lon": -157.792489, "charter": false, "level": "", "enrollment": 272, "teachers_fte": 20.0}, {"ncessch": "150003000190", "school_name": "Nuuanu Elementary School", "city": "Honolulu", "state": "HI", "zip": "96817", "lat": 21.3357060000001, "lon": -157.834033, "charter": false, "level": "", "enrollment": 329, "teachers_fte": 23.0}, {"ncessch": "150003000191", "school_name": "Noelani Elementary School", "city": "Honolulu", "state": "HI", "zip": "96822", "lat": 21.3059920000001, "lon": -157.811559, "charter": false, "level": "", "enrollment": 394, "teachers_fte": 24.0}, {"ncessch": "150003000192", "school_name": "Niu Valley Middle School", "city": "Honolulu", "state": "HI", "zip": "96821", "lat": 21.2857460000001, "lon": -157.74037, "charter": false, "level": "", "enrollment": 772, "teachers_fte": 46.0}, {"ncessch": "150003000193", "school_name": "President William McKinley High School", "city": "Honolulu", "state": "HI", "zip": "96814", "lat": 21.299808, "lon": -157.848716, "charter": false, "level": "", "enrollment": 1502, "teachers_fte": 89.5}, {"ncessch": "150003000194", "school_name": "Manoa Elementary School", "city": "Honolulu", "state": "HI", "zip": "96822", "lat": 21.3165970000001, "lon": -157.808685, "charter": false, "level": "", "enrollment": 513, "teachers_fte": 31.0}, {"ncessch": "150003000195", "school_name": "King William Lunalilo Elementary School", "city": "Honolulu", "state": "HI", "zip": "96826", "lat": 21.292404, "lon": -157.832772999, "charter": false, "level": "", "enrollment": 260, "teachers_fte": 19.0}, {"ncessch": "150003000196", "school_name": "Maemae Elementary School", "city": "Honolulu", "state": "HI", "zip": "96817", "lat": 21.328272, "lon": -157.847764, "charter": false, "level": "", "enrollment": 657, "teachers_fte": 40.0}, {"ncessch": "150003000197", "school_name": "President Abraham Lincoln Elementary School", "city": "Honolulu", "state": "HI", "zip": "96813", "lat": 21.3128140000001, "lon": -157.840574, "charter": false, "level": "", "enrollment": 357, "teachers_fte": 26.0}, {"ncessch": "150003000198", "school_name": "Linapuni Elementary School", "city": "Honolulu", "state": "HI", "zip": "96819", "lat": 21.3389330000001, "lon": -157.877258, "charter": false, "level": "", "enrollment": 105, "teachers_fte": 11.0}, {"ncessch": "150003000200", "school_name": "Princess Miriam K Likelike Elementary School", "city": "Honolulu", "state": "HI", "zip": "96817", "lat": 21.325119, "lon": -157.863499, "charter": false, "level": "", "enrollment": 263, "teachers_fte": 22.0}, {"ncessch": "150003000201", "school_name": "King Liholiho Elementary School", "city": "Honolulu", "state": "HI", "zip": "96816", "lat": 21.2790889990001, "lon": -157.806465999, "charter": false, "level": "", "enrollment": 446, "teachers_fte": 27.5}, {"ncessch": "150003000202", "school_name": "Lanakila Elementary School", "city": "Honolulu", "state": "HI", "zip": "96817", "lat": 21.3267950000001, "lon": -157.860999, "charter": false, "level": "", "enrollment": 325, "teachers_fte": 24.0}, {"ncessch": "150003000203", "school_name": "Prince Jonah Kuhio Elementary School", "city": "Honolulu", "state": "HI", "zip": "96826", "lat": 21.2891010000001, "lon": -157.819783, "charter": false, "level": "", "enrollment": 196, "teachers_fte": 15.0}, {"ncessch": "150003000204", "school_name": "Koko Head Elementary School", "city": "Honolulu", "state": "HI", "zip": "96825", "lat": 21.2750569990001, "lon": -157.704533, "charter": false, "level": "", "enrollment": 308, "teachers_fte": 20.5}, {"ncessch": "150003000205", "school_name": "Prince David Kawananakoa Middle School", "city": "Honolulu", "state": "HI", "zip": "96813", "lat": 21.3197000000001, "lon": -157.851199999, "charter": false, "level": "", "enrollment": 589, "teachers_fte": 44.0}, {"ncessch": "150003000206", "school_name": "Kauluwela Elementary School", "city": "Honolulu", "state": "HI", "zip": "96817", "lat": 21.3190099990001, "lon": -157.858834, "charter": false, "level": "", "enrollment": 455, "teachers_fte": 31.0}, {"ncessch": "150003000207", "school_name": "Kapalama Elementary School", "city": "Honolulu", "state": "HI", "zip": "96817", "lat": 21.334635, "lon": -157.869215, "charter": false, "level": "", "enrollment": 518, "teachers_fte": 36.0}, {"ncessch": "150003000208", "school_name": "Kamiloiki Elementary School", "city": "Honolulu", "state": "HI", "zip": "96825", "lat": 21.294695, "lon": -157.685247, "charter": false, "level": "", "enrollment": 384, "teachers_fte": 27.0}, {"ncessch": "150003000209", "school_name": "Kalihi Waena Elementary School", "city": "Honolulu", "state": "HI", "zip": "96819", "lat": 21.336013, "lon": -157.87575, "charter": false, "level": "", "enrollment": 465, "teachers_fte": 33.0}, {"ncessch": "150003000210", "school_name": "Kalihi Uka Elementary School", "city": "Honolulu", "state": "HI", "zip": "96819", "lat": 21.3454360000001, "lon": -157.86203, "charter": false, "level": "", "enrollment": 259, "teachers_fte": 19.0}, {"ncessch": "150003000211", "school_name": "Kaimuki Middle School", "city": "Honolulu", "state": "HI", "zip": "96816", "lat": 21.269938, "lon": -157.797179, "charter": false, "level": "", "enrollment": 950, "teachers_fte": 58.0}, {"ncessch": "150003000212", "school_name": "Kaimuki High School", "city": "Honolulu", "state": "HI", "zip": "96816", "lat": 21.2864920000001, "lon": -157.81653, "charter": false, "level": "", "enrollment": 620, "teachers_fte": 48.0}, {"ncessch": "150003000213", "school_name": "President Thomas Jefferson Elementary School", "city": "Honolulu", "state": "HI", "zip": "96815", "lat": 21.273181, "lon": -157.818673, "charter": false, "level": "", "enrollment": 340, "teachers_fte": 25.0}, {"ncessch": "150003000214", "school_name": "Hokulani Elementary School", "city": "Honolulu", "state": "HI", "zip": "96816", "lat": 21.2918030000001, "lon": -157.812978, "charter": false, "level": "", "enrollment": 238, "teachers_fte": 21.0}, {"ncessch": "150003000215", "school_name": "Kahala Elementary School", "city": "Honolulu", "state": "HI", "zip": "96816", "lat": 21.2735450000001, "lon": -157.784562999, "charter": false, "level": "", "enrollment": 327, "teachers_fte": 22.0}, {"ncessch": "150003000216", "school_name": "Kaewai Elementary School", "city": "Honolulu", "state": "HI", "zip": "96819", "lat": 21.3448290000001, "lon": -157.869042999, "charter": false, "level": "", "enrollment": 277, "teachers_fte": 22.0}, {"ncessch": "150003000217", "school_name": "Queen Kaahumanu Elementary School", "city": "Honolulu", "state": "HI", "zip": "96814", "lat": 21.3024579990001, "lon": -157.843795, "charter": false, "level": "", "enrollment": 430, "teachers_fte": 36.5}, {"ncessch": "150003000218", "school_name": "William P Jarrett Middle School", "city": "Honolulu", "state": "HI", "zip": "96816", "lat": 21.2974810000001, "lon": -157.796968, "charter": false, "level": "", "enrollment": 260, "teachers_fte": 21.0}, {"ncessch": "150003000219", "school_name": "Hahaione Elementary School", "city": "Honolulu", "state": "HI", "zip": "96825", "lat": 21.2962150000001, "lon": -157.709951, "charter": false, "level": "", "enrollment": 518, "teachers_fte": 40.5}, {"ncessch": "150003000220", "school_name": "Mayor Joseph J Fern Elementary School", "city": "Honolulu", "state": "HI", "zip": "96819", "lat": 21.338490999, "lon": -157.881811, "charter": false, "level": "", "enrollment": 394, "teachers_fte": 29.0}, {"ncessch": "150003000221", "school_name": "Governor Wallace Rider Farrington High School", "city": "Honolulu", "state": "HI", "zip": "96817", "lat": 21.330988, "lon": -157.873522, "charter": false, "level": "", "enrollment": 2238, "teachers_fte": 140.0}, {"ncessch": "150003000222", "school_name": "Governor Sanford B Dole Middle School", "city": "Honolulu", "state": "HI", "zip": "96819", "lat": 21.342523, "lon": -157.870414999, "charter": false, "level": "", "enrollment": 530, "teachers_fte": 46.0}, {"ncessch": "150003000223", "school_name": "Princess Ruth Keelikolani Middle School", "city": "Honolulu", "state": "HI", "zip": "96813", "lat": 21.3117350000001, "lon": -157.856581, "charter": false, "level": "", "enrollment": 324, "teachers_fte": 28.0}, {"ncessch": "150003000225", "school_name": "Aliiolani Elementary School", "city": "Honolulu", "state": "HI", "zip": "96816", "lat": 21.286816, "lon": -157.805179999, "charter": false, "level": "", "enrollment": 255, "teachers_fte": 18.0}, {"ncessch": "150003000226", "school_name": "Ala Wai Elementary School", "city": "Honolulu", "state": "HI", "zip": "96826", "lat": 21.2849850000001, "lon": -157.826931, "charter": false, "level": "", "enrollment": 356, "teachers_fte": 24.0}, {"ncessch": "150003000227", "school_name": "Aina Haina Elementary School", "city": "Honolulu", "state": "HI", "zip": "96821", "lat": 21.279296, "lon": -157.757053, "charter": false, "level": "", "enrollment": 379, "teachers_fte": 27.5}, {"ncessch": "150003000228", "school_name": "Henry J Kaiser High School", "city": "Honolulu", "state": "HI", "zip": "96825", "lat": 21.2840580000001, "lon": -157.695890999, "charter": false, "level": "", "enrollment": 1160, "teachers_fte": 65.0}, {"ncessch": "150003000229", "school_name": "Waianae Intermediate School", "city": "Waianae", "state": "HI", "zip": "96792", "lat": 21.453181, "lon": -158.191874, "charter": false, "level": "", "enrollment": 671, "teachers_fte": 56.0}, {"ncessch": "150003000230", "school_name": "Leihoku Elementary School", "city": "Waianae", "state": "HI", "zip": "96792", "lat": 21.438774, "lon": -158.174393, "charter": false, "level": "", "enrollment": 804, "teachers_fte": 68.0}, {"ncessch": "150003000231", "school_name": "Kanoelani Elementary School", "city": "Waipahu", "state": "HI", "zip": "96797", "lat": 21.416277001, "lon": -157.99825, "charter": false, "level": "", "enrollment": 733, "teachers_fte": 51.0}, {"ncessch": "150003000232", "school_name": "Kahakai Elementary School", "city": "Kailua-Kona", "state": "HI", "zip": "96740", "lat": 19.614318, "lon": -155.977718, "charter": false, "level": "", "enrollment": 581, "teachers_fte": 34.0}, {"ncessch": "150003000233", "school_name": "Samuel Enoka Kalama Intermediate School", "city": "Makawao", "state": "HI", "zip": "96768", "lat": 20.8505640000001, "lon": -156.320938, "charter": false, "level": "", "enrollment": 833, "teachers_fte": 59.0}, {"ncessch": "150003000234", "school_name": "Pahoa Elementary School", "city": "Pahoa", "state": "HI", "zip": "96778", "lat": 19.492126, "lon": -154.943222, "charter": false, "level": "", "enrollment": 377, "teachers_fte": 26.0}, {"ncessch": "150003000235", "school_name": "Kealakehe Intermediate School", "city": "Kailua-Kona", "state": "HI", "zip": "96740", "lat": 19.6696430000001, "lon": -155.984386999, "charter": false, "level": "", "enrollment": 663, "teachers_fte": 41.5}, {"ncessch": "150003000236", "school_name": "Kahuku Elementary School", "city": "Kahuku", "state": "HI", "zip": "96731", "lat": 21.674357, "lon": -157.950775, "charter": false, "level": "", "enrollment": 330, "teachers_fte": 25.0}, {"ncessch": "150003000237", "school_name": "Princess Nahienaena Elementary School", "city": "Lahaina", "state": "HI", "zip": "96761", "lat": 20.887931, "lon": -156.663619, "charter": false, "level": "", "enrollment": 692, "teachers_fte": 45.0}, {"ncessch": "150003000238", "school_name": "Lokelani Intermediate School", "city": "Kihei", "state": "HI", "zip": "96753", "lat": 20.7458330010001, "lon": -156.448308, "charter": false, "level": "", "enrollment": 473, "teachers_fte": 29.0}, {"ncessch": "150003000239", "school_name": "Kaleiopuu Elementary School", "city": "Waipahu", "state": "HI", "zip": "96797", "lat": 21.3913440000001, "lon": -158.027812, "charter": false, "level": "", "enrollment": 772, "teachers_fte": 53.0}, {"ncessch": "150003000240", "school_name": "Kamaile Academy PCS", "city": "Waianae", "state": "HI", "zip": "96792", "lat": 21.4570180000001, "lon": -158.194873, "charter": true, "level": "", "enrollment": 957, "teachers_fte": 69.0}, {"ncessch": "150003000241", "school_name": "Maui Waena Intermediate School", "city": "Kahului", "state": "HI", "zip": "96732", "lat": 20.874035, "lon": -156.485142, "charter": false, "level": "", "enrollment": 1044, "teachers_fte": 66.5}, {"ncessch": "150003000242", "school_name": "King Kaumualii Elementary School", "city": "Lihue", "state": "HI", "zip": "96766", "lat": 21.9964120000001, "lon": -159.351039, "charter": false, "level": "", "enrollment": 549, "teachers_fte": 42.0}, {"ncessch": "150003000244", "school_name": "Keonepoko Elementary School", "city": "Pahoa", "state": "HI", "zip": "96778", "lat": 19.525557, "lon": -154.926622, "charter": false, "level": "", "enrollment": 562, "teachers_fte": 43.0}, {"ncessch": "150003000246", "school_name": "Anuenue School", "city": "Honolulu", "state": "HI", "zip": "96816", "lat": 21.304205, "lon": -157.789977, "charter": false, "level": "", "enrollment": 448, "teachers_fte": 33.0}, {"ncessch": "150003000247", "school_name": "Waikoloa Elementary and Middle School", "city": "Waikoloa", "state": "HI", "zip": "96738", "lat": 19.9463870000001, "lon": -155.790644999, "charter": false, "level": "", "enrollment": 713, "teachers_fte": 57.0}, {"ncessch": "150003000248", "school_name": "Holomua Elementary School", "city": "Ewa Beach", "state": "HI", "zip": "96706", "lat": 21.3391940000001, "lon": -158.020032, "charter": false, "level": "", "enrollment": 1095, "teachers_fte": 68.0}, {"ncessch": "150003000249", "school_name": "Honokaa Elementary School", "city": "Honokaa", "state": "HI", "zip": "96727", "lat": 20.075455, "lon": -155.464772, "charter": false, "level": "", "enrollment": 406, "teachers_fte": 23.0}, {"ncessch": "150003000250", "school_name": "Kohala Elementary School", "city": "Kapaau", "state": "HI", "zip": "96755", "lat": 20.237765, "lon": -155.81908, "charter": false, "level": "", "enrollment": 339, "teachers_fte": 25.0}, {"ncessch": "150003000251", "school_name": "King Kekaulike High School", "city": "Pukalani", "state": "HI", "zip": "96768", "lat": 20.8278970010001, "lon": -156.327074, "charter": false, "level": "", "enrollment": 1168, "teachers_fte": 72.0}, {"ncessch": "150003000252", "school_name": "Konawaena Middle School", "city": "Kealakekua", "state": "HI", "zip": "96750", "lat": 19.510069001, "lon": -155.914744001, "charter": false, "level": "", "enrollment": 568, "teachers_fte": 41.0}, {"ncessch": "150003000253", "school_name": "Kamalii Elementary School", "city": "Kihei", "state": "HI", "zip": "96753", "lat": 20.7212679990001, "lon": -156.440359999, "charter": false, "level": "", "enrollment": 396, "teachers_fte": 31.0}, {"ncessch": "150003000254", "school_name": "Kealakehe High School", "city": "Kailua-Kona", "state": "HI", "zip": "96740", "lat": 19.669007, "lon": -155.999340001, "charter": false, "level": "", "enrollment": 1450, "teachers_fte": 81.0}, {"ncessch": "150003000255", "school_name": "Kapaa Middle School", "city": "Kapaa", "state": "HI", "zip": "96746", "lat": 22.078693001, "lon": -159.328324, "charter": false, "level": "", "enrollment": 575, "teachers_fte": 28.5}, {"ncessch": "150003000256", "school_name": "Mililani Middle School", "city": "Mililani", "state": "HI", "zip": "96789", "lat": 21.475585, "lon": -157.988471, "charter": false, "level": "", "enrollment": 1580, "teachers_fte": 100.0}, {"ncessch": "150003000257", "school_name": "Waikele Elementary School", "city": "Waipahu", "state": "HI", "zip": "96797", "lat": 21.402519, "lon": -158.012706001, "charter": false, "level": "", "enrollment": 496, "teachers_fte": 34.0}, {"ncessch": "150003000258", "school_name": "Keaau Elementary School", "city": "Keaau", "state": "HI", "zip": "96749", "lat": 19.613366, "lon": -155.035263, "charter": false, "level": "", "enrollment": 821, "teachers_fte": 54.0}, {"ncessch": "150003000259", "school_name": "Kapolei Middle School", "city": "Kapolei", "state": "HI", "zip": "96707", "lat": 21.3328470000001, "lon": -158.057622999, "charter": false, "level": "", "enrollment": 655, "teachers_fte": 55.0}, {"ncessch": "150003000260", "school_name": "Keaau High School", "city": "Keaau", "state": "HI", "zip": "96749", "lat": 19.6124810000001, "lon": -155.031565, "charter": false, "level": "", "enrollment": 1046, "teachers_fte": 66.0}, {"ncessch": "150003000261", "school_name": "Kapolei High School", "city": "Kapolei", "state": "HI", "zip": "96707", "lat": 21.328834, "lon": -158.06871, "charter": false, "level": "", "enrollment": 2025, "teachers_fte": 127.0}, {"ncessch": "150003000262", "school_name": "Connections - New Century PCS", "city": "Hilo", "state": "HI", "zip": "96720", "lat": 19.7252770000001, "lon": -155.086560001, "charter": true, "level": "", "enrollment": 340, "teachers_fte": 29.0}, {"ncessch": "150003000263", "school_name": "Kanu o ka Aina - New Century PCS", "city": "Kamuela", "state": "HI", "zip": "96743", "lat": 20.016148, "lon": -155.652684, "charter": true, "level": "", "enrollment": 612, "teachers_fte": 42.0}, {"ncessch": "150003000264", "school_name": "Na Wai Ola - PCS", "city": "Mountain View", "state": "HI", "zip": "96771", "lat": 19.5489000000001, "lon": -155.108411, "charter": true, "level": "", "enrollment": 96, "teachers_fte": 18.0}, {"ncessch": "150003000265", "school_name": "West Hawaii Explorations Academy", "city": "Kailua-Kona", "state": "HI", "zip": "96740", "lat": 19.7140000000001, "lon": -156.036404, "charter": true, "level": "", "enrollment": 274, "teachers_fte": 25.0}, {"ncessch": "150003000266", "school_name": "Chiefess Kamakahelei Middle School", "city": "Lihue", "state": "HI", "zip": "96766", "lat": 21.9672340000001, "lon": -159.388179, "charter": false, "level": "", "enrollment": 808, "teachers_fte": 56.0}, {"ncessch": "150003000267", "school_name": "Kohala Middle School", "city": "Kapaau", "state": "HI", "zip": "96755", "lat": 20.2273050000001, "lon": -155.778459, "charter": false, "level": "", "enrollment": 150, "teachers_fte": 12.0}, {"ncessch": "150003000268", "school_name": "Waimea Middle - PCCS", "city": "Kamuela", "state": "HI", "zip": "96743", "lat": 20.01824, "lon": -155.669052, "charter": true, "level": "", "enrollment": 194, "teachers_fte": 20.5}, {"ncessch": "150003000269", "school_name": "Kula Aupuni Niihau A Kahelelani Aloha - NCPCS", "city": "Kekaha", "state": "HI", "zip": "96752", "lat": 21.969257, "lon": -159.710955, "charter": true, "level": "", "enrollment": 46, "teachers_fte": 3.0}, {"ncessch": "150003000270", "school_name": "Halau Ku Mana - A New Century PCS", "city": "Honolulu", "state": "HI", "zip": "96822", "lat": 21.3128320000001, "lon": -157.829534, "charter": true, "level": "", "enrollment": 122, "teachers_fte": 14.5}, {"ncessch": "150003000271", "school_name": "Voyager - A Public Charter School", "city": "Honolulu", "state": "HI", "zip": "96822", "lat": 21.295919999, "lon": -157.822900999, "charter": true, "level": "", "enrollment": 273, "teachers_fte": 21.75}, {"ncessch": "150003000273", "school_name": "University Laboratory School", "city": "Honolulu", "state": "HI", "zip": "96822", "lat": 21.297946999, "lon": -157.821646, "charter": true, "level": "", "enrollment": 451, "teachers_fte": 37.7999992370605}, {"ncessch": "150003000274", "school_name": "Myron B. Thompson Academy - New Century PCS", "city": "Honolulu", "state": "HI", "zip": "96813", "lat": 21.3076780010001, "lon": -157.859793001, "charter": true, "level": "", "enrollment": 523, "teachers_fte": 20.0}, {"ncessch": "150003000275", "school_name": "Hakipuu Academy", "city": "Kaneohe", "state": "HI", "zip": "96744", "lat": 21.4084720000001, "lon": -157.811078, "charter": true, "level": "", "enrollment": 49, "teachers_fte": 6.0}, {"ncessch": "150003000276", "school_name": "Ke Kula o Samuel M Kamakau - A Laboratory PCS", "city": "Kaneohe", "state": "HI", "zip": "96744", "lat": 21.4053240000001, "lon": -157.825409, "charter": true, "level": "", "enrollment": 121, "teachers_fte": 10.0}, {"ncessch": "150003000277", "school_name": "Innovations - PCS", "city": "Kailua-Kona", "state": "HI", "zip": "96740", "lat": 19.632031, "lon": -155.974707, "charter": true, "level": "", "enrollment": 240, "teachers_fte": 13.5}, {"ncessch": "150003000278", "school_name": "Ke Ana Laahana - PCS", "city": "Hilo", "state": "HI", "zip": "96720", "lat": 19.733868, "lon": -155.035553, "charter": true, "level": "", "enrollment": 34, "teachers_fte": 2.0}, {"ncessch": "150003000279", "school_name": "Kihei Charter School", "city": "Kihei", "state": "HI", "zip": "96753", "lat": 20.7482210000001, "lon": -156.436248, "charter": true, "level": "", "enrollment": 693, "teachers_fte": 42.0}, {"ncessch": "150003000280", "school_name": "Ke Kula Niihau o Kekaha Learning Center", "city": "Kekaha", "state": "HI", "zip": "96752", "lat": 21.9727980000001, "lon": -159.715428, "charter": true, "level": "", "enrollment": 50, "teachers_fte": 3.0}, {"ncessch": "150003000281", "school_name": "Volcano School of Arts & Sciences - A Community PCS", "city": "Volcano", "state": "HI", "zip": "96785", "lat": 19.423863, "lon": -155.241402, "charter": true, "level": "", "enrollment": 264, "teachers_fte": 26.5}, {"ncessch": "150003000282", "school_name": "Hawaii Academy of Arts & Science PCS", "city": "Pahoa", "state": "HI", "zip": "96778", "lat": 19.501048, "lon": -154.944525999, "charter": true, "level": "", "enrollment": 683, "teachers_fte": 48.0}, {"ncessch": "150003000283", "school_name": "Ka Umeke Kaeo - PCS", "city": "Hilo", "state": "HI", "zip": "96720", "lat": 19.7342, "lon": -155.035787, "charter": true, "level": "", "enrollment": 263, "teachers_fte": 22.0}, {"ncessch": "150003000284", "school_name": "Ke Kula o Nawahiokalaniopuu Iki - Laboratory PCS", "city": "Keaau", "state": "HI", "zip": "96749", "lat": 19.605812999, "lon": -155.028882001, "charter": true, "level": "", "enrollment": 460, "teachers_fte": 39.8499984741211}, {"ncessch": "150003000285", "school_name": "Mililani Ike Elementary School", "city": "Mililani", "state": "HI", "zip": "96789", "lat": 21.479547, "lon": -157.986059, "charter": false, "level": "", "enrollment": 479, "teachers_fte": 34.0}, {"ncessch": "150003000286", "school_name": "Ka Waihona o ka Naauao - PCS", "city": "Waianae", "state": "HI", "zip": "96792", "lat": 21.379575001, "lon": -158.144202, "charter": true, "level": "", "enrollment": 611, "teachers_fte": 43.0}, {"ncessch": "150003000287", "school_name": "Ke Kula o Ehunuikaimalino", "city": "Kealakekua", "state": "HI", "zip": "96750", "lat": 19.509264999, "lon": -155.917695, "charter": false, "level": "", "enrollment": 268, "teachers_fte": 19.5}, {"ncessch": "150003000288", "school_name": "Kua o ka La - NCPCS", "city": "Hilo", "state": "HI", "zip": "96720", "lat": 19.672087, "lon": -155.055056, "charter": true, "level": "", "enrollment": 164, "teachers_fte": 13.0}, {"ncessch": "150003000289", "school_name": "Kanuikapono - PCS", "city": "Anahola", "state": "HI", "zip": "96703", "lat": 22.138743999, "lon": -159.301636999, "charter": true, "level": "", "enrollment": 203, "teachers_fte": 14.0}, {"ncessch": "150003000290", "school_name": "Molokai Middle School", "city": "Hoolehua", "state": "HI", "zip": "96729", "lat": 21.164088, "lon": -157.047725, "charter": false, "level": "", "enrollment": 176, "teachers_fte": 15.5}, {"ncessch": "150003000291", "school_name": "Keoneula Elementary School", "city": "Ewa Beach", "state": "HI", "zip": "96706", "lat": 21.3234540010001, "lon": -158.020481, "charter": false, "level": "", "enrollment": 932, "teachers_fte": 57.0}, {"ncessch": "150003000292", "school_name": "Pomaikai Elementary School", "city": "Kahului", "state": "HI", "zip": "96732", "lat": 20.864855999, "lon": -156.487461, "charter": false, "level": "", "enrollment": 518, "teachers_fte": 34.5}, {"ncessch": "150003000293", "school_name": "Kona Pacific - PCS", "city": "Kealakekua", "state": "HI", "zip": "96750", "lat": 19.520021, "lon": -155.915824, "charter": true, "level": "", "enrollment": 187, "teachers_fte": 16.0}, {"ncessch": "150003000294", "school_name": "Kawaikini - NCPCS", "city": "Lihue", "state": "HI", "zip": "96766", "lat": 21.9681670000001, "lon": -159.399772, "charter": true, "level": "", "enrollment": 151, "teachers_fte": 16.0}, {"ncessch": "150003000295", "school_name": "Hawaii Technology Academy - PCS", "city": "Waipahu", "state": "HI", "zip": "96797", "lat": 21.387435001, "lon": -158.007369, "charter": true, "level": "", "enrollment": 1403, "teachers_fte": 87.75}, {"ncessch": "150003000296", "school_name": "Ewa Makai Middle School", "city": "Ewa Beach", "state": "HI", "zip": "96706", "lat": 21.3228990000001, "lon": -158.027322, "charter": false, "level": "", "enrollment": 1119, "teachers_fte": 77.0}, {"ncessch": "150003000297", "school_name": "Puu Kukui Elementary School", "city": "Wailuku", "state": "HI", "zip": "96793", "lat": 20.876900001, "lon": -156.508284, "charter": false, "level": "", "enrollment": 696, "teachers_fte": 41.0}, {"ncessch": "150003000298", "school_name": "School for Examining Essential Questions of Sustainability", "city": "Honolulu", "state": "HI", "zip": "96817", "lat": 21.3188480000001, "lon": -157.854502, "charter": true, "level": "", "enrollment": 176, "teachers_fte": 17.0}, {"ncessch": "150003000299", "school_name": "Malama Honua Charter School", "city": "Waimanalo", "state": "HI", "zip": "96795", "lat": 21.339034, "lon": -157.702317, "charter": true, "level": "", "enrollment": 165, "teachers_fte": 10.0}, {"ncessch": "150003000300", "school_name": "Hookele Elementary School", "city": "Kapolei", "state": "HI", "zip": "96707", "lat": 21.3272969990001, "lon": -158.072383001, "charter": false, "level": "", "enrollment": 791, "teachers_fte": 48.5}, {"ncessch": "150003000302", "school_name": "Kapolei Charter School by Goodwill Hawaii", "city": "Kapolei", "state": "HI", "zip": "96706", "lat": 21.318517, "lon": -158.091082, "charter": true, "level": "", "enrollment": 158, "teachers_fte": 8.0}, {"ncessch": "150003000303", "school_name": "Kamalani Academy", "city": "Wahiawa", "state": "HI", "zip": "96786", "lat": 21.5017900010001, "lon": -158.015561, "charter": true, "level": "", "enrollment": 156, "teachers_fte": 14.0}, {"ncessch": "150003000304", "school_name": "Alaka'i O Kaua'i Charter School", "city": "Koloa", "state": "HI", "zip": "96756", "lat": 21.962163, "lon": -159.47826, "charter": true, "level": "", "enrollment": 201, "teachers_fte": 11.0}, {"ncessch": "150003000305", "school_name": "DreamHouse Ewa Beach", "city": "Kapolei", "state": "HI", "zip": "96707", "lat": 21.3221790000001, "lon": -158.077688, "charter": true, "level": "", "enrollment": 382, "teachers_fte": 25.0}, {"ncessch": "150003000306", "school_name": "Honouliuli Middle School", "city": "Ewa Beach", "state": "HI", "zip": "96706", "lat": 21.344634, "lon": -158.047993, "charter": false, "level": "", "enrollment": 714, "teachers_fte": 44.0}, {"ncessch": "150003000307", "school_name": "Kulanihakoi High School", "city": "Kihei", "state": "HI", "zip": "96753", "lat": 20.7617480000001, "lon": -156.446868999, "charter": false, "level": "", "enrollment": 27, "teachers_fte": 10.0}]}