{"0200001": [{"ncessch": "020000100206", "school_name": "Joann A. Alexie Memorial School", "city": "Atmautluak", "state": "AK", "zip": "99559", "lat": 60.8573710000001, "lon": -162.276467, "charter": false, "level": "", "enrollment": 99, "teachers_fte": 6.0}, {"ncessch": "020000100207", "school_name": "Gladys Jung Elementary", "city": "Bethel", "state": "AK", "zip": "99559", "lat": 60.804358, "lon": -161.770708, "charter": false, "level": "", "enrollment": 296, "teachers_fte": 20.0}, {"ncessch": "020000100208", "school_name": "Bethel Regional High School", "city": "Bethel", "state": "AK", "zip": "99559", "lat": 60.802583999, "lon": -161.770398, "charter": false, "level": "", "enrollment": 494, "teachers_fte": 40.0}, {"ncessch": "020000100209", "school_name": "Chaputnguak School", "city": "Chefornak", "state": "AK", "zip": "99561", "lat": 60.157611999, "lon": -164.282245, "charter": false, "level": "", "enrollment": 146, "teachers_fte": 8.0}, {"ncessch": "020000100210", "school_name": "Chief Paul Memorial School", "city": "Kipnuk", "state": "AK", "zip": "99614", "lat": 59.9365330000001, "lon": -164.038046, "charter": false, "level": "", "enrollment": 189, "teachers_fte": 10.8500003814697}, {"ncessch": "020000100211", "school_name": "Ayagina'ar Elitnaurvik", "city": "Kongiganak", "state": "AK", "zip": "99559", "lat": 59.959437, "lon": -162.887161, "charter": false, "level": "", "enrollment": 184, "teachers_fte": 9.0}, {"ncessch": "020000100212", "school_name": "Kwigillingok School", "city": "Kwigillingok", "state": "AK", "zip": "99622", "lat": 59.8771530010001, "lon": -163.157701, "charter": false, "level": "", "enrollment": 129, "teachers_fte": 4.0}, {"ncessch": "020000100213", "school_name": "Nelson Island Area School", "city": "Toksook Bay", "state": "AK", "zip": "99637", "lat": 60.533031001, "lon": -165.109016, "charter": false, "level": "", "enrollment": 169, "teachers_fte": 12.0}, {"ncessch": "020000100214", "school_name": "Anna Tobeluk Memorial School", "city": "Nunapitchuk", "state": "AK", "zip": "99641", "lat": 60.896508, "lon": -162.456382, "charter": false, "level": "", "enrollment": 178, "teachers_fte": 12.8000001907349}, {"ncessch": "020000100215", "school_name": "Arviq School", "city": "Platinum", "state": "AK", "zip": "99651", "lat": 59.0119760000001, "lon": -161.817408, "charter": false, "level": "", "enrollment": 6, "teachers_fte": 1.0}, {"ncessch": "020000100318", "school_name": "Kuskokwim Learning Academy", "city": "Bethel", "state": "AK", "zip": "99559", "lat": 60.7961310000001, "lon": -161.765193999, "charter": false, "level": "", "enrollment": 36, "teachers_fte": 5.0}, {"ncessch": "020000100329", "school_name": "Ayaprun Elitnaurvik", "city": "Bethel", "state": "AK", "zip": "99559", "lat": 60.7961310000001, "lon": -161.765193999, "charter": true, "level": "", "enrollment": 167, "teachers_fte": 8.0}, {"ncessch": "020000100389", "school_name": "Paul T. Albert Memorial School", "city": "Tununak", "state": "AK", "zip": "99681", "lat": 60.5860720000001, "lon": -165.251625, "charter": false, "level": "", "enrollment": 119, "teachers_fte": 7.0}, {"ncessch": "020000100391", "school_name": "Akula Elitnaurvik School", "city": "Kasigluk", "state": "AK", "zip": "99609", "lat": 60.872863001, "lon": -162.516114, "charter": false, "level": "", "enrollment": 126, "teachers_fte": 4.0}, {"ncessch": "020000100392", "school_name": "Eek School", "city": "Eek", "state": "AK", "zip": "99578", "lat": 60.215856, "lon": -162.025872999, "charter": false, "level": "", "enrollment": 114, "teachers_fte": 7.0}, {"ncessch": "020000100406", "school_name": "Lewis Angapak Memorial School", "city": "Tuntutuliak", "state": "AK", "zip": "99680", "lat": 60.3428640000001, "lon": -162.676324, "charter": false, "level": "", "enrollment": 151, "teachers_fte": 8.0}, {"ncessch": "020000100408", "school_name": "Nuniwarmiut School", "city": "Mekoryuk", "state": "AK", "zip": "99630", "lat": 60.3865210000001, "lon": -166.189217999, "charter": false, "level": "", "enrollment": 43, "teachers_fte": 2.0}, {"ncessch": "020000100409", "school_name": "William Miller Memorial School", "city": "Napakiak", "state": "AK", "zip": "99634", "lat": 60.694191001, "lon": -161.97091, "charter": false, "level": "", "enrollment": 86, "teachers_fte": 5.0}, {"ncessch": "020000100436", "school_name": "Mikelnguut Elitnaurviat", "city": "Bethel", "state": "AK", "zip": "99559", "lat": 60.8046800000001, "lon": -161.772467999, "charter": false, "level": "", "enrollment": 284, "teachers_fte": 20.0}, {"ncessch": "020000100438", "school_name": "Ket'acik/Aapalluk Memorial School", "city": "Kwethluk", "state": "AK", "zip": "99621", "lat": 60.8107420000001, "lon": -161.423993999, "charter": false, "level": "", "enrollment": 262, "teachers_fte": 14.0}, {"ncessch": "020000100439", "school_name": "Z. John Williams Memorial School", "city": "Napaskiak", "state": "AK", "zip": "99634", "lat": 60.707837, "lon": -161.760468, "charter": false, "level": "", "enrollment": 127, "teachers_fte": 11.0}, {"ncessch": "020000100440", "school_name": "Ayaprun School", "city": "Newtok", "state": "AK", "zip": "99559", "lat": 60.936833, "lon": -164.629312001, "charter": false, "level": "", "enrollment": 43, "teachers_fte": 2.0}, {"ncessch": "020000100441", "school_name": "Kuinerrarmiut Elitnaurviat", "city": "Quinhagak", "state": "AK", "zip": "99655", "lat": 59.7515990000001, "lon": -161.897479, "charter": false, "level": "", "enrollment": 188, "teachers_fte": 13.0}, {"ncessch": "020000100474", "school_name": "Negtemiut Elitnaurviat School", "city": "Nightmute", "state": "AK", "zip": "99690", "lat": 60.4768959990001, "lon": -164.722417001, "charter": false, "level": "", "enrollment": 99, "teachers_fte": 3.0}, {"ncessch": "020000100475", "school_name": "Qugcuun Memorial School", "city": "Oscarville (Kuiggayagaq)", "state": "AK", "zip": "99559", "lat": 60.7226840000001, "lon": -161.771339, "charter": false, "level": "", "enrollment": 18, "teachers_fte": 1.0}, {"ncessch": "020000100476", "school_name": "Rocky Mountain School", "city": "Goodnews Bay", "state": "AK", "zip": "99589", "lat": 59.122128, "lon": -161.592127, "charter": false, "level": "", "enrollment": 78, "teachers_fte": 4.0}, {"ncessch": "020000100619", "school_name": "Akiuk Memorial School", "city": "Kasigluk", "state": "AK", "zip": "99609", "lat": 60.894621, "lon": -162.519284, "charter": false, "level": "", "enrollment": 86, "teachers_fte": 6.0}, {"ncessch": "020000100620", "school_name": "Bethel Youth Facility", "city": "Bethel", "state": "AK", "zip": "99559", "lat": 60.7869360000001, "lon": -161.786983999, "charter": false, "level": "", "enrollment": 11, "teachers_fte": 2.0}, {"ncessch": "020000100765", "school_name": "Mertarvik School", "city": "Mertarvik", "state": "AK", "zip": "99559", "lat": 60.8217220000001, "lon": -164.502877, "charter": false, "level": "", "enrollment": 42, "teachers_fte": 3.0}], "0200003": [{"ncessch": "020000300216", "school_name": "Alakanuk School", "city": "Alakanuk", "state": "AK", "zip": "99554", "lat": 62.684937, "lon": -164.669268, "charter": false, "level": "", "enrollment": 221, "teachers_fte": 16.0}, {"ncessch": "020000300217", "school_name": "Emmonak School", "city": "Emmonak", "state": "AK", "zip": "99581", "lat": 62.778472999, "lon": -164.528906, "charter": false, "level": "", "enrollment": 223, "teachers_fte": 15.0}, {"ncessch": "020000300218", "school_name": "Marshall School", "city": "Marshall", "state": "AK", "zip": "99585", "lat": 61.8791790000001, "lon": -162.087128, "charter": false, "level": "", "enrollment": 139, "teachers_fte": 9.0}, {"ncessch": "020000300219", "school_name": "Hooper Bay School", "city": "Hooper Bay", "state": "AK", "zip": "99604", "lat": 61.5218120000001, "lon": -166.096304001, "charter": false, "level": "", "enrollment": 451, "teachers_fte": 27.0}, {"ncessch": "020000300220", "school_name": "Mountain Village School", "city": "Mountain Village", "state": "AK", "zip": "99632", "lat": 62.0890640010001, "lon": -163.728135, "charter": false, "level": "", "enrollment": 183, "teachers_fte": 14.0}, {"ncessch": "020000300222", "school_name": "Russian Mission School", "city": "Russian Mission", "state": "AK", "zip": "99657", "lat": 61.786345, "lon": -161.325695, "charter": false, "level": "", "enrollment": 122, "teachers_fte": 9.0}, {"ncessch": "020000300410", "school_name": "Pilot Station School", "city": "Pilot Station", "state": "AK", "zip": "99650", "lat": 61.9360800000001, "lon": -162.892124, "charter": false, "level": "", "enrollment": 188, "teachers_fte": 9.0}, {"ncessch": "020000300411", "school_name": "Kotlik School", "city": "Kotlik", "state": "AK", "zip": "99620", "lat": 63.031678001, "lon": -163.554855, "charter": false, "level": "", "enrollment": 170, "teachers_fte": 11.0}, {"ncessch": "020000300412", "school_name": "Scammon Bay School", "city": "Scammon Bay", "state": "AK", "zip": "99662", "lat": 61.838761, "lon": -165.566778001, "charter": false, "level": "", "enrollment": 226, "teachers_fte": 14.2200002670288}, {"ncessch": "020000300413", "school_name": "Nunam Iqua School", "city": "Nunam Iqua", "state": "AK", "zip": "99666", "lat": 62.531773, "lon": -164.848136, "charter": false, "level": "", "enrollment": 65, "teachers_fte": 5.0}, {"ncessch": "020000300767", "school_name": "Hooper Bay Charter School", "city": "Hooper Bay", "state": "AK", "zip": "99604", "lat": 61.5218120000001, "lon": -166.096304001, "charter": true, "level": "", "enrollment": 47, "teachers_fte": 1.0}], "0200004": [{"ncessch": "020000400579", "school_name": "Akiachak School", "city": "Akiachak", "state": "AK", "zip": "99551", "lat": 60.9138830000001, "lon": -161.448992001, "charter": false, "level": "", "enrollment": 224, "teachers_fte": 15.0}, {"ncessch": "020000400623", "school_name": "Tuluksak School", "city": "Tuluksak", "state": "AK", "zip": "99679", "lat": 61.0986770000001, "lon": -160.956438, "charter": false, "level": "", "enrollment": 107, "teachers_fte": 9.0}, {"ncessch": "020000400624", "school_name": "Akiak School", "city": "Akiak", "state": "AK", "zip": "99552", "lat": 60.9071870010001, "lon": -161.229711, "charter": false, "level": "", "enrollment": 140, "teachers_fte": 10.5}], "0200005": [{"ncessch": "020000500582", "school_name": "Chevak School", "city": "Chevak", "state": "AK", "zip": "99563", "lat": 61.5310480000001, "lon": -165.585866, "charter": false, "level": "", "enrollment": 339, "teachers_fte": 21.0}], "0200006": [{"ncessch": "020000600558", "school_name": "Mt. Edgecumbe High School", "city": "Sitka", "state": "AK", "zip": "99835", "lat": 57.0509280000001, "lon": -135.351918001, "charter": false, "level": "", "enrollment": 407, "teachers_fte": 25.75}], "0200007": [{"ncessch": "020000700004", "school_name": "Akutan School", "city": "Akutan", "state": "AK", "zip": "99553", "lat": 54.134961, "lon": -165.77227, "charter": false, "level": "", "enrollment": 20, "teachers_fte": 2.0}, {"ncessch": "020000700007", "school_name": "False Pass School", "city": "False Pass", "state": "AK", "zip": "99583", "lat": 54.8531630000001, "lon": -163.418383, "charter": false, "level": "", "enrollment": 9, "teachers_fte": 1.0}, {"ncessch": "020000700177", "school_name": "King Cove School", "city": "King Cove", "state": "AK", "zip": "99612", "lat": 55.047280001, "lon": -162.29577, "charter": false, "level": "", "enrollment": 84, "teachers_fte": 12.0}, {"ncessch": "020000700461", "school_name": "Sand Point School", "city": "Sand Point", "state": "AK", "zip": "99661", "lat": 55.351546, "lon": -160.475841, "charter": false, "level": "", "enrollment": 98, "teachers_fte": 11.0}], "0200010": [{"ncessch": "020001000005", "school_name": "Yakov E. Netsvetov School", "city": "Atka", "state": "AK", "zip": "99547", "lat": 52.1986590000001, "lon": -174.198594, "charter": false, "level": "", "enrollment": 11, "teachers_fte": 2.0}, {"ncessch": "020001000080", "school_name": "Adak School", "city": "Adak", "state": "AK", "zip": "99546", "lat": 51.868164, "lon": -176.640330999, "charter": false, "level": "", "enrollment": 5, "teachers_fte": 2.0}], "0200020": [{"ncessch": "020002000012", "school_name": "Gambell School", "city": "Gambell", "state": "AK", "zip": "99742", "lat": 63.776842, "lon": -171.715402, "charter": false, "level": "", "enrollment": 166, "teachers_fte": 15.0}, {"ncessch": "020002000013", "school_name": "Koyuk-Malimiut School", "city": "Koyuk", "state": "AK", "zip": "99753", "lat": 64.9320660000001, "lon": -161.157269999, "charter": false, "level": "", "enrollment": 83, "teachers_fte": 10.0}, {"ncessch": "020002000014", "school_name": "Hogarth Kingeekuk Sr. Memorial School", "city": "Savoonga", "state": "AK", "zip": "99769", "lat": 63.692376999, "lon": -170.491327, "charter": false, "level": "", "enrollment": 237, "teachers_fte": 22.0}, {"ncessch": "020002000015", "school_name": "Shishmaref School", "city": "Shishmaref", "state": "AK", "zip": "99772", "lat": 66.2557679990001, "lon": -166.072675, "charter": false, "level": "", "enrollment": 199, "teachers_fte": 12.0}, {"ncessch": "020002000016", "school_name": "James C. Isabell School", "city": "Teller", "state": "AK", "zip": "99778", "lat": 65.2636239990001, "lon": -166.366659, "charter": false, "level": "", "enrollment": 70, "teachers_fte": 8.0}, {"ncessch": "020002000017", "school_name": "Unalakleet School", "city": "Unalakleet", "state": "AK", "zip": "99684", "lat": 63.87652, "lon": -160.795158001, "charter": false, "level": "", "enrollment": 170, "teachers_fte": 17.0}, {"ncessch": "020002000018", "school_name": "Wales School", "city": "Wales", "state": "AK", "zip": "99783", "lat": 65.6050980000001, "lon": -168.085971, "charter": false, "level": "", "enrollment": 37, "teachers_fte": 5.0}, {"ncessch": "020002000019", "school_name": "White Mountain School", "city": "White Mountain", "state": "AK", "zip": "99784", "lat": 64.6783629990001, "lon": -163.396679001, "charter": false, "level": "", "enrollment": 67, "teachers_fte": 8.0}, {"ncessch": "020002000421", "school_name": "Aniguiin School", "city": "Elim", "state": "AK", "zip": "99739", "lat": 64.6159870010001, "lon": -162.264728999, "charter": false, "level": "", "enrollment": 105, "teachers_fte": 11.0}, {"ncessch": "020002000422", "school_name": "Martin L. Olson School", "city": "Golovin", "state": "AK", "zip": "99762", "lat": 64.542917, "lon": -163.03506, "charter": false, "level": "", "enrollment": 43, "teachers_fte": 8.0}, {"ncessch": "020002000423", "school_name": "Brevig Mission School", "city": "Brevig Mission", "state": "AK", "zip": "99785", "lat": 65.333225, "lon": -166.487804, "charter": false, "level": "", "enrollment": 169, "teachers_fte": 14.0}, {"ncessch": "020002000466", "school_name": "Shaktoolik School", "city": "Shaktoolik", "state": "AK", "zip": "99771", "lat": 64.3537890000001, "lon": -161.194283, "charter": false, "level": "", "enrollment": 72, "teachers_fte": 7.0}, {"ncessch": "020002000467", "school_name": "Anthony A. Andrews School", "city": "St. Michael", "state": "AK", "zip": "99659", "lat": 63.482262001, "lon": -162.02919, "charter": false, "level": "", "enrollment": 154, "teachers_fte": 17.0}, {"ncessch": "020002000468", "school_name": "Tukurngailnguq School", "city": "Stebbins", "state": "AK", "zip": "99671", "lat": 63.5194260000001, "lon": -162.287615, "charter": false, "level": "", "enrollment": 231, "teachers_fte": 15.0}, {"ncessch": "020002000499", "school_name": "Diomede School", "city": "Diomede", "state": "AK", "zip": "99762", "lat": 65.758906999, "lon": -168.951461, "charter": false, "level": "", "enrollment": 27, "teachers_fte": 3.0}], "0200030": [{"ncessch": "020003000020", "school_name": "Bristol Bay Middle/High School", "city": "Naknek", "state": "AK", "zip": "99633", "lat": 58.7333070000001, "lon": -157.004582, "charter": false, "level": "", "enrollment": 49, "teachers_fte": 4.40000009536743}, {"ncessch": "020003000626", "school_name": "Naknek Elementary", "city": "Naknek", "state": "AK", "zip": "99633", "lat": 58.7333070000001, "lon": -157.004582, "charter": false, "level": "", "enrollment": 69, "teachers_fte": 5.59999990463257}, {"ncessch": "020003000751", "school_name": "Bristol Bay Correspondence", "city": "Naknek", "state": "AK", "zip": "99633", "lat": 58.7333070000001, "lon": -157.004582, "charter": false, "level": "", "enrollment": 3, "teachers_fte": 0.5}], "0200050": [{"ncessch": "020005000023", "school_name": "Alaska REACH Academy", "city": "Tok", "state": "AK", "zip": "99780", "lat": 63.3275970000001, "lon": -142.979691999, "charter": false, "level": "", "enrollment": 33, "teachers_fte": 0.850000023841858}, {"ncessch": "020005000024", "school_name": "Dot Lake School", "city": "Dot Lake", "state": "AK", "zip": "99737", "lat": 63.6580010000001, "lon": -144.058775, "charter": false, "level": "", "enrollment": 14, "teachers_fte": 1.41999995708466}, {"ncessch": "020005000025", "school_name": "Eagle Community School", "city": "Eagle", "state": "AK", "zip": "99738", "lat": 64.784367999, "lon": -141.206094, "charter": false, "level": "", "enrollment": 11, "teachers_fte": 1.37999999523163}, {"ncessch": "020005000026", "school_name": "Mentasta Lake School", "city": "Mentasta Lake", "state": "AK", "zip": "99780", "lat": 62.9294280010001, "lon": -143.797881999, "charter": false, "level": "", "enrollment": 34, "teachers_fte": 4.09999990463257}, {"ncessch": "020005000027", "school_name": "Walter Northway School", "city": "Northway", "state": "AK", "zip": "99764", "lat": 62.9617840000001, "lon": -141.934161, "charter": false, "level": "", "enrollment": 61, "teachers_fte": 5.19999980926514}, {"ncessch": "020005000028", "school_name": "Tok School", "city": "Tok", "state": "AK", "zip": "99780", "lat": 63.3275970000001, "lon": -142.979691999, "charter": false, "level": "", "enrollment": 185, "teachers_fte": 16.6700000762939}, {"ncessch": "020005000424", "school_name": "Tanacross School", "city": "Tanacross", "state": "AK", "zip": "99776", "lat": 63.3762980000001, "lon": -143.355967, "charter": false, "level": "", "enrollment": 10, "teachers_fte": 1.25}, {"ncessch": "020005000528", "school_name": "Tetlin School", "city": "Tetlin", "state": "AK", "zip": "99780", "lat": 63.1380800000001, "lon": -142.519672, "charter": false, "level": "", "enrollment": 38, "teachers_fte": 4.30000019073486}], "0200060": [{"ncessch": "020006000029", "school_name": "Cordova Jr/Sr High School", "city": "Cordova", "state": "AK", "zip": "99574", "lat": 60.540335, "lon": -145.758854, "charter": false, "level": "", "enrollment": 124, "teachers_fte": 11.6400003433228}, {"ncessch": "020006000627", "school_name": "Mt. Eccles Elementary", "city": "Cordova", "state": "AK", "zip": "99574", "lat": 60.5435800010001, "lon": -145.756037999, "charter": false, "level": "", "enrollment": 210, "teachers_fte": 15.0}, {"ncessch": "020006000750", "school_name": "Cordova School District Innovative Learning", "city": "Cordova", "state": "AK", "zip": "99574", "lat": 60.540335, "lon": -145.758854, "charter": false, "level": "", "enrollment": 6, "teachers_fte": 0.360000014305115}], "0200070": [{"ncessch": "020007000034", "school_name": "Glennallen Elementary", "city": "Glennallen", "state": "AK", "zip": "99588", "lat": 62.1129300000001, "lon": -145.526532, "charter": false, "level": "", "enrollment": 108, "teachers_fte": 8.10000038146973}, {"ncessch": "020007000036", "school_name": "Kenny Lake School", "city": "Copper Center", "state": "AK", "zip": "99573", "lat": 61.726731, "lon": -145.008097, "charter": false, "level": "", "enrollment": 58, "teachers_fte": 6.0}, {"ncessch": "020007000039", "school_name": "Glennallen Jr/Sr High School", "city": "Glennallen", "state": "AK", "zip": "99588", "lat": 62.1129300000001, "lon": -145.526532, "charter": false, "level": "", "enrollment": 99, "teachers_fte": 8.89999961853027}, {"ncessch": "020007000398", "school_name": "Upstream Learning Correspondence", "city": "Glennallen", "state": "AK", "zip": "99588", "lat": 62.1129300000001, "lon": -145.526532, "charter": false, "level": "", "enrollment": 120, "teachers_fte": 1.70000004768372}, {"ncessch": "020007000583", "school_name": "Slana School", "city": "Slana", "state": "AK", "zip": "99586", "lat": 62.705118, "lon": -143.958155, "charter": false, "level": "", "enrollment": 15, "teachers_fte": 1.0}], "0200090": [{"ncessch": "020009000038", "school_name": "Craig High School", "city": "Craig", "state": "AK", "zip": "99921", "lat": 55.4884950000001, "lon": -133.128001, "charter": false, "level": "", "enrollment": 80, "teachers_fte": 6.94000005722046}, {"ncessch": "020009000160", "school_name": "PACE Correspondence", "city": "Craig", "state": "AK", "zip": "99921", "lat": 55.4755260000001, "lon": -133.1372, "charter": false, "level": "", "enrollment": 433, "teachers_fte": 5.44999980926514}, {"ncessch": "020009000433", "school_name": "Craig Middle School", "city": "Craig", "state": "AK", "zip": "99921", "lat": 55.4755260000001, "lon": -133.1372, "charter": false, "level": "", "enrollment": 51, "teachers_fte": 5.46999979019165}, {"ncessch": "020009000629", "school_name": "Craig Elementary", "city": "Craig", "state": "AK", "zip": "99921", "lat": 55.4755260000001, "lon": -133.1372, "charter": false, "level": "", "enrollment": 104, "teachers_fte": 9.59000015258789}], "0200100": [{"ncessch": "020010000510", "school_name": "Gerstle River School", "city": "Delta Junction", "state": "AK", "zip": "99737", "lat": 63.860488, "lon": -144.860346999, "charter": false, "level": "", "enrollment": 30, "teachers_fte": 2.0}, {"ncessch": "020010000559", "school_name": "Delta Junction Elementary", "city": "Delta Junction", "state": "AK", "zip": "99737", "lat": 64.0400960000001, "lon": -145.710895, "charter": false, "level": "", "enrollment": 359, "teachers_fte": 23.0100002288818}, {"ncessch": "020010000599", "school_name": "Alaska Homeschool", "city": "Delta Junction", "state": "AK", "zip": "99737", "lat": 64.0431160000001, "lon": -145.711175, "charter": false, "level": "", "enrollment": 218, "teachers_fte": 1.0}, {"ncessch": "020010000630", "school_name": "Delta Junction Senior High School", "city": "Delta Junction", "state": "AK", "zip": "99737", "lat": 64.0425970000001, "lon": -145.714013, "charter": false, "level": "", "enrollment": 165, "teachers_fte": 11.6000003814697}, {"ncessch": "020010000764", "school_name": "Delta Junction Junior High School", "city": "Delta Junction", "state": "AK", "zip": "99737", "lat": 64.0425970000001, "lon": -145.714013, "charter": false, "level": "", "enrollment": 166, "teachers_fte": 10.0}], "0200120": [{"ncessch": "020012000042", "school_name": "Dillingham Elementary", "city": "Dillingham", "state": "AK", "zip": "99576", "lat": 59.043634001, "lon": -158.466969, "charter": false, "level": "", "enrollment": 209, "teachers_fte": 17.5}, {"ncessch": "020012000634", "school_name": "Dillingham Middle/High School", "city": "Dillingham", "state": "AK", "zip": "99576", "lat": 59.042379, "lon": -158.464857999, "charter": false, "level": "", "enrollment": 211, "teachers_fte": 20.6299991607666}], "0200130": [{"ncessch": "020013000044", "school_name": "Sidney C. Huntington Elementary", "city": "Galena", "state": "AK", "zip": "99741", "lat": 64.746135, "lon": -156.878509, "charter": false, "level": "", "enrollment": 54, "teachers_fte": 5.71000003814697}, {"ncessch": "020013000252", "school_name": "Galena Interior Learning Academy (GILA)", "city": "Galena", "state": "AK", "zip": "99741", "lat": 64.7417770000001, "lon": -156.954394, "charter": false, "level": "", "enrollment": 180, "teachers_fte": 12.3999996185303}, {"ncessch": "020013000253", "school_name": "Interior Distance Education of Alaska (IDEA)", "city": "Fairbanks", "state": "AK", "zip": "99701", "lat": 64.8124300010001, "lon": -147.768486, "charter": false, "level": "", "enrollment": 6899, "teachers_fte": 54.810001373291}, {"ncessch": "020013000635", "school_name": "Sidney C. Huntington Jr/Sr High School", "city": "Galena", "state": "AK", "zip": "99741", "lat": 64.746135, "lon": -156.878509, "charter": false, "level": "", "enrollment": 44, "teachers_fte": 5.8899998664856}], "0200150": [{"ncessch": "020015000046", "school_name": "Houghtaling Elementary", "city": "Ketchikan", "state": "AK", "zip": "99901", "lat": 55.3552890010001, "lon": -131.682718, "charter": false, "level": "", "enrollment": 310, "teachers_fte": 34.0}, {"ncessch": "020015000047", "school_name": "Ketchikan High School", "city": "Ketchikan", "state": "AK", "zip": "99901", "lat": 55.3535580000001, "lon": -131.677935999, "charter": false, "level": "", "enrollment": 498, "teachers_fte": 39.0}, {"ncessch": "020015000048", "school_name": "Revilla Jr/Sr High School", "city": "Ketchikan", "state": "AK", "zip": "99901", "lat": 55.3545970000001, "lon": -131.682927999, "charter": false, "level": "", "enrollment": 102, "teachers_fte": 8.0}, {"ncessch": "020015000050", "school_name": "Schoenbar Middle School", "city": "Ketchikan", "state": "AK", "zip": "99901", "lat": 55.344813, "lon": -131.637405, "charter": false, "level": "", "enrollment": 269, "teachers_fte": 23.0}, {"ncessch": "020015000052", "school_name": "Fawn Mountain Elementary", "city": "Ketchikan", "state": "AK", "zip": "99901", "lat": 55.3119580010001, "lon": -131.569596, "charter": false, "level": "", "enrollment": 237, "teachers_fte": 23.0}, {"ncessch": "020015000306", "school_name": "Ketchikan Charter School", "city": "Ketchikan", "state": "AK", "zip": "99901", "lat": 55.3475750000001, "lon": -131.640006, "charter": true, "level": "", "enrollment": 200, "teachers_fte": 14.0}, {"ncessch": "020015000427", "school_name": "Fast Track", "city": "Ketchikan", "state": "AK", "zip": "99901", "lat": 55.3535580000001, "lon": -131.677935999, "charter": false, "level": "", "enrollment": 83, "teachers_fte": 1.0}, {"ncessch": "020015000523", "school_name": "Tongass School of Arts and Sciences Charter School", "city": "Ketchikan", "state": "AK", "zip": "99901", "lat": 55.3475750000001, "lon": -131.640006, "charter": true, "level": "", "enrollment": 134, "teachers_fte": 12.0}, {"ncessch": "020015000584", "school_name": "Point Higgins School", "city": "Ketchikan", "state": "AK", "zip": "99901", "lat": 55.4698129990001, "lon": -131.821401001, "charter": false, "level": "", "enrollment": 241, "teachers_fte": 21.0}], "0200180": [{"ncessch": "020018000053", "school_name": "Abbott Loop Elementary", "city": "Anchorage", "state": "AK", "zip": "99507", "lat": 61.1438670000001, "lon": -149.832712001, "charter": false, "level": "", "enrollment": 248, "teachers_fte": 16.2000007629395}, {"ncessch": "020018000054", "school_name": "Airport Heights Elementary", "city": "Anchorage", "state": "AK", "zip": "99508", "lat": 61.207096, "lon": -149.829764001, "charter": false, "level": "", "enrollment": 261, "teachers_fte": 21.0300006866455}, {"ncessch": "020018000056", "school_name": "Aurora Elementary", "city": "JBER", "state": "AK", "zip": "99506", "lat": 61.2372950000001, "lon": -149.863361, "charter": false, "level": "", "enrollment": 497, "teachers_fte": 27.6000003814697}, {"ncessch": "020018000057", "school_name": "Bartlett High School", "city": "Anchorage", "state": "AK", "zip": "99504", "lat": 61.2322040000001, "lon": -149.7332, "charter": false, "level": "", "enrollment": 1373, "teachers_fte": 71.120002746582}, {"ncessch": "020018000058", "school_name": "Baxter Elementary", "city": "Anchorage", "state": "AK", "zip": "99504", "lat": 61.1932330000001, "lon": -149.761244999, "charter": false, "level": "", "enrollment": 269, "teachers_fte": 17.9699993133545}, {"ncessch": "020018000059", "school_name": "Bayshore Elementary", "city": "Anchorage", "state": "AK", "zip": "99515", "lat": 61.1255550000001, "lon": -149.940139, "charter": false, "level": "", "enrollment": 428, "teachers_fte": 22.1700000762939}, {"ncessch": "020018000060", "school_name": "Birchwood ABC Elementary", "city": "Eagle River", "state": "AK", "zip": "99567", "lat": 61.373887999, "lon": -149.531876001, "charter": false, "level": "", "enrollment": 205, "teachers_fte": 15.5699996948242}, {"ncessch": "020018000062", "school_name": "Campbell STEM Elementary", "city": "Anchorage", "state": "AK", "zip": "99518", "lat": 61.155036001, "lon": -149.900826, "charter": false, "level": "", "enrollment": 415, "teachers_fte": 20.4300003051758}, {"ncessch": "020018000063", "school_name": "Central Middle School of Science", "city": "Anchorage", "state": "AK", "zip": "99501", "lat": 61.2081240000001, "lon": -149.889340001, "charter": false, "level": "", "enrollment": 371, "teachers_fte": 21.3299999237061}, {"ncessch": "020018000064", "school_name": "Clark Middle School", "city": "Anchorage", "state": "AK", "zip": "99508", "lat": 61.2229600000001, "lon": -149.811335, "charter": false, "level": "", "enrollment": 835, "teachers_fte": 41.6699981689453}, {"ncessch": "020018000065", "school_name": "Chester Valley Elementary", "city": "Anchorage", "state": "AK", "zip": "99504", "lat": 61.2048050000001, "lon": -149.747388, "charter": false, "level": "", "enrollment": 220, "teachers_fte": 13.8599996566772}, {"ncessch": "020018000066", "school_name": "Chinook Elementary", "city": "Anchorage", "state": "AK", "zip": "99502", "lat": 61.141828, "lon": -149.939279, "charter": false, "level": "", "enrollment": 481, "teachers_fte": 26.4200000762939}, {"ncessch": "020018000067", "school_name": "Chugach Optional Elementary", "city": "Anchorage", "state": "AK", "zip": "99501", "lat": 61.2104429990001, "lon": -149.890461, "charter": false, "level": "", "enrollment": 234, "teachers_fte": 14.25}, {"ncessch": "020018000068", "school_name": "Chugiak Elementary", "city": "Chugiak", "state": "AK", "zip": "99567", "lat": 61.400559, "lon": -149.463546, "charter": false, "level": "", "enrollment": 448, "teachers_fte": 25.7399997711182}, {"ncessch": "020018000069", "school_name": "Chugiak High School", "city": "Chugiak", "state": "AK", "zip": "99567", "lat": 61.3693010010001, "lon": -149.534616, "charter": false, "level": "", "enrollment": 905, "teachers_fte": 42.5200004577637}, {"ncessch": "020018000070", "school_name": "College Gate Elementary", "city": "Anchorage", "state": "AK", "zip": "99508", "lat": 61.1927820000001, "lon": -149.782884, "charter": false, "level": "", "enrollment": 399, "teachers_fte": 22.2600002288818}, {"ncessch": "020018000071", "school_name": "Creekside Park Elementary", "city": "Anchorage", "state": "AK", "zip": "99504", "lat": 61.216396, "lon": -149.741964, "charter": false, "level": "", "enrollment": 361, "teachers_fte": 24.75}, {"ncessch": "020018000072", "school_name": "Denali Montessori Elementary", "city": "Anchorage", "state": "AK", "zip": "99501", "lat": 61.2132810000001, "lon": -149.881113, "charter": false, "level": "", "enrollment": 362, "teachers_fte": 24.6499996185303}, {"ncessch": "020018000073", "school_name": "Dimond High School", "city": "Anchorage", "state": "AK", "zip": "99502", "lat": 61.142795999, "lon": -149.935215, "charter": false, "level": "", "enrollment": 1443, "teachers_fte": 64.9700012207031}, {"ncessch": "020018000074", "school_name": "Eagle River Elementary", "city": "Eagle River", "state": "AK", "zip": "99577", "lat": 61.319485, "lon": -149.569769, "charter": false, "level": "", "enrollment": 308, "teachers_fte": 18.7199993133545}, {"ncessch": "020018000075", "school_name": "Bettye Davis East Anchorage High School", "city": "Anchorage", "state": "AK", "zip": "99508", "lat": 61.199754001, "lon": -149.805024999, "charter": false, "level": "", "enrollment": 1745, "teachers_fte": 84.620002746582}, {"ncessch": "020018000076", "school_name": "Dr. Etheldra Davis - Fairview Elementary School", "city": "Anchorage", "state": "AK", "zip": "99501", "lat": 61.210246, "lon": -149.855586001, "charter": false, "level": "", "enrollment": 384, "teachers_fte": 21.4200000762939}, {"ncessch": "020018000077", "school_name": "Girdwood School", "city": "Girdwood", "state": "AK", "zip": "99587", "lat": 60.968693, "lon": -149.127653, "charter": false, "level": "", "enrollment": 182, "teachers_fte": 14.5900001525879}, {"ncessch": "020018000078", "school_name": "Gladys Wood Elementary", "city": "Anchorage", "state": "AK", "zip": "99502", "lat": 61.157337, "lon": -149.935578, "charter": false, "level": "", "enrollment": 295, "teachers_fte": 21.0400009155273}, {"ncessch": "020018000082", "school_name": "Huffman Elementary", "city": "Anchorage", "state": "AK", "zip": "99516", "lat": 61.111382, "lon": -149.808302, "charter": false, "level": "", "enrollment": 357, "teachers_fte": 20.1800003051758}, {"ncessch": "020018000083", "school_name": "Inlet View Elementary", "city": "Anchorage", "state": "AK", "zip": "99501", "lat": 61.2101730000001, "lon": -149.906772, "charter": false, "level": "", "enrollment": 235, "teachers_fte": 15.2200002670288}, {"ncessch": "020018000086", "school_name": "Lake Otis Elementary", "city": "Anchorage", "state": "AK", "zip": "99508", "lat": 61.1910059990001, "lon": -149.837101001, "charter": false, "level": "", "enrollment": 302, "teachers_fte": 22.9899997711182}, {"ncessch": "020018000087", "school_name": "Tudor Elementary", "city": "Anchorage", "state": "AK", "zip": "99507", "lat": 61.1739120010001, "lon": -149.850602, "charter": false, "level": "", "enrollment": 352, "teachers_fte": 22.0499992370605}, {"ncessch": "020018000088", "school_name": "Turnagain Elementary", "city": "Anchorage", "state": "AK", "zip": "99517", "lat": 61.194333, "lon": -149.948227, "charter": false, "level": "", "enrollment": 308, "teachers_fte": 18.2399997711182}, {"ncessch": "020018000089", "school_name": "Mountain View Elementary", "city": "Anchorage", "state": "AK", "zip": "99508", "lat": 61.2318430000001, "lon": -149.807035, "charter": false, "level": "", "enrollment": 290, "teachers_fte": 15.3599996566772}, {"ncessch": "020018000092", "school_name": "Muldoon Elementary", "city": "Anchorage", "state": "AK", "zip": "99504", "lat": 61.2183230000001, "lon": -149.719984, "charter": false, "level": "", "enrollment": 466, "teachers_fte": 26.4799995422363}, {"ncessch": "020018000093", "school_name": "North Star Elementary", "city": "Anchorage", "state": "AK", "zip": "99503", "lat": 61.1998339990001, "lon": -149.893618999, "charter": false, "level": "", "enrollment": 391, "teachers_fte": 21.3700008392334}, {"ncessch": "020018000094", "school_name": "Northern Lights ABC K-8 School", "city": "Anchorage", "state": "AK", "zip": "99507", "lat": 61.1654160000001, "lon": -149.835334, "charter": false, "level": "", "enrollment": 569, "teachers_fte": 29.9500007629395}, {"ncessch": "020018000095", "school_name": "Northwood ABC", "city": "Anchorage", "state": "AK", "zip": "99517", "lat": 61.1763460000001, "lon": -149.925141, "charter": false, "level": "", "enrollment": 281, "teachers_fte": 19.4099998474121}, {"ncessch": "020018000096", "school_name": "Nunaka Valley Elementary", "city": "Anchorage", "state": "AK", "zip": "99504", "lat": 61.2034629990001, "lon": -149.776051, "charter": false, "level": "", "enrollment": 205, "teachers_fte": 12.5299997329712}, {"ncessch": "020018000097", "school_name": "O'Malley Elementary", "city": "Anchorage", "state": "AK", "zip": "99516", "lat": 61.120276, "lon": -149.768365999, "charter": false, "level": "", "enrollment": 356, "teachers_fte": 23.6000003814697}, {"ncessch": "020018000098", "school_name": "Ocean View Elementary", "city": "Anchorage", "state": "AK", "zip": "99515", "lat": 61.1128390000001, "lon": -149.877085, "charter": false, "level": "", "enrollment": 355, "teachers_fte": 21.2800006866455}, {"ncessch": "020018000099", "school_name": "Orion Elementary School", "city": "JBER", "state": "AK", "zip": "99506", "lat": 61.2343930000001, "lon": -149.859688, "charter": false, "level": "", "enrollment": 456, "teachers_fte": 23.5100002288818}, {"ncessch": "020018000101", "school_name": "Polaris K-12 School", "city": "Anchorage", "state": "AK", "zip": "99507", "lat": 61.164783001, "lon": -149.853931999, "charter": false, "level": "", "enrollment": 495, "teachers_fte": 25.6299991607666}, {"ncessch": "020018000102", "school_name": "Ptarmigan Elementary", "city": "Anchorage", "state": "AK", "zip": "99504", "lat": 61.214235, "lon": -149.765324, "charter": false, "level": "", "enrollment": 341, "teachers_fte": 19.8299999237061}, {"ncessch": "020018000103", "school_name": "Rabbit Creek Elementary", "city": "Anchorage", "state": "AK", "zip": "99516", "lat": 61.096725, "lon": -149.835006, "charter": false, "level": "", "enrollment": 443, "teachers_fte": 25.7700004577637}, {"ncessch": "020018000104", "school_name": "Alpenglow Elementary", "city": "Eagle River", "state": "AK", "zip": "99577", "lat": 61.301344999, "lon": -149.524148, "charter": false, "level": "", "enrollment": 368, "teachers_fte": 21.0799999237061}, {"ncessch": "020018000105", "school_name": "Rogers Park Elementary", "city": "Anchorage", "state": "AK", "zip": "99508", "lat": 61.1937310000001, "lon": -149.85576, "charter": false, "level": "", "enrollment": 404, "teachers_fte": 26.25}, {"ncessch": "020018000106", "school_name": "Romig Middle School", "city": "Anchorage", "state": "AK", "zip": "99503", "lat": 61.1982800000001, "lon": -149.914896, "charter": false, "level": "", "enrollment": 720, "teachers_fte": 39.939998626709}, {"ncessch": "020018000107", "school_name": "Russian Jack Elementary", "city": "Anchorage", "state": "AK", "zip": "99508", "lat": 61.20088, "lon": -149.799439001, "charter": false, "level": "", "enrollment": 252, "teachers_fte": 16.0400009155273}, {"ncessch": "020018000108", "school_name": "Sand Lake Elementary", "city": "Anchorage", "state": "AK", "zip": "99502", "lat": 61.152586, "lon": -149.953834, "charter": false, "level": "", "enrollment": 508, "teachers_fte": 28.1000003814697}, {"ncessch": "020018000109", "school_name": "S.A.V.E. High School", "city": "Anchorage", "state": "AK", "zip": "99518", "lat": 61.169683999, "lon": -149.874233999, "charter": false, "level": "", "enrollment": 147, "teachers_fte": 7.48999977111816}, {"ncessch": "020018000110", "school_name": "Benson Secondary/S.E.A.R.C.H.", "city": "Anchorage", "state": "AK", "zip": "99507", "lat": 61.1795530000001, "lon": -149.759556, "charter": false, "level": "", "enrollment": 295, "teachers_fte": 14.4899997711182}, {"ncessch": "020018000112", "school_name": "Scenic Park Elementary", "city": "Anchorage", "state": "AK", "zip": "99504", "lat": 61.185411, "lon": -149.747105, "charter": false, "level": "", "enrollment": 382, "teachers_fte": 26.1900005340576}, {"ncessch": "020018000115", "school_name": "Steller Secondary School", "city": "Anchorage", "state": "AK", "zip": "99503", "lat": 61.197755, "lon": -149.893314, "charter": false, "level": "", "enrollment": 240, "teachers_fte": 14.4700002670288}, {"ncessch": "020018000116", "school_name": "Susitna Elementary", "city": "Anchorage", "state": "AK", "zip": "99504", "lat": 61.1982400000001, "lon": -149.737824, "charter": false, "level": "", "enrollment": 368, "teachers_fte": 22.4799995422363}, {"ncessch": "020018000117", "school_name": "Taku Elementary", "city": "Anchorage", "state": "AK", "zip": "99518", "lat": 61.1564430000001, "lon": -149.869518999, "charter": false, "level": "", "enrollment": 286, "teachers_fte": 18.4599990844727}, {"ncessch": "020018000118", "school_name": "Ursa Minor Elementary", "city": "JBER", "state": "AK", "zip": "99505", "lat": 61.246814, "lon": -149.687397, "charter": false, "level": "", "enrollment": 314, "teachers_fte": 18.8600006103516}, {"ncessch": "020018000119", "school_name": "Wendler Middle School", "city": "Anchorage", "state": "AK", "zip": "99508", "lat": 61.1938710000001, "lon": -149.836286, "charter": false, "level": "", "enrollment": 422, "teachers_fte": 26.4300003051758}, {"ncessch": "020018000120", "school_name": "West High School", "city": "Anchorage", "state": "AK", "zip": "99517", "lat": 61.200929, "lon": -149.917099, "charter": false, "level": "", "enrollment": 1763, "teachers_fte": 82.5599975585938}, {"ncessch": "020018000121", "school_name": "Whaley School", "city": "Anchorage", "state": "AK", "zip": "99508", "lat": 61.2006729990001, "lon": -149.814573, "charter": false, "level": "", "enrollment": 340, "teachers_fte": 50.5699996948242}, {"ncessch": "020018000122", "school_name": "Williwaw Elementary", "city": "Anchorage", "state": "AK", "zip": "99508", "lat": 61.2112950000001, "lon": -149.797317, "charter": false, "level": "", "enrollment": 305, "teachers_fte": 21.5}, {"ncessch": "020018000123", "school_name": "Willow Crest Elementary", "city": "Anchorage", "state": "AK", "zip": "99503", "lat": 61.1801330010001, "lon": -149.903202, "charter": false, "level": "", "enrollment": 284, "teachers_fte": 20.0400009155273}, {"ncessch": "020018000124", "school_name": "Wonder Park Elementary", "city": "Anchorage", "state": "AK", "zip": "99508", "lat": 61.219631, "lon": -149.785006, "charter": false, "level": "", "enrollment": 264, "teachers_fte": 18.6599998474121}, {"ncessch": "020018000147", "school_name": "Kasuun Elementary", "city": "Anchorage", "state": "AK", "zip": "99507", "lat": 61.158125, "lon": -149.808123, "charter": false, "level": "", "enrollment": 289, "teachers_fte": 18.9699993133545}, {"ncessch": "020018000149", "school_name": "Kincaid Elementary", "city": "Anchorage", "state": "AK", "zip": "99502", "lat": 61.157312, "lon": -149.970907, "charter": false, "level": "", "enrollment": 466, "teachers_fte": 30.9899997711182}, {"ncessch": "020018000151", "school_name": "Lake Hood Elementary", "city": "Anchorage", "state": "AK", "zip": "99517", "lat": 61.1853340000001, "lon": -149.952219, "charter": false, "level": "", "enrollment": 248, "teachers_fte": 18.3400001525879}, {"ncessch": "020018000154", "school_name": "William Tyson Elementary", "city": "Anchorage", "state": "AK", "zip": "99508", "lat": 61.2270040000001, "lon": -149.825326999, "charter": false, "level": "", "enrollment": 342, "teachers_fte": 21.9400005340576}, {"ncessch": "020018000172", "school_name": "Aquarian Charter School", "city": "Anchorage", "state": "AK", "zip": "99517", "lat": 61.1924070000001, "lon": -149.916872, "charter": true, "level": "", "enrollment": 390, "teachers_fte": 23.0799999237061}, {"ncessch": "020018000178", "school_name": "Family Partnership Charter School", "city": "Anchorage", "state": "AK", "zip": "99503", "lat": 61.1798360000001, "lon": -149.889682999, "charter": true, "level": "", "enrollment": 1740, "teachers_fte": 20.0}, {"ncessch": "020018000229", "school_name": "Mirror Lake Middle School", "city": "Chugiak", "state": "AK", "zip": "99567", "lat": 61.4272070000001, "lon": -149.424613, "charter": false, "level": "", "enrollment": 563, "teachers_fte": 28.6700000762939}, {"ncessch": "020018000341", "school_name": "Alaska State School for Deaf and Hard of Hearing", "city": "Anchorage", "state": "AK", "zip": "99504", "lat": 61.1939580010001, "lon": -149.775759, "charter": false, "level": "", "enrollment": 30, "teachers_fte": 2.0}, {"ncessch": "020018000390", "school_name": "Trailside Elementary", "city": "Anchorage", "state": "AK", "zip": "99507", "lat": 61.1398110000001, "lon": -149.787951, "charter": false, "level": "", "enrollment": 379, "teachers_fte": 24.3500003814697}, {"ncessch": "020018000399", "school_name": "The New Path High School", "city": "Anchorage", "state": "AK", "zip": "99507", "lat": 61.2184910010001, "lon": -149.85702, "charter": false, "level": "", "enrollment": 0, "teachers_fte": null}, {"ncessch": "020018000400", "school_name": "Ursa Major Elementary", "city": "JBER", "state": "AK", "zip": "99505", "lat": 61.251318999, "lon": -149.677626, "charter": false, "level": "", "enrollment": null, "teachers_fte": null}, {"ncessch": "020018000401", "school_name": "Martin Luther King Jr. Technical High School", "city": "Anchorage", "state": "AK", "zip": "99508", "lat": 61.1931230000001, "lon": -149.832869, "charter": false, "level": "", "enrollment": 106, "teachers_fte": 26.4099998474121}, {"ncessch": "020018000432", "school_name": "McLaughlin Secondary School", "city": "Anchorage", "state": "AK", "zip": "99508", "lat": 61.1869730000001, "lon": -149.833637, "charter": false, "level": "", "enrollment": 65, "teachers_fte": 13.0}, {"ncessch": "020018000454", "school_name": "South Anchorage High School", "city": "Anchorage", "state": "AK", "zip": "99516", "lat": 61.100283, "lon": -149.808494, "charter": false, "level": "", "enrollment": 1318, "teachers_fte": 56.4599990844727}, {"ncessch": "020018000458", "school_name": "Eagle River High School", "city": "Eagle River", "state": "AK", "zip": "99577", "lat": 61.298507, "lon": -149.57236, "charter": false, "level": "", "enrollment": 791, "teachers_fte": 39.5299987792969}, {"ncessch": "020018000459", "school_name": "Winterberry School", "city": "Anchorage", "state": "AK", "zip": "99508", "lat": 61.1946150000001, "lon": -149.792333, "charter": true, "level": "", "enrollment": 253, "teachers_fte": 14.1999998092651}, {"ncessch": "020018000460", "school_name": "Eagle Academy Charter School", "city": "Eagle River", "state": "AK", "zip": "99577", "lat": 61.319213, "lon": -149.579442, "charter": true, "level": "", "enrollment": 189, "teachers_fte": 10.3000001907349}, {"ncessch": "020018000504", "school_name": "Government Hill Elementary", "city": "Anchorage", "state": "AK", "zip": "99501", "lat": 61.2336680000001, "lon": -149.870513999, "charter": false, "level": "", "enrollment": 450, "teachers_fte": 28.6700000762939}, {"ncessch": "020018000505", "school_name": "Gruening Middle School", "city": "Eagle River", "state": "AK", "zip": "99577", "lat": 61.3066840000001, "lon": -149.548208999, "charter": false, "level": "", "enrollment": 589, "teachers_fte": 30.2000007629395}, {"ncessch": "020018000506", "school_name": "Klatt Elementary", "city": "Anchorage", "state": "AK", "zip": "99515", "lat": 61.1126750000001, "lon": -149.909457999, "charter": false, "level": "", "enrollment": 342, "teachers_fte": 22.5300006866455}, {"ncessch": "020018000530", "school_name": "Frontier Charter School", "city": "Anchorage", "state": "AK", "zip": "99503", "lat": 61.194914001, "lon": -149.891223, "charter": true, "level": "", "enrollment": 447, "teachers_fte": 5.0}, {"ncessch": "020018000531", "school_name": "Service High School", "city": "Anchorage", "state": "AK", "zip": "99507", "lat": 61.1390470000001, "lon": -149.781301001, "charter": false, "level": "", "enrollment": 1544, "teachers_fte": 68.7699966430664}, {"ncessch": "020018000532", "school_name": "Ravenwood Elementary", "city": "Eagle River", "state": "AK", "zip": "99577", "lat": 61.3058300000001, "lon": -149.505261001, "charter": false, "level": "", "enrollment": 479, "teachers_fte": 24.5300006866455}, {"ncessch": "020018000533", "school_name": "Bear Valley Elementary", "city": "Anchorage", "state": "AK", "zip": "99516", "lat": 61.084058, "lon": -149.749358, "charter": false, "level": "", "enrollment": 397, "teachers_fte": 20.4500007629395}, {"ncessch": "020018000534", "school_name": "Hanshew Middle School", "city": "Anchorage", "state": "AK", "zip": "99507", "lat": 61.130299, "lon": -149.830446, "charter": false, "level": "", "enrollment": 691, "teachers_fte": 27.4400005340576}, {"ncessch": "020018000555", "school_name": "Highland Academy Charter", "city": "Anchorage", "state": "AK", "zip": "99504", "lat": 61.1939580010001, "lon": -149.775759, "charter": true, "level": "", "enrollment": 169, "teachers_fte": 11.0}, {"ncessch": "020018000561", "school_name": "Spring Hill Elementary", "city": "Anchorage", "state": "AK", "zip": "99507", "lat": 61.1330570000001, "lon": -149.829391, "charter": false, "level": "", "enrollment": 335, "teachers_fte": 20.7099990844727}, {"ncessch": "020018000562", "school_name": "Mears Middle School", "city": "Anchorage", "state": "AK", "zip": "99515", "lat": 61.128925, "lon": -149.931428, "charter": false, "level": "", "enrollment": 733, "teachers_fte": 36.9700012207031}, {"ncessch": "020018000598", "school_name": "Fire Lake Elementary", "city": "Eagle River", "state": "AK", "zip": "99577", "lat": 61.3449430000001, "lon": -149.547855999, "charter": false, "level": "", "enrollment": 229, "teachers_fte": 17.0499992370605}, {"ncessch": "020018000713", "school_name": "Bowman Elementary", "city": "Anchorage", "state": "AK", "zip": "99516", "lat": 61.114945, "lon": -149.845382, "charter": false, "level": "", "enrollment": 542, "teachers_fte": 35.3699989318848}, {"ncessch": "020018000729", "school_name": "Nicholas J. Begich Middle School", "city": "Anchorage", "state": "AK", "zip": "99504", "lat": 61.2082030000001, "lon": -149.743084001, "charter": false, "level": "", "enrollment": 882, "teachers_fte": 49.0}, {"ncessch": "020018000732", "school_name": "Rilke Schule Charter School", "city": "Anchorage", "state": "AK", "zip": "99507", "lat": 61.1619039990001, "lon": -149.848426, "charter": true, "level": "", "enrollment": 436, "teachers_fte": 23.5}, {"ncessch": "020018000736", "school_name": "Alaska Native Cultural Charter School", "city": "Anchorage", "state": "AK", "zip": "99508", "lat": 61.2176600000001, "lon": -149.810421, "charter": true, "level": "", "enrollment": 232, "teachers_fte": 20.0}, {"ncessch": "020018000756", "school_name": "PAIDEIA Cooperative School", "city": "Anchorage", "state": "AK", "zip": "99501", "lat": 61.2122340000001, "lon": -149.894307, "charter": false, "level": "", "enrollment": 172, "teachers_fte": 37.3800010681152}, {"ncessch": "020018000760", "school_name": "Anchorage STrEaM Academy", "city": "Anchorage", "state": "AK", "zip": "99504", "lat": 61.192258, "lon": -149.735536001, "charter": true, "level": "", "enrollment": 169, "teachers_fte": 11.3000001907349}, {"ncessch": "020018000763", "school_name": "Alaska Middle College School", "city": "Eagle River", "state": "AK", "zip": "99508", "lat": 61.1931230000001, "lon": -149.832869, "charter": false, "level": "", "enrollment": 255, "teachers_fte": 3.0}, {"ncessch": "020018010080", "school_name": "Homestead Elementary", "city": "Eagle River", "state": "AK", "zip": "99577", "lat": 61.3149320000001, "lon": -149.546651999, "charter": false, "level": "", "enrollment": 306, "teachers_fte": 19.0400009155273}, {"ncessch": "020018010162", "school_name": "Goldenview Middle School", "city": "Anchorage", "state": "AK", "zip": "99516", "lat": 61.0781610010001, "lon": -149.778446, "charter": false, "level": "", "enrollment": 626, "teachers_fte": 32.2000007629395}], "0200210": [{"ncessch": "020021000125", "school_name": "HomeBRIDGE", "city": "Juneau", "state": "AK", "zip": "99801", "lat": 58.3034840000001, "lon": -134.42692, "charter": false, "level": "", "enrollment": 172, "teachers_fte": 2.79999995231628}, {"ncessch": "020021000127", "school_name": "Auke Bay Elementary", "city": "Juneau", "state": "AK", "zip": "99801", "lat": 58.3889859990001, "lon": -134.647891999, "charter": false, "level": "", "enrollment": 325, "teachers_fte": 18.1599998474121}, {"ncessch": "020021000129", "school_name": "Floyd Dryden Middle School", "city": "Juneau", "state": "AK", "zip": "99801", "lat": 58.388179, "lon": -134.568169, "charter": false, "level": "", "enrollment": 407, "teachers_fte": 25.6700000762939}, {"ncessch": "020021000130", "school_name": "SayTik: Gastineau Community  School", "city": "Juneau", "state": "AK", "zip": "99824", "lat": 58.2793750000001, "lon": -134.400955, "charter": false, "level": "", "enrollment": 280, "teachers_fte": 19.1100006103516}, {"ncessch": "020021000131", "school_name": "Sit Eeti Shaanax - Glacier Valley School", "city": "Juneau", "state": "AK", "zip": "99801", "lat": 58.3829680000001, "lon": -134.571347999, "charter": false, "level": "", "enrollment": 325, "teachers_fte": 22.6700000762939}, {"ncessch": "020021000132", "school_name": "Harborview Elementary", "city": "Juneau", "state": "AK", "zip": "99801", "lat": 58.3032010000001, "lon": -134.425604, "charter": false, "level": "", "enrollment": 301, "teachers_fte": 23.9200000762939}, {"ncessch": "020021000133", "school_name": "Juneau-Douglas High School: Yadaa.at KalT", "city": "Juneau", "state": "AK", "zip": "99801", "lat": 58.305326, "lon": -134.429418, "charter": false, "level": "", "enrollment": 567, "teachers_fte": 32.0}, {"ncessch": "020021000134", "school_name": "Dzantik'i Heeni Middle School", "city": "Juneau", "state": "AK", "zip": "99801", "lat": 58.363095, "lon": -134.514533, "charter": false, "level": "", "enrollment": 454, "teachers_fte": 24.0}, {"ncessch": "020021000265", "school_name": "Riverbend Elementary", "city": "Juneau", "state": "AK", "zip": "99801", "lat": 58.374939001, "lon": -134.591475, "charter": false, "level": "", "enrollment": 268, "teachers_fte": 21.4200000762939}, {"ncessch": "020021000268", "school_name": "Juneau Community Charter School", "city": "Juneau", "state": "AK", "zip": "99801", "lat": 58.305326, "lon": -134.429418, "charter": true, "level": "", "enrollment": 81, "teachers_fte": 5.90000009536743}, {"ncessch": "020021000396", "school_name": "Johnson Youth Center", "city": "Juneau", "state": "AK", "zip": "99801", "lat": 58.3295680000001, "lon": -134.467695, "charter": false, "level": "", "enrollment": 13, "teachers_fte": 2.79999995231628}, {"ncessch": "020021000508", "school_name": "Mendenhall River Community School", "city": "Juneau", "state": "AK", "zip": "99801", "lat": 58.4016120000001, "lon": -134.583590001, "charter": false, "level": "", "enrollment": 302, "teachers_fte": 21.5200004577637}, {"ncessch": "020021000737", "school_name": "Thunder Mountain High School", "city": "Juneau", "state": "AK", "zip": "99801", "lat": 58.3793120010001, "lon": -134.591021, "charter": false, "level": "", "enrollment": 586, "teachers_fte": 33.2999992370605}, {"ncessch": "020021000738", "school_name": "Yaakoosge Daakahidi Alt. H.S.", "city": "Juneau", "state": "AK", "zip": "99801", "lat": 58.3034840000001, "lon": -134.42692, "charter": false, "level": "", "enrollment": 69, "teachers_fte": 6.0}, {"ncessch": "020021000755", "school_name": "Montessori Borealis Public Alternative School", "city": "Juneau", "state": "AK", "zip": "99801", "lat": 58.3034840000001, "lon": -134.42692, "charter": false, "level": "", "enrollment": 188, "teachers_fte": 11.8000001907349}], "0200240": [{"ncessch": "020024000035", "school_name": "Pacific High School", "city": "Sitka", "state": "AK", "zip": "99835", "lat": 57.051582001, "lon": -135.330326, "charter": false, "level": "", "enrollment": 47, "teachers_fte": 4.5}, {"ncessch": "020024000135", "school_name": "Baranof Elementary", "city": "Sitka", "state": "AK", "zip": "99835", "lat": 57.053438, "lon": -135.331055999, "charter": false, "level": "", "enrollment": 167, "teachers_fte": 17.0}, {"ncessch": "020024000136", "school_name": "Blatchley Middle School", "city": "Sitka", "state": "AK", "zip": "99835", "lat": 57.0561290000001, "lon": -135.344794, "charter": false, "level": "", "enrollment": 265, "teachers_fte": 21.0300006866455}, {"ncessch": "020024000142", "school_name": "Sitka REACH", "city": "Sitka", "state": "AK", "zip": "99835", "lat": 57.053438, "lon": -135.331055999, "charter": false, "level": "", "enrollment": 38, "teachers_fte": 0.5}, {"ncessch": "020024000143", "school_name": "Sitka High School", "city": "Sitka", "state": "AK", "zip": "99835", "lat": 57.062237, "lon": -135.34095, "charter": false, "level": "", "enrollment": 329, "teachers_fte": 25.2700004577637}, {"ncessch": "020024000638", "school_name": "Keet Gooshi Heen Elementary", "city": "Sitka", "state": "AK", "zip": "99835", "lat": 57.064534, "lon": -135.351162, "charter": false, "level": "", "enrollment": 274, "teachers_fte": 26.0}], "0200270": [{"ncessch": "020027000144", "school_name": "Haines Elementary", "city": "Haines", "state": "AK", "zip": "99827", "lat": 59.2345740000001, "lon": -135.453573, "charter": false, "level": "", "enrollment": 166, "teachers_fte": 13.0500001907349}, {"ncessch": "020027000639", "school_name": "Haines High School", "city": "Haines", "state": "AK", "zip": "99827", "lat": 59.2345740000001, "lon": -135.453573, "charter": false, "level": "", "enrollment": 83, "teachers_fte": 7.13000011444092}, {"ncessch": "020027000670", "school_name": "Haines Home School", "city": "Haines", "state": "AK", "zip": "99827", "lat": 59.2345740000001, "lon": -135.453573, "charter": false, "level": "", "enrollment": 13, "teachers_fte": 0.170000001788139}], "0200300": [{"ncessch": "020030000146", "school_name": "Hoonah City School", "city": "Hoonah", "state": "AK", "zip": "99829", "lat": 58.108798, "lon": -135.442182, "charter": false, "level": "", "enrollment": 112, "teachers_fte": 10.8000001907349}], "0200330": [{"ncessch": "020033000148", "school_name": "Hydaburg School", "city": "Hydaburg", "state": "AK", "zip": "99922", "lat": 55.207545, "lon": -132.825933, "charter": false, "level": "", "enrollment": 66, "teachers_fte": 6.25}, {"ncessch": "020033000746", "school_name": "Totem Correspondence School", "city": "Hydaburg", "state": "AK", "zip": "99922", "lat": 55.207545, "lon": -132.825933, "charter": false, "level": "", "enrollment": 55, "teachers_fte": 1.0}], "0200360": [{"ncessch": "020036000150", "school_name": "Kake Elementary & High School", "city": "Kake", "state": "AK", "zip": "99830", "lat": 56.9777020000001, "lon": -133.947065, "charter": false, "level": "", "enrollment": 111, "teachers_fte": 12.8000001907349}], "0200390": [{"ncessch": "020039000079", "school_name": "Kenai Alternative High School", "city": "Kenai", "state": "AK", "zip": "99611", "lat": 60.5537990000001, "lon": -151.253696, "charter": false, "level": "", "enrollment": 53, "teachers_fte": 4.69999980926514}, {"ncessch": "020039000081", "school_name": "Homer Flex School", "city": "Homer", "state": "AK", "zip": "99603", "lat": 59.6499810000001, "lon": -151.518955, "charter": false, "level": "", "enrollment": 36, "teachers_fte": 3.07999992370605}, {"ncessch": "020039000152", "school_name": "Chapman School", "city": "Anchor Point", "state": "AK", "zip": "99556", "lat": 59.77662, "lon": -151.83394, "charter": false, "level": "", "enrollment": 160, "teachers_fte": 14.3199996948242}, {"ncessch": "020039000153", "school_name": "Tebughna School", "city": "Tyonek", "state": "AK", "zip": "99682", "lat": 61.0681960000001, "lon": -151.143478, "charter": false, "level": "", "enrollment": 27, "teachers_fte": 2.88000011444092}, {"ncessch": "020039000155", "school_name": "Cooper Landing School", "city": "Cooper Landing", "state": "AK", "zip": "99572", "lat": 60.4949950000001, "lon": -149.806138, "charter": false, "level": "", "enrollment": 20, "teachers_fte": 1.25}, {"ncessch": "020039000156", "school_name": "Paul Banks Elementary", "city": "Homer", "state": "AK", "zip": "99603", "lat": 59.6525480000001, "lon": -151.505751, "charter": false, "level": "", "enrollment": 184, "teachers_fte": 15.0299997329712}, {"ncessch": "020039000157", "school_name": "Nanwalek School", "city": "Nanwalek", "state": "AK", "zip": "99603", "lat": 59.354476, "lon": -151.920352, "charter": false, "level": "", "enrollment": 84, "teachers_fte": 7.03999996185303}, {"ncessch": "020039000158", "school_name": "Homer High School", "city": "Homer", "state": "AK", "zip": "99603", "lat": 59.651868, "lon": -151.528097, "charter": false, "level": "", "enrollment": 368, "teachers_fte": 22.7600002288818}, {"ncessch": "020039000159", "school_name": "Hope School", "city": "Hope", "state": "AK", "zip": "99605", "lat": 60.917853, "lon": -149.622011, "charter": false, "level": "", "enrollment": 21, "teachers_fte": 2.1800000667572}, {"ncessch": "020039000163", "school_name": "Moose Pass School", "city": "Moose Pass", "state": "AK", "zip": "99631", "lat": 60.4875230000001, "lon": -149.367748, "charter": false, "level": "", "enrollment": 19, "teachers_fte": 1.04999995231628}, {"ncessch": "020039000164", "school_name": "Nikolaevsk School", "city": "Nikolaevsk", "state": "AK", "zip": "99556", "lat": 59.811384, "lon": -151.612927, "charter": false, "level": "", "enrollment": 30, "teachers_fte": 1.57000005245209}, {"ncessch": "020039000165", "school_name": "Ninilchik School", "city": "Ninilchik", "state": "AK", "zip": "99639", "lat": 60.0433580000001, "lon": -151.675207, "charter": false, "level": "", "enrollment": 122, "teachers_fte": 8.73999977111816}, {"ncessch": "020039000168", "school_name": "Port Graham School", "city": "Port Graham", "state": "AK", "zip": "99603", "lat": 59.3516430010001, "lon": -151.83221, "charter": false, "level": "", "enrollment": 27, "teachers_fte": 2.0}, {"ncessch": "020039000169", "school_name": "William H. Seward Elementary School", "city": "Seward", "state": "AK", "zip": "99664", "lat": 60.132594, "lon": -149.435911001, "charter": false, "level": "", "enrollment": 235, "teachers_fte": 19.1599998474121}, {"ncessch": "020039000171", "school_name": "Soldotna Elementary", "city": "Soldotna", "state": "AK", "zip": "99669", "lat": 60.4919180000001, "lon": -151.068765, "charter": false, "level": "", "enrollment": 259, "teachers_fte": 20.7999992370605}, {"ncessch": "020039000173", "school_name": "Sterling Elementary", "city": "Sterling", "state": "AK", "zip": "99672", "lat": 60.5372780000001, "lon": -150.796507999, "charter": false, "level": "", "enrollment": 150, "teachers_fte": 13.039999961853}, {"ncessch": "020039000175", "school_name": "Susan B English School", "city": "Seldovia", "state": "AK", "zip": "99663", "lat": 59.442217, "lon": -151.713650999, "charter": false, "level": "", "enrollment": 52, "teachers_fte": 4.05000019073486}, {"ncessch": "020039000176", "school_name": "Tustumena Elementary", "city": "Kasilof", "state": "AK", "zip": "99610", "lat": 60.307798, "lon": -151.263775, "charter": false, "level": "", "enrollment": 135, "teachers_fte": 10.1499996185303}, {"ncessch": "020039000274", "school_name": "Aurora Borealis Charter School", "city": "Kenai", "state": "AK", "zip": "99611", "lat": 60.5541190000001, "lon": -151.254811001, "charter": true, "level": "", "enrollment": 187, "teachers_fte": 12.0500001907349}, {"ncessch": "020039000296", "school_name": "Fireweed Academy", "city": "Homer", "state": "AK", "zip": "99603", "lat": 59.6436, "lon": -151.56784, "charter": true, "level": "", "enrollment": 107, "teachers_fte": 7.5}, {"ncessch": "020039000299", "school_name": "West Homer Elementary", "city": "Homer", "state": "AK", "zip": "99603", "lat": 59.6436, "lon": -151.56784, "charter": false, "level": "", "enrollment": 216, "teachers_fte": 17.5}, {"ncessch": "020039000397", "school_name": "Connections", "city": "Soldotna", "state": "AK", "zip": "99669", "lat": 60.491095, "lon": -151.068076001, "charter": false, "level": "", "enrollment": 1036, "teachers_fte": 16.8999996185303}, {"ncessch": "020039000403", "school_name": "Redoubt Elementary", "city": "Soldotna", "state": "AK", "zip": "99669", "lat": 60.4885090010001, "lon": -151.099812001, "charter": false, "level": "", "enrollment": 366, "teachers_fte": 23.2299995422363}, {"ncessch": "020039000437", "school_name": "Seward Middle School", "city": "Seward", "state": "AK", "zip": "99664", "lat": 60.1318590000001, "lon": -149.441788, "charter": false, "level": "", "enrollment": 113, "teachers_fte": 8.85000038146973}, {"ncessch": "020039000448", "school_name": "Soldotna Montessori Charter School", "city": "Soldotna", "state": "AK", "zip": "99669", "lat": 60.4914450000001, "lon": -151.070167, "charter": true, "level": "", "enrollment": 165, "teachers_fte": 10.25}, {"ncessch": "020039000463", "school_name": "Kaleidoscope School of Arts & Science", "city": "Kenai", "state": "AK", "zip": "99611", "lat": 60.5682770000001, "lon": -151.279143, "charter": true, "level": "", "enrollment": 234, "teachers_fte": 15.460000038147}, {"ncessch": "020039000512", "school_name": "McNeil Canyon Elementary", "city": "Homer", "state": "AK", "zip": "99603", "lat": 59.746018, "lon": -151.257843, "charter": false, "level": "", "enrollment": 137, "teachers_fte": 8.96000003814697}, {"ncessch": "020039000513", "school_name": "Marathon School", "city": "Kenai", "state": "AK", "zip": "99611", "lat": 60.5670030000001, "lon": -151.232337, "charter": false, "level": "", "enrollment": 8, "teachers_fte": 1.12000000476837}, {"ncessch": "020039000536", "school_name": "Razdolna School", "city": "Homer", "state": "AK", "zip": "99603", "lat": 59.812645999, "lon": -151.082690999, "charter": false, "level": "", "enrollment": 81, "teachers_fte": 6.6399998664856}, {"ncessch": "020039000537", "school_name": "Kenai Central High School", "city": "Kenai", "state": "AK", "zip": "99611", "lat": 60.5614220000001, "lon": -151.212574, "charter": false, "level": "", "enrollment": 463, "teachers_fte": 27.4400005340576}, {"ncessch": "020039000538", "school_name": "Kenai Middle School", "city": "Kenai", "state": "AK", "zip": "99611", "lat": 60.5626330010001, "lon": -151.206256, "charter": false, "level": "", "enrollment": 411, "teachers_fte": 26.1900005340576}, {"ncessch": "020039000539", "school_name": "Kalifornsky Beach Elementary", "city": "Soldotna", "state": "AK", "zip": "99669", "lat": 60.4868710000001, "lon": -151.141121, "charter": false, "level": "", "enrollment": 412, "teachers_fte": 25.5300006866455}, {"ncessch": "020039000540", "school_name": "Seward High School", "city": "Seward", "state": "AK", "zip": "99664", "lat": 60.1299559990001, "lon": -149.443248999, "charter": false, "level": "", "enrollment": 140, "teachers_fte": 9.8100004196167}, {"ncessch": "020039000541", "school_name": "Skyview Middle School", "city": "Soldotna", "state": "AK", "zip": "99669", "lat": 60.458105001, "lon": -151.100758, "charter": false, "level": "", "enrollment": 374, "teachers_fte": 25.2999992370605}, {"ncessch": "020039000542", "school_name": "Soldotna High School", "city": "Soldotna", "state": "AK", "zip": "99669", "lat": 60.4934950000001, "lon": -151.096317001, "charter": false, "level": "", "enrollment": 707, "teachers_fte": 39.189998626709}, {"ncessch": "020039000543", "school_name": "Homer Middle School", "city": "Homer", "state": "AK", "zip": "99603", "lat": 59.643262, "lon": -151.555096, "charter": false, "level": "", "enrollment": 178, "teachers_fte": 13.0500001907349}, {"ncessch": "020039000601", "school_name": "Mt. View Elementary", "city": "Kenai", "state": "AK", "zip": "99611", "lat": 60.5655380000001, "lon": -151.176817001, "charter": false, "level": "", "enrollment": 403, "teachers_fte": 30.1599998474121}, {"ncessch": "020039000602", "school_name": "Nikiski North Star Elementary", "city": "Kenai", "state": "AK", "zip": "99611", "lat": 60.6600230010001, "lon": -151.293609, "charter": false, "level": "", "enrollment": 242, "teachers_fte": 18.6000003814697}, {"ncessch": "020039000612", "school_name": "Voznesenka School", "city": "Voznesenka", "state": "AK", "zip": "99603", "lat": 59.794277999, "lon": -151.096546, "charter": false, "level": "", "enrollment": 119, "teachers_fte": 11.0299997329712}, {"ncessch": "020039000645", "school_name": "Nikiski Middle/Senior High School", "city": "Nikiski", "state": "AK", "zip": "99635", "lat": 60.7343510000001, "lon": -151.296147, "charter": false, "level": "", "enrollment": 326, "teachers_fte": 22.1700000762939}, {"ncessch": "020039000718", "school_name": "Kachemak Selo School", "city": "Kachemak", "state": "AK", "zip": "99603", "lat": 59.7947330000001, "lon": -151.073968, "charter": false, "level": "", "enrollment": 30, "teachers_fte": 2.88000011444092}, {"ncessch": "020039000735", "school_name": "River City Academy", "city": "Soldotna", "state": "AK", "zip": "99669", "lat": 60.458105001, "lon": -151.100758, "charter": false, "level": "", "enrollment": 91, "teachers_fte": 7.25}], "0200450": [{"ncessch": "020045000179", "school_name": "Klawock City School", "city": "Klawock", "state": "AK", "zip": "99925", "lat": 55.5535530000001, "lon": -133.099032999, "charter": false, "level": "", "enrollment": 124, "teachers_fte": 14.2799997329712}, {"ncessch": "020045000770", "school_name": "Klawock Correspondence", "city": "Klawock", "state": "AK", "zip": "99925", "lat": 55.5535530000001, "lon": -133.099032999, "charter": false, "level": "", "enrollment": 0, "teachers_fte": 0.0}], "0200480": [{"ncessch": "020048000137", "school_name": "North Star Elementary", "city": "Kodiak", "state": "AK", "zip": "99615", "lat": 57.821445, "lon": -152.365127, "charter": false, "level": "", "enrollment": 237, "teachers_fte": 14.5}, {"ncessch": "020048000180", "school_name": "Akhiok School", "city": "Akhiok", "state": "AK", "zip": "99615", "lat": 56.946831, "lon": -154.17326, "charter": false, "level": "", "enrollment": 13, "teachers_fte": 2.20000004768372}, {"ncessch": "020048000181", "school_name": "Chiniak School", "city": "Chiniak", "state": "AK", "zip": "99615", "lat": 57.6158639990001, "lon": -152.364389, "charter": false, "level": "", "enrollment": 20, "teachers_fte": 2.20000004768372}, {"ncessch": "020048000183", "school_name": "East Elementary", "city": "Kodiak", "state": "AK", "zip": "99615", "lat": 57.8047740010001, "lon": -152.367699, "charter": false, "level": "", "enrollment": 325, "teachers_fte": 29.0}, {"ncessch": "020048000185", "school_name": "Kodiak High School", "city": "Kodiak", "state": "AK", "zip": "99615", "lat": 57.7933650000001, "lon": -152.393905, "charter": false, "level": "", "enrollment": 620, "teachers_fte": 44.0}, {"ncessch": "020048000186", "school_name": "Kodiak Middle School", "city": "Kodiak", "state": "AK", "zip": "99615", "lat": 57.793709, "lon": -152.391497001, "charter": false, "level": "", "enrollment": 428, "teachers_fte": 25.3999996185303}, {"ncessch": "020048000188", "school_name": "Main Elementary", "city": "Kodiak", "state": "AK", "zip": "99615", "lat": 57.7953310010001, "lon": -152.391261, "charter": false, "level": "", "enrollment": 191, "teachers_fte": 14.5}, {"ncessch": "020048000189", "school_name": "Old Harbor School", "city": "Old Harbor", "state": "AK", "zip": "99643", "lat": 57.203488, "lon": -153.306139001, "charter": false, "level": "", "enrollment": 29, "teachers_fte": 4.19999980926514}, {"ncessch": "020048000190", "school_name": "Peterson Elementary", "city": "Kodiak", "state": "AK", "zip": "99615", "lat": 57.7472240000001, "lon": -152.495759999, "charter": false, "level": "", "enrollment": 187, "teachers_fte": 12.0}, {"ncessch": "020048000191", "school_name": "Port Lions School", "city": "Port Lions", "state": "AK", "zip": "99550", "lat": 57.869196, "lon": -152.878877, "charter": false, "level": "", "enrollment": 18, "teachers_fte": 3.20000004768372}, {"ncessch": "020048000192", "school_name": "Ouzinkie School", "city": "Ouzinkie", "state": "AK", "zip": "99644", "lat": 57.9226090000001, "lon": -152.507494001, "charter": false, "level": "", "enrollment": 13, "teachers_fte": 1.20000004768372}, {"ncessch": "020048000435", "school_name": "AKTEACH", "city": "Kodiak", "state": "AK", "zip": "99615", "lat": 57.794068999, "lon": -152.395226, "charter": false, "level": "", "enrollment": 147, "teachers_fte": 3.0}], "0200485": [{"ncessch": "020048500193", "school_name": "Chignik Bay School", "city": "Chignik Bay", "state": "AK", "zip": "99564", "lat": 56.292848, "lon": -158.405621, "charter": false, "level": "", "enrollment": 6, "teachers_fte": 0.0}, {"ncessch": "020048500194", "school_name": "Chignik Lagoon School", "city": "Chignik Lagoon", "state": "AK", "zip": "99565", "lat": 56.30861, "lon": -158.537596, "charter": false, "level": "", "enrollment": 18, "teachers_fte": 2.21000003814697}, {"ncessch": "020048500195", "school_name": "Chignik Lake School", "city": "Chignik Lake", "state": "AK", "zip": "99548", "lat": 56.2536160000001, "lon": -158.764525, "charter": false, "level": "", "enrollment": 18, "teachers_fte": 3.19000005722046}, {"ncessch": "020048500197", "school_name": "Igiugig School", "city": "Igiugig", "state": "AK", "zip": "99613", "lat": 59.3252840000001, "lon": -155.903355, "charter": false, "level": "", "enrollment": 27, "teachers_fte": 3.11999988555908}, {"ncessch": "020048500198", "school_name": "Kokhanok School", "city": "Kokhanok", "state": "AK", "zip": "99606", "lat": 59.4399780000001, "lon": -154.749078, "charter": false, "level": "", "enrollment": 35, "teachers_fte": 6.15999984741211}, {"ncessch": "020048500199", "school_name": "Newhalen School", "city": "Iliamna", "state": "AK", "zip": "99606", "lat": 59.7199800000001, "lon": -154.896197, "charter": false, "level": "", "enrollment": 87, "teachers_fte": 8.0}, {"ncessch": "020048500200", "school_name": "Nondalton School", "city": "Nondalton", "state": "AK", "zip": "99640", "lat": 59.966913, "lon": -154.85703, "charter": false, "level": "", "enrollment": 19, "teachers_fte": 4.21000003814697}, {"ncessch": "020048500202", "school_name": "Perryville School", "city": "Perryville", "state": "AK", "zip": "99648", "lat": 55.9116900010001, "lon": -159.143534, "charter": false, "level": "", "enrollment": 22, "teachers_fte": 3.24000000953674}, {"ncessch": "020048500203", "school_name": "Pilot Point School", "city": "Pilot Point", "state": "AK", "zip": "99649", "lat": 57.564173, "lon": -157.573428, "charter": false, "level": "", "enrollment": 8, "teachers_fte": 0.0}, {"ncessch": "020048500204", "school_name": "Tanalian School", "city": "Port Alsworth", "state": "AK", "zip": "99653", "lat": 60.196154, "lon": -154.328261, "charter": false, "level": "", "enrollment": 46, "teachers_fte": 6.0}, {"ncessch": "020048500205", "school_name": "Meshik School", "city": "Port Heiden", "state": "AK", "zip": "99549", "lat": 56.9240320000001, "lon": -158.661434999, "charter": false, "level": "", "enrollment": 30, "teachers_fte": 4.25}, {"ncessch": "020048500334", "school_name": "Levelock School", "city": "Levelock", "state": "AK", "zip": "99625", "lat": 59.1128, "lon": -156.857425, "charter": false, "level": "", "enrollment": 13, "teachers_fte": 1.9099999666214}, {"ncessch": "020048500473", "school_name": "Lakeview Home School", "city": "King Salmon", "state": "AK", "zip": "99613", "lat": 58.6941990000001, "lon": -156.669991, "charter": false, "level": "", "enrollment": 5, "teachers_fte": 0.100000001490116}], "0200510": [{"ncessch": "020051000011", "school_name": "Goose Bay Elementary", "city": "Wasilla", "state": "AK", "zip": "99687", "lat": 61.5407279990001, "lon": -149.613822, "charter": false, "level": "", "enrollment": 336, "teachers_fte": 20.0}, {"ncessch": "020051000224", "school_name": "Mat-Su Central School", "city": "Wasilla", "state": "AK", "zip": "99654", "lat": 61.579146999, "lon": -149.434522, "charter": false, "level": "", "enrollment": 2254, "teachers_fte": 23.4799995422363}, {"ncessch": "020051000225", "school_name": "Glacier View School", "city": "Sutton", "state": "AK", "zip": "99674", "lat": 61.793616, "lon": -147.725751, "charter": false, "level": "", "enrollment": 34, "teachers_fte": 5.0}, {"ncessch": "020051000226", "school_name": "Iditarod Elementary", "city": "Wasilla", "state": "AK", "zip": "99654", "lat": 61.5869860000001, "lon": -149.439948, "charter": false, "level": "", "enrollment": 437, "teachers_fte": 26.0}, {"ncessch": "020051000227", "school_name": "Palmer High School", "city": "Palmer", "state": "AK", "zip": "99645", "lat": 61.6051790000001, "lon": -149.137347999, "charter": false, "level": "", "enrollment": 760, "teachers_fte": 42.0}, {"ncessch": "020051000230", "school_name": "Sherrod Elementary", "city": "Palmer", "state": "AK", "zip": "99645", "lat": 61.612852, "lon": -149.101000999, "charter": false, "level": "", "enrollment": 395, "teachers_fte": 22.0}, {"ncessch": "020051000232", "school_name": "Susitna Valley High", "city": "Talkeetna", "state": "AK", "zip": "99676", "lat": 62.1312080000001, "lon": -150.043869, "charter": false, "level": "", "enrollment": 221, "teachers_fte": 15.25}, {"ncessch": "020051000233", "school_name": "Swanson Elementary", "city": "Palmer", "state": "AK", "zip": "99645", "lat": 61.611318, "lon": -149.101886001, "charter": false, "level": "", "enrollment": 406, "teachers_fte": 23.0}, {"ncessch": "020051000237", "school_name": "Wasilla High School", "city": "Wasilla", "state": "AK", "zip": "99654", "lat": 61.5882040000001, "lon": -149.430625, "charter": false, "level": "", "enrollment": 848, "teachers_fte": 46.75}, {"ncessch": "020051000311", "school_name": "Academy Charter School", "city": "Palmer", "state": "AK", "zip": "99645", "lat": 61.6072419990001, "lon": -149.094386999, "charter": true, "level": "", "enrollment": 261, "teachers_fte": 18.3700008392334}, {"ncessch": "020051000312", "school_name": "Midnight Sun Family Learning Center", "city": "Wasilla", "state": "AK", "zip": "99654", "lat": 61.5969480000001, "lon": -149.634682, "charter": true, "level": "", "enrollment": 188, "teachers_fte": 8.0}, {"ncessch": "020051000407", "school_name": "Mat-Su Youth Facility", "city": "Palmer", "state": "AK", "zip": "99645", "lat": 61.5859230010001, "lon": -149.104279, "charter": false, "level": "", "enrollment": 13, "teachers_fte": 1.0}, {"ncessch": "020051000414", "school_name": "Snowshoe Elementary", "city": "Wasilla", "state": "AK", "zip": "99654", "lat": 61.530739, "lon": -149.502199, "charter": false, "level": "", "enrollment": 340, "teachers_fte": 22.0}, {"ncessch": "020051000416", "school_name": "Meadow Lakes Elementary", "city": "Wasilla", "state": "AK", "zip": "99687", "lat": 61.6107380000001, "lon": -149.621349, "charter": false, "level": "", "enrollment": 297, "teachers_fte": 20.0}, {"ncessch": "020051000425", "school_name": "Valley Pathways", "city": "Palmer", "state": "AK", "zip": "99645", "lat": 61.5916799990001, "lon": -149.16792, "charter": false, "level": "", "enrollment": 200, "teachers_fte": 10.8000001907349}, {"ncessch": "020051000443", "school_name": "Larson Elementary", "city": "Wasilla", "state": "AK", "zip": "99654", "lat": 61.6103570000001, "lon": -149.384716, "charter": false, "level": "", "enrollment": 369, "teachers_fte": 24.0}, {"ncessch": "020051000444", "school_name": "Teeland Middle School", "city": "Wasilla", "state": "AK", "zip": "99654", "lat": 61.6118210000001, "lon": -149.363171, "charter": false, "level": "", "enrollment": 719, "teachers_fte": 37.0}, {"ncessch": "020051000450", "school_name": "Houston Middle School", "city": "Houston", "state": "AK", "zip": "99694", "lat": 61.5868520000001, "lon": -149.772396999, "charter": false, "level": "", "enrollment": 329, "teachers_fte": 18.8999996185303}, {"ncessch": "020051000452", "school_name": "American Charter Academy", "city": "Wasilla", "state": "AK", "zip": "99654", "lat": 61.581734999, "lon": -149.634213, "charter": true, "level": "", "enrollment": 186, "teachers_fte": 10.9099998474121}, {"ncessch": "020051000469", "school_name": "Twindly Bridge Charter School", "city": "Wasilla", "state": "AK", "zip": "99654", "lat": 61.6142540000001, "lon": -149.449682999, "charter": true, "level": "", "enrollment": 584, "teachers_fte": 6.38000011444092}, {"ncessch": "020051000480", "school_name": "John Shaw Elementary", "city": "Wasilla", "state": "AK", "zip": "99654", "lat": 61.6271400000001, "lon": -149.357863, "charter": false, "level": "", "enrollment": 533, "teachers_fte": 29.0}, {"ncessch": "020051000514", "school_name": "Cottonwood Creek Elementary", "city": "Wasilla", "state": "AK", "zip": "99645", "lat": 61.5880770000001, "lon": -149.362315, "charter": false, "level": "", "enrollment": 468, "teachers_fte": 27.0}, {"ncessch": "020051000544", "school_name": "Palmer Middle School", "city": "Palmer", "state": "AK", "zip": "99645", "lat": 61.5934490000001, "lon": -149.109293001, "charter": false, "level": "", "enrollment": 594, "teachers_fte": 28.6000003814697}, {"ncessch": "020051000545", "school_name": "Wasilla Middle School", "city": "Wasilla", "state": "AK", "zip": "99654", "lat": 61.5845820000001, "lon": -149.433083, "charter": false, "level": "", "enrollment": 610, "teachers_fte": 29.75}, {"ncessch": "020051000547", "school_name": "Tanaina Elementary", "city": "Wasilla", "state": "AK", "zip": "99654", "lat": 61.6082890010001, "lon": -149.454189, "charter": false, "level": "", "enrollment": 385, "teachers_fte": 24.0}, {"ncessch": "020051000565", "school_name": "Pioneer Peak Elementary", "city": "Palmer", "state": "AK", "zip": "99645", "lat": 61.6024780000001, "lon": -149.242166, "charter": false, "level": "", "enrollment": 513, "teachers_fte": 28.0}, {"ncessch": "020051000585", "school_name": "Finger Lake Elementary", "city": "Wasilla", "state": "AK", "zip": "99654", "lat": 61.609068, "lon": -149.304358, "charter": false, "level": "", "enrollment": 425, "teachers_fte": 25.0}, {"ncessch": "020051000586", "school_name": "Houston High School", "city": "Big Lake", "state": "AK", "zip": "99652", "lat": 61.5900540000001, "lon": -149.769634, "charter": false, "level": "", "enrollment": 358, "teachers_fte": 24.0}, {"ncessch": "020051000711", "school_name": "Colony High School", "city": "Palmer", "state": "AK", "zip": "99645", "lat": 61.6079690000001, "lon": -149.211983, "charter": false, "level": "", "enrollment": 1117, "teachers_fte": 55.5}, {"ncessch": "020051000719", "school_name": "Colony Middle School", "city": "Palmer", "state": "AK", "zip": "99645", "lat": 61.6088920000001, "lon": -149.219833, "charter": false, "level": "", "enrollment": 735, "teachers_fte": 36.0}, {"ncessch": "020051000720", "school_name": "Burchell High School", "city": "Wasilla", "state": "AK", "zip": "99654", "lat": 61.5798130000001, "lon": -149.494934, "charter": false, "level": "", "enrollment": 208, "teachers_fte": 13.0}, {"ncessch": "020051000721", "school_name": "Willow Elementary", "city": "Willow", "state": "AK", "zip": "99688", "lat": 61.742258, "lon": -150.04596, "charter": false, "level": "", "enrollment": 135, "teachers_fte": 10.0}, {"ncessch": "020051000722", "school_name": "Trapper Creek Elementary", "city": "Trapper Creek", "state": "AK", "zip": "99683", "lat": 62.3155130000001, "lon": -150.318671, "charter": false, "level": "", "enrollment": 22, "teachers_fte": 1.0}, {"ncessch": "020051000723", "school_name": "Talkeetna Elementary", "city": "Talkeetna", "state": "AK", "zip": "99676", "lat": 62.3176810000001, "lon": -150.108103, "charter": false, "level": "", "enrollment": 111, "teachers_fte": 7.75}, {"ncessch": "020051000724", "school_name": "Butte Elementary", "city": "Palmer", "state": "AK", "zip": "99645", "lat": 61.5365210000001, "lon": -149.006077, "charter": false, "level": "", "enrollment": 274, "teachers_fte": 19.0}, {"ncessch": "020051000725", "school_name": "Sutton Elementary", "city": "Sutton", "state": "AK", "zip": "99674", "lat": 61.7159730000001, "lon": -148.878746, "charter": false, "level": "", "enrollment": 51, "teachers_fte": 4.5}, {"ncessch": "020051000726", "school_name": "Beryozova School", "city": "Palmer", "state": "AK", "zip": "99652", "lat": 61.7043409990001, "lon": -150.138969, "charter": false, "level": "", "enrollment": 23, "teachers_fte": 2.0}, {"ncessch": "020051000727", "school_name": "Big Lake Elementary", "city": "Big Lake", "state": "AK", "zip": "99652", "lat": 61.5391510000001, "lon": -149.819386, "charter": false, "level": "", "enrollment": 382, "teachers_fte": 22.0}, {"ncessch": "020051000731", "school_name": "Mat-Su Career & Tech Ed High School", "city": "Wasilla", "state": "AK", "zip": "99654", "lat": 61.60814, "lon": -149.363494, "charter": false, "level": "", "enrollment": 743, "teachers_fte": 42.4000015258789}, {"ncessch": "020051000733", "school_name": "Knik Elementary School", "city": "Wasilla", "state": "AK", "zip": "99654", "lat": 61.540514, "lon": -149.611298, "charter": false, "level": "", "enrollment": 245, "teachers_fte": 19.0}, {"ncessch": "020051000734", "school_name": "Mat-Su Day School", "city": "Wasilla", "state": "AK", "zip": "99654", "lat": 61.6056999990001, "lon": -149.350691, "charter": false, "level": "", "enrollment": 84, "teachers_fte": 14.0}, {"ncessch": "020051000740", "school_name": "Fronteras Charter School", "city": "Wasilla", "state": "AK", "zip": "99654", "lat": 61.6058140000001, "lon": -149.357228999, "charter": true, "level": "", "enrollment": 326, "teachers_fte": 18.0}, {"ncessch": "020051000741", "school_name": "Fred and Sara Machetanz Elementary School", "city": "Wasilla", "state": "AK", "zip": "99654", "lat": 61.548976999, "lon": -149.324286, "charter": false, "level": "", "enrollment": 471, "teachers_fte": 26.3400001525879}, {"ncessch": "020051000744", "school_name": "Birchtree Charter School", "city": "Palmer", "state": "AK", "zip": "99645", "lat": 61.598017999, "lon": -149.273669, "charter": true, "level": "", "enrollment": 407, "teachers_fte": 24.2199993133545}, {"ncessch": "020051000747", "school_name": "Mat-Su Middle College School", "city": "Palmer", "state": "AK", "zip": "99645", "lat": 61.5794520000001, "lon": -149.24045, "charter": false, "level": "", "enrollment": 182, "teachers_fte": 2.0}, {"ncessch": "020051000758", "school_name": "Joe Redington Senior Jr/Sr High School", "city": "Wasilla", "state": "AK", "zip": "99623", "lat": 61.501287001, "lon": -149.702793, "charter": false, "level": "", "enrollment": 556, "teachers_fte": 31.25}, {"ncessch": "020051000759", "school_name": "Dena'ina Elementary School", "city": "Wasilla", "state": "AK", "zip": "99623", "lat": 61.4992800000001, "lon": -149.692618, "charter": false, "level": "", "enrollment": 435, "teachers_fte": 25.0}, {"ncessch": "020051010163", "school_name": "Knik Charter Correspondence School", "city": "Wasilla", "state": "AK", "zip": "99654", "lat": 61.5865860000001, "lon": -149.340358999, "charter": true, "level": "", "enrollment": 37, "teachers_fte": 1.0}, {"ncessch": "020051010164", "school_name": "Knik Charter School", "city": "Wasilla", "state": "AK", "zip": "99654", "lat": 61.5865860000001, "lon": -149.340358999, "charter": true, "level": "", "enrollment": 98, "teachers_fte": 8.0}], "0200520": [{"ncessch": "020052000240", "school_name": "Blackwell School", "city": "Anvik", "state": "AK", "zip": "99558", "lat": 62.6490620000001, "lon": -160.194676, "charter": false, "level": "", "enrollment": 12, "teachers_fte": 3.0}, {"ncessch": "020052000241", "school_name": "David Louis Memorial School", "city": "Grayling", "state": "AK", "zip": "99590", "lat": 62.9056770010001, "lon": -160.06631, "charter": false, "level": "", "enrollment": 35, "teachers_fte": 2.90000009536743}, {"ncessch": "020052000242", "school_name": "Jeffery A. Bader Memorial School", "city": "Holy Cross", "state": "AK", "zip": "99602", "lat": 62.2006510000001, "lon": -159.768423, "charter": false, "level": "", "enrollment": 25, "teachers_fte": 1.0}, {"ncessch": "020052000244", "school_name": "McGrath School", "city": "McGrath", "state": "AK", "zip": "99627", "lat": 62.953519999, "lon": -155.59635, "charter": false, "level": "", "enrollment": 32, "teachers_fte": 4.0}, {"ncessch": "020052000245", "school_name": "Top of the Kuskokwim School", "city": "Nikolai", "state": "AK", "zip": "99691", "lat": 63.0135490000001, "lon": -154.37417, "charter": false, "level": "", "enrollment": 14, "teachers_fte": 2.0}, {"ncessch": "020052000246", "school_name": "Innoko River School", "city": "Shageluk", "state": "AK", "zip": "99665", "lat": 62.654773999, "lon": -159.532853, "charter": false, "level": "", "enrollment": 23, "teachers_fte": 2.0}, {"ncessch": "020052000247", "school_name": "Takotna Community School", "city": "Takotna", "state": "AK", "zip": "99675", "lat": 62.987986, "lon": -156.061947999, "charter": false, "level": "", "enrollment": 11, "teachers_fte": 2.0}, {"ncessch": "020052000327", "school_name": "Distance Learning/Corresp. Ctr.", "city": "Eagle River", "state": "AK", "zip": "99577", "lat": 61.3357819990001, "lon": -149.5655, "charter": false, "level": "", "enrollment": 154, "teachers_fte": 1.0}], "0200525": [{"ncessch": "020052500111", "school_name": "Charles R. Leask Sr. Middle School", "city": "Metlakatla", "state": "AK", "zip": "99926", "lat": 55.127346, "lon": -131.577255, "charter": false, "level": "", "enrollment": 74, "teachers_fte": 8.47000026702881}, {"ncessch": "020052500250", "school_name": "Richard Johnson Elementary", "city": "Metlakatla", "state": "AK", "zip": "99926", "lat": 55.1277910000001, "lon": -131.575177999, "charter": false, "level": "", "enrollment": 137, "teachers_fte": 14.0}, {"ncessch": "020052500648", "school_name": "Metlakatla High School", "city": "Metlakatla", "state": "AK", "zip": "99926", "lat": 55.1262360000001, "lon": -131.577064001, "charter": false, "level": "", "enrollment": 100, "teachers_fte": 10.0600004196167}], "0200540": [{"ncessch": "020054000251", "school_name": "Nenana City School", "city": "Nenana", "state": "AK", "zip": "99760", "lat": 64.5617759990001, "lon": -149.088866, "charter": false, "level": "", "enrollment": 185, "teachers_fte": 13.25}, {"ncessch": "020054000321", "school_name": "CyberLynx Correspondence Program", "city": "Nenana", "state": "AK", "zip": "99760", "lat": 64.561784, "lon": -149.086068001, "charter": false, "level": "", "enrollment": 1673, "teachers_fte": 10.7399997711182}], "0200570": [{"ncessch": "020057000254", "school_name": "Nome Elementary", "city": "Nome", "state": "AK", "zip": "99762", "lat": 64.4978760000001, "lon": -165.383327, "charter": false, "level": "", "enrollment": 338, "teachers_fte": 22.0}, {"ncessch": "020057000323", "school_name": "Anvil City Science Academy", "city": "Nome", "state": "AK", "zip": "99762", "lat": 64.5424530000001, "lon": -165.40547, "charter": true, "level": "", "enrollment": 59, "teachers_fte": 4.5}, {"ncessch": "020057000426", "school_name": "Extensions Correspondence", "city": "Nome", "state": "AK", "zip": "99762", "lat": 64.5424530000001, "lon": -165.40547, "charter": false, "level": "", "enrollment": 27, "teachers_fte": 0.5}, {"ncessch": "020057000568", "school_name": "Nome-Beltz Middle/High", "city": "Nome", "state": "AK", "zip": "99762", "lat": 64.5424530000001, "lon": -165.40547, "charter": false, "level": "", "enrollment": 295, "teachers_fte": 25.0}], "0200600": [{"ncessch": "020060000002", "school_name": "Ladd Elementary", "city": "Fairbanks", "state": "AK", "zip": "99701", "lat": 64.8484290000001, "lon": -147.666592999, "charter": false, "level": "", "enrollment": 437, "teachers_fte": 23.7999992370605}, {"ncessch": "020060000045", "school_name": "University Park Elementary", "city": "Fairbanks", "state": "AK", "zip": "99709", "lat": 64.8456840000001, "lon": -147.846334, "charter": false, "level": "", "enrollment": 356, "teachers_fte": 20.7999992370605}, {"ncessch": "020060000049", "school_name": "Golden Heart Academy", "city": "Fairbanks", "state": "AK", "zip": "99701", "lat": 64.832813, "lon": -147.764598, "charter": false, "level": "", "enrollment": 15, "teachers_fte": 3.5}, {"ncessch": "020060000055", "school_name": "Arctic Light Elementary", "city": "Fort Wainwright", "state": "AK", "zip": "99703", "lat": 64.8269460000001, "lon": -147.690896, "charter": false, "level": "", "enrollment": 467, "teachers_fte": 22.0}, {"ncessch": "020060000114", "school_name": "Anne Wien Elementary", "city": "Fairbanks", "state": "AK", "zip": "99701", "lat": 64.857308, "lon": -147.748003, "charter": false, "level": "", "enrollment": 380, "teachers_fte": 23.2000007629395}, {"ncessch": "020060000162", "school_name": "Chinook Montessori Charter School", "city": "Fairbanks", "state": "AK", "zip": "99701", "lat": 64.819641, "lon": -147.752261, "charter": true, "level": "", "enrollment": 155, "teachers_fte": 9.0}, {"ncessch": "020060000238", "school_name": "Crawford Elementary", "city": "Eielson AFB", "state": "AK", "zip": "99702", "lat": 64.672617001, "lon": -147.072383, "charter": false, "level": "", "enrollment": 447, "teachers_fte": 20.0}, {"ncessch": "020060000256", "school_name": "Anderson Elementary", "city": "Eielson AFB", "state": "AK", "zip": "99702", "lat": 64.6800420000001, "lon": -147.073414, "charter": false, "level": "", "enrollment": null, "teachers_fte": null}, {"ncessch": "020060000258", "school_name": "Midnight Sun Elementary School", "city": "North Pole", "state": "AK", "zip": "99705", "lat": 64.80465, "lon": -147.412831, "charter": false, "level": "", "enrollment": 337, "teachers_fte": 19.0}, {"ncessch": "020060000259", "school_name": "Barnette Magnet School", "city": "Fairbanks", "state": "AK", "zip": "99701", "lat": 64.838282, "lon": -147.729991, "charter": false, "level": "", "enrollment": 426, "teachers_fte": 24.8999996185303}, {"ncessch": "020060000260", "school_name": "Ben Eielson Jr/Sr High School", "city": "Eielson AFB", "state": "AK", "zip": "99702", "lat": 64.6747960000001, "lon": -147.074375, "charter": false, "level": "", "enrollment": 411, "teachers_fte": 21.0}, {"ncessch": "020060000262", "school_name": "Denali Elementary", "city": "Fairbanks", "state": "AK", "zip": "99701", "lat": 64.8400040010001, "lon": -147.74856, "charter": false, "level": "", "enrollment": 292, "teachers_fte": 18.2000007629395}, {"ncessch": "020060000267", "school_name": "Hunter Elementary", "city": "Fairbanks", "state": "AK", "zip": "99701", "lat": 64.8323950000001, "lon": -147.730148999, "charter": false, "level": "", "enrollment": 363, "teachers_fte": 21.0}, {"ncessch": "020060000269", "school_name": "Joy Elementary", "city": "Fairbanks", "state": "AK", "zip": "99701", "lat": 64.8613780000001, "lon": -147.724828, "charter": false, "level": "", "enrollment": null, "teachers_fte": null}, {"ncessch": "020060000270", "school_name": "Lathrop High School", "city": "Fairbanks", "state": "AK", "zip": "99701", "lat": 64.8353450000001, "lon": -147.732626999, "charter": false, "level": "", "enrollment": 886, "teachers_fte": 44.5999984741211}, {"ncessch": "020060000271", "school_name": "Nordale Elementary", "city": "Fairbanks", "state": "AK", "zip": "99701", "lat": 64.8468530000001, "lon": -147.692704, "charter": false, "level": "", "enrollment": null, "teachers_fte": null}, {"ncessch": "020060000273", "school_name": "North Pole High School", "city": "North Pole", "state": "AK", "zip": "99705", "lat": 64.746564, "lon": -147.369480001, "charter": false, "level": "", "enrollment": 617, "teachers_fte": 29.8799991607666}, {"ncessch": "020060000275", "school_name": "Ryan Middle School", "city": "Fairbanks", "state": "AK", "zip": "99701", "lat": 64.835785, "lon": -147.734822, "charter": false, "level": "", "enrollment": 543, "teachers_fte": 30.1000003814697}, {"ncessch": "020060000276", "school_name": "Salcha Elementary", "city": "Fairbanks", "state": "AK", "zip": "99701", "lat": 64.48245, "lon": -146.976998999, "charter": false, "level": "", "enrollment": 66, "teachers_fte": 5.0}, {"ncessch": "020060000277", "school_name": "Tanana Middle School", "city": "Fairbanks", "state": "AK", "zip": "99701", "lat": 64.8456600010001, "lon": -147.665956, "charter": false, "level": "", "enrollment": 545, "teachers_fte": 26.6200008392334}, {"ncessch": "020060000279", "school_name": "Two Rivers School", "city": "Fairbanks", "state": "AK", "zip": "99701", "lat": 64.8772700000001, "lon": -147.038497, "charter": false, "level": "", "enrollment": 67, "teachers_fte": 6.0}, {"ncessch": "020060000280", "school_name": "Woodriver Elementary", "city": "Fairbanks", "state": "AK", "zip": "99709", "lat": 64.8394290000001, "lon": -147.87068, "charter": false, "level": "", "enrollment": 341, "teachers_fte": 20.5}, {"ncessch": "020060000281", "school_name": "West Valley High School", "city": "Fairbanks", "state": "AK", "zip": "99709", "lat": 64.851566, "lon": -147.825413, "charter": false, "level": "", "enrollment": 906, "teachers_fte": 44.7299995422363}, {"ncessch": "020060000324", "school_name": "Randy Smith Middle School", "city": "Fairbanks", "state": "AK", "zip": "99701", "lat": 64.8551450000001, "lon": -147.750235999, "charter": false, "level": "", "enrollment": 407, "teachers_fte": 22.2000007629395}, {"ncessch": "020060000325", "school_name": "Alternative Learning Systems", "city": "Fairbanks", "state": "AK", "zip": "99701", "lat": 64.8421680010001, "lon": -147.718047, "charter": false, "level": "", "enrollment": 188, "teachers_fte": 13.8000001907349}, {"ncessch": "020060000464", "school_name": "Effie Kokrine Charter School", "city": "Fairbanks", "state": "AK", "zip": "99709", "lat": 64.8478269990001, "lon": -147.840318, "charter": true, "level": "", "enrollment": 133, "teachers_fte": 8.0}, {"ncessch": "020060000516", "school_name": "Pearl Creek Elementary", "city": "Fairbanks", "state": "AK", "zip": "99709", "lat": 64.8913630000001, "lon": -147.814813, "charter": false, "level": "", "enrollment": 411, "teachers_fte": 22.7999992370605}, {"ncessch": "020060000519", "school_name": "Weller Elementary", "city": "Fairbanks", "state": "AK", "zip": "99701", "lat": 64.8877350000001, "lon": -147.591857, "charter": false, "level": "", "enrollment": 467, "teachers_fte": 23.0}, {"ncessch": "020060000587", "school_name": "Fairbanks B.E.S.T.", "city": "Fairbanks", "state": "AK", "zip": "99701", "lat": 64.8421680010001, "lon": -147.718047, "charter": false, "level": "", "enrollment": 801, "teachers_fte": 1.0}, {"ncessch": "020060000600", "school_name": "Ticasuk Brown Elementary", "city": "Fairbanks", "state": "AK", "zip": "99701", "lat": 64.8250810010001, "lon": -147.532789, "charter": false, "level": "", "enrollment": 397, "teachers_fte": 23.0}, {"ncessch": "020060000650", "school_name": "Hutchison High School", "city": "Fairbanks", "state": "AK", "zip": "99709", "lat": 64.8502730000001, "lon": -147.815486, "charter": false, "level": "", "enrollment": 375, "teachers_fte": 22.0}, {"ncessch": "020060000651", "school_name": "North Pole Elementary", "city": "North Pole", "state": "AK", "zip": "99705", "lat": 64.7520850000001, "lon": -147.349122001, "charter": false, "level": "", "enrollment": 347, "teachers_fte": 17.6599998474121}, {"ncessch": "020060000652", "school_name": "North Pole Middle School", "city": "North Pole", "state": "AK", "zip": "99705", "lat": 64.7469070000001, "lon": -147.342566001, "charter": false, "level": "", "enrollment": 531, "teachers_fte": 27.8999996185303}, {"ncessch": "020060000742", "school_name": "Watershed Charter School", "city": "Fairbanks", "state": "AK", "zip": "99709", "lat": 64.82705, "lon": -147.868291, "charter": true, "level": "", "enrollment": 198, "teachers_fte": 9.80000019073486}, {"ncessch": "020060000761", "school_name": "Boreal Sun Charter School", "city": "Fairbanks", "state": "AK", "zip": "99701", "lat": 64.8248, "lon": -147.731661001, "charter": true, "level": "", "enrollment": 197, "teachers_fte": 11.1400003433228}, {"ncessch": "020060000766", "school_name": "Discovery Peak Charter School", "city": "North Pole", "state": "AK", "zip": "99705", "lat": 64.7630260000001, "lon": -147.351277, "charter": true, "level": "", "enrollment": 194, "teachers_fte": 11.0}], "0200610": [{"ncessch": "020061000139", "school_name": "Eben Hopson Middle School", "city": "Utqiagvik", "state": "AK", "zip": "99723", "lat": 71.2984779990001, "lon": -156.743762, "charter": false, "level": "", "enrollment": 247, "teachers_fte": 17.0}, {"ncessch": "020061000283", "school_name": "Nunamiut School", "city": "Anaktuvuk Pass", "state": "AK", "zip": "99721", "lat": 68.139780999, "lon": -151.738503, "charter": false, "level": "", "enrollment": 96, "teachers_fte": 4.0}, {"ncessch": "020061000284", "school_name": "Meade River School", "city": "Atqasuk", "state": "AK", "zip": "99791", "lat": 70.4810840010001, "lon": -157.418635, "charter": false, "level": "", "enrollment": 84, "teachers_fte": 7.0}, {"ncessch": "020061000285", "school_name": "Fred Ipalook Elementary", "city": "Utqiagvik", "state": "AK", "zip": "99723", "lat": 71.29134, "lon": -156.753582, "charter": false, "level": "", "enrollment": 539, "teachers_fte": 33.5}, {"ncessch": "020061000286", "school_name": "Barrow High School", "city": "Utqiagvik", "state": "AK", "zip": "99723", "lat": 71.2895130000001, "lon": -156.768165, "charter": false, "level": "", "enrollment": 276, "teachers_fte": 18.0}, {"ncessch": "020061000287", "school_name": "Harold Kaveolook School", "city": "Kaktovik", "state": "AK", "zip": "99747", "lat": 70.127419, "lon": -143.616202999, "charter": false, "level": "", "enrollment": 68, "teachers_fte": 8.0},