{"4700001": [{"ncessch": "470000100477", "school_name": "Alpha Elementary", "city": "Morristown", "state": "TN", "zip": "37814", "lat": 36.177827, "lon": -83.3866659999999, "charter": false, "level": "", "enrollment": 606, "teachers_fte": 38.1699981689453}, {"ncessch": "470000100479", "school_name": "East Ridge Middle School", "city": "Whitesburg", "state": "TN", "zip": "37891", "lat": 36.2672000000001, "lon": -83.1838, "charter": false, "level": "", "enrollment": 498, "teachers_fte": 32.8300018310547}, {"ncessch": "470000100480", "school_name": "Fairview Marguerite", "city": "Morristown", "state": "TN", "zip": "37814", "lat": 36.2368000000001, "lon": -83.2924, "charter": false, "level": "", "enrollment": 490, "teachers_fte": 35.9799995422363}, {"ncessch": "470000100481", "school_name": "Manley Elementary", "city": "Morristown", "state": "TN", "zip": "37814", "lat": 36.2086550000001, "lon": -83.337658, "charter": false, "level": "", "enrollment": 612, "teachers_fte": 41.1699981689453}, {"ncessch": "470000100483", "school_name": "Russellville Elementary", "city": "Russellville", "state": "TN", "zip": "37860", "lat": 36.2544, "lon": -83.2039, "charter": false, "level": "", "enrollment": 624, "teachers_fte": 40.4799995422363}, {"ncessch": "470000100485", "school_name": "Union Heights Elementary", "city": "Morristown", "state": "TN", "zip": "37813", "lat": 36.1818000000001, "lon": -83.243799999, "charter": false, "level": "", "enrollment": 304, "teachers_fte": 20.6399993896484}, {"ncessch": "470000100487", "school_name": "Whitesburg Elementary", "city": "Whitesburg", "state": "TN", "zip": "37891", "lat": 36.27264, "lon": -83.139437001, "charter": false, "level": "", "enrollment": 206, "teachers_fte": 15.9799995422363}, {"ncessch": "470000100488", "school_name": "Witt Elementary", "city": "Morristown", "state": "TN", "zip": "37813", "lat": 36.1594000000001, "lon": -83.274700001, "charter": false, "level": "", "enrollment": 215, "teachers_fte": 17.1700000762939}, {"ncessch": "470000101268", "school_name": "Hamblen County Alternative School", "city": "Morristown", "state": "TN", "zip": "37813", "lat": 36.2258, "lon": -83.2495, "charter": false, "level": "", "enrollment": 62, "teachers_fte": 8.0}, {"ncessch": "470000101271", "school_name": "West View Middle School", "city": "Morristown", "state": "TN", "zip": "37813", "lat": 36.1717199990001, "lon": -83.3481199999999, "charter": false, "level": "", "enrollment": 579, "teachers_fte": 35.5}, {"ncessch": "470000101929", "school_name": "Hillcrest Elementary", "city": "Morristown", "state": "TN", "zip": "37813", "lat": 36.214999999, "lon": -83.2773, "charter": false, "level": "", "enrollment": 604, "teachers_fte": 40.6399993896484}, {"ncessch": "470000101930", "school_name": "John Hay Elementary", "city": "Morristown", "state": "TN", "zip": "37814", "lat": 36.2327000000001, "lon": -83.2542999999999, "charter": false, "level": "", "enrollment": 266, "teachers_fte": 20.1399993896484}, {"ncessch": "470000101931", "school_name": "Lincoln Heights Elementary", "city": "Morristown", "state": "TN", "zip": "37813", "lat": 36.20185, "lon": -83.285946, "charter": false, "level": "", "enrollment": 525, "teachers_fte": 38.6699981689453}, {"ncessch": "470000101933", "school_name": "Lincoln Heights Middle School", "city": "Morristown", "state": "TN", "zip": "37813", "lat": 36.201279001, "lon": -83.287083001, "charter": false, "level": "", "enrollment": 561, "teachers_fte": 36.5}, {"ncessch": "470000101934", "school_name": "Meadowview Middle School", "city": "Morristown", "state": "TN", "zip": "37814", "lat": 36.2282000000001, "lon": -83.274899999, "charter": false, "level": "", "enrollment": 627, "teachers_fte": 45.0}, {"ncessch": "470000101935", "school_name": "Morristown East High", "city": "Morristown", "state": "TN", "zip": "37813", "lat": 36.2137000000001, "lon": -83.2859, "charter": false, "level": "", "enrollment": 1572, "teachers_fte": 80.1399993896484}, {"ncessch": "470000101936", "school_name": "Morristown West High", "city": "Morristown", "state": "TN", "zip": "37813", "lat": 36.200099999, "lon": -83.2976, "charter": false, "level": "", "enrollment": 1506, "teachers_fte": 88.6699981689453}, {"ncessch": "470000101937", "school_name": "West Elementary", "city": "Morristown", "state": "TN", "zip": "37814", "lat": 36.2232900000001, "lon": -83.304895, "charter": false, "level": "", "enrollment": 432, "teachers_fte": 32.6699981689453}], "4700030": [{"ncessch": "470003000001", "school_name": "Alamo Elementary", "city": "Alamo", "state": "TN", "zip": "38001", "lat": 35.7839000000001, "lon": -89.112299999, "charter": false, "level": "", "enrollment": 578, "teachers_fte": 38.5}], "4700060": [{"ncessch": "470006000234", "school_name": "Alcoa Elementary", "city": "Alcoa", "state": "TN", "zip": "37701", "lat": 35.792600001, "lon": -83.9745, "charter": false, "level": "", "enrollment": 552, "teachers_fte": 35.0}, {"ncessch": "470006000235", "school_name": "Alcoa High School", "city": "Alcoa", "state": "TN", "zip": "37701", "lat": 35.7893159990001, "lon": -83.981614, "charter": false, "level": "", "enrollment": 705, "teachers_fte": 48.0}, {"ncessch": "470006000236", "school_name": "Alcoa Middle School", "city": "Alcoa", "state": "TN", "zip": "37701", "lat": 35.79198, "lon": -83.980171, "charter": false, "level": "", "enrollment": 481, "teachers_fte": 31.5}, {"ncessch": "470006002445", "school_name": "Alcoa Intermediate School", "city": "Alcoa", "state": "TN", "zip": "37701", "lat": 35.7914470000001, "lon": -83.9784059999999, "charter": false, "level": "", "enrollment": 473, "teachers_fte": 30.0}], "4700090": [{"ncessch": "470009000003", "school_name": "Anderson County Career Technical Center", "city": "Clinton", "state": "TN", "zip": "37716", "lat": 36.1587880000001, "lon": -84.095913001, "charter": false, "level": "", "enrollment": 0, "teachers_fte": null}, {"ncessch": "470009000004", "school_name": "Andersonville Elementary", "city": "Andersonville", "state": "TN", "zip": "37705", "lat": 36.1972669990001, "lon": -84.036694, "charter": false, "level": "", "enrollment": 325, "teachers_fte": 24.0499992370605}, {"ncessch": "470009000005", "school_name": "Briceville Elementary", "city": "Briceville", "state": "TN", "zip": "37710", "lat": 36.1773870000001, "lon": -84.1841190009999, "charter": false, "level": "", "enrollment": 108, "teachers_fte": 9.30000019073486}, {"ncessch": "470009000006", "school_name": "Claxton Elementary", "city": "Powell", "state": "TN", "zip": "37849", "lat": 36.0424090000001, "lon": -84.1120569999999, "charter": false, "level": "", "enrollment": 502, "teachers_fte": 36.6300010681152}, {"ncessch": "470009000007", "school_name": "Clinton Middle School", "city": "Clinton", "state": "TN", "zip": "37716", "lat": 36.101337001, "lon": -84.13582, "charter": false, "level": "", "enrollment": 609, "teachers_fte": 48.3300018310547}, {"ncessch": "470009000008", "school_name": "Clinton High School", "city": "Clinton", "state": "TN", "zip": "37716", "lat": 36.0942460000001, "lon": -84.144531001, "charter": false, "level": "", "enrollment": 1126, "teachers_fte": 78.2799987792969}, {"ncessch": "470009000011", "school_name": "Dutch Valley Elementary", "city": "Clinton", "state": "TN", "zip": "37716", "lat": 36.124330001, "lon": -84.202671, "charter": false, "level": "", "enrollment": 114, "teachers_fte": 9.05000019073486}, {"ncessch": "470009000012", "school_name": "Fairview Elementary", "city": "Heiskell", "state": "TN", "zip": "37754", "lat": 36.1534750000001, "lon": -84.027464999, "charter": false, "level": "", "enrollment": 281, "teachers_fte": 23.5100002288818}, {"ncessch": "470009000014", "school_name": "Lake City Elementary", "city": "Lake City", "state": "TN", "zip": "37769", "lat": 36.2204800000001, "lon": -84.1519210009999, "charter": false, "level": "", "enrollment": 403, "teachers_fte": 26.7999992370605}, {"ncessch": "470009000015", "school_name": "Lake City Middle School", "city": "Lake City", "state": "TN", "zip": "37769", "lat": 36.2093409990001, "lon": -84.146753001, "charter": false, "level": "", "enrollment": 257, "teachers_fte": 23.3299999237061}, {"ncessch": "470009000018", "school_name": "Norris Elementary", "city": "Norris", "state": "TN", "zip": "37828", "lat": 36.1985520000001, "lon": -84.065549, "charter": false, "level": "", "enrollment": 259, "teachers_fte": 16.3799991607666}, {"ncessch": "470009000019", "school_name": "Norris Middle School", "city": "Norris", "state": "TN", "zip": "37828", "lat": 36.1956720000001, "lon": -84.070274, "charter": false, "level": "", "enrollment": 489, "teachers_fte": 32.9900016784668}, {"ncessch": "470009000020", "school_name": "Norwood Elementary", "city": "Oliver Springs", "state": "TN", "zip": "37840", "lat": 36.0293989990001, "lon": -84.324016, "charter": false, "level": "", "enrollment": 223, "teachers_fte": 18.7999992370605}, {"ncessch": "470009000021", "school_name": "Norwood Middle School", "city": "Oliver Springs", "state": "TN", "zip": "37840", "lat": 36.030311, "lon": -84.3251279999999, "charter": false, "level": "", "enrollment": 159, "teachers_fte": 16.1299991607666}, {"ncessch": "470009001871", "school_name": "Anderson County High School", "city": "Clinton", "state": "TN", "zip": "37716", "lat": 36.1604810000001, "lon": -84.09488, "charter": false, "level": "", "enrollment": 1036, "teachers_fte": 71.0899963378906}, {"ncessch": "470009002002", "school_name": "Grand Oaks Elementary", "city": "Clinton", "state": "TN", "zip": "37716", "lat": 36.0526980000001, "lon": -84.239407999, "charter": false, "level": "", "enrollment": 330, "teachers_fte": 22.0100002288818}, {"ncessch": "470009002163", "school_name": "Anderson County Head Start / Preschool", "city": "Clinton", "state": "TN", "zip": "37716", "lat": 36.1112900000001, "lon": -84.132081, "charter": false, "level": "", "enrollment": 73, "teachers_fte": 3.0}, {"ncessch": "470009002291", "school_name": "Clinch River Community School", "city": "Clinton", "state": "TN", "zip": "37716", "lat": 36.1619910000001, "lon": -84.096975, "charter": false, "level": "", "enrollment": 0, "teachers_fte": null}, {"ncessch": "470009002641", "school_name": "Anderson County Innovation Academy", "city": "Clinton", "state": "TN", "zip": "37716", "lat": 36.1587880000001, "lon": -84.095913001, "charter": false, "level": "", "enrollment": 23, "teachers_fte": 8.39000034332275}], "4700120": [{"ncessch": "470012000025", "school_name": "Athens City Middle School", "city": "Athens", "state": "TN", "zip": "37303", "lat": 35.43519, "lon": -84.606174999, "charter": false, "level": "", "enrollment": 481, "teachers_fte": 29.3299999237061}, {"ncessch": "470012000026", "school_name": "City Park Elementary", "city": "Athens", "state": "TN", "zip": "37303", "lat": 35.435414, "lon": -84.60177, "charter": false, "level": "", "enrollment": 355, "teachers_fte": 21.8299999237061}, {"ncessch": "470012000027", "school_name": "Ingleside Elementary", "city": "Athens", "state": "TN", "zip": "37303", "lat": 35.4504930000001, "lon": -84.587257999, "charter": false, "level": "", "enrollment": 386, "teachers_fte": 23.0}, {"ncessch": "470012000028", "school_name": "North City Elementary", "city": "Athens", "state": "TN", "zip": "37303", "lat": 35.458468, "lon": -84.607455, "charter": false, "level": "", "enrollment": 278, "teachers_fte": 16.8299999237061}, {"ncessch": "470012000029", "school_name": "Westside Elementary", "city": "Athens", "state": "TN", "zip": "37303", "lat": 35.446091, "lon": -84.608469, "charter": false, "level": "", "enrollment": 302, "teachers_fte": 18.0}], "4700143": [{"ncessch": "470014302131", "school_name": "West Tennessee School for the Deaf", "city": "Jackson", "state": "TN", "zip": "38301", "lat": 35.6464810000001, "lon": -88.788650999, "charter": false, "level": "", "enrollment": 28, "teachers_fte": 8.19999980926514}], "4700144": [{"ncessch": "470014402133", "school_name": "Alvin C. York Institute", "city": "Jamestown", "state": "TN", "zip": "38556", "lat": 36.4437390000001, "lon": -84.938113, "charter": false, "level": "", "enrollment": 492, "teachers_fte": 36.4799995422363}], "4700145": [{"ncessch": "470014502138", "school_name": "Tenn School For Blind", "city": "Nashville", "state": "TN", "zip": "37214", "lat": 36.1676110000001, "lon": -86.653802001, "charter": false, "level": "", "enrollment": 127, "teachers_fte": 29.0}], "4700146": [{"ncessch": "470014602124", "school_name": "Tennessee School For Deaf Elementary School", "city": "Knoxville", "state": "TN", "zip": "37920", "lat": 35.9581000000001, "lon": -83.8776999999999, "charter": false, "level": "", "enrollment": 48, "teachers_fte": 12.1999998092651}, {"ncessch": "470014602140", "school_name": "Tennessee School for the Deaf Upper School", "city": "Knoxville", "state": "TN", "zip": "37920", "lat": 35.9581000000001, "lon": -83.8776999999999, "charter": false, "level": "", "enrollment": 69, "teachers_fte": 20.6499996185303}, {"ncessch": "470014602564", "school_name": "Tennessee School for the Deaf Nashville", "city": "Nashville", "state": "TN", "zip": "37214", "lat": 36.1676110000001, "lon": -86.653802001, "charter": false, "level": "", "enrollment": 27, "teachers_fte": 4.19999980926514}], "4700147": [{"ncessch": "470014701034", "school_name": "Journey Coleman School", "city": "Memphis", "state": "TN", "zip": "38128", "lat": 35.213784, "lon": -89.923569, "charter": true, "level": "", "enrollment": 631, "teachers_fte": 33.1699981689453}, {"ncessch": "470014701058", "school_name": "Fairley High School", "city": "Memphis", "state": "TN", "zip": "38109", "lat": 35.0120949990001, "lon": -90.05105, "charter": true, "level": "", "enrollment": 399, "teachers_fte": 20.5}, {"ncessch": "470014701064", "school_name": "Martin Luther King Preparatory High School", "city": "Memphis", "state": "TN", "zip": "38127", "lat": 35.2137470000001, "lon": -90.0130139999999, "charter": true, "level": "", "enrollment": 537, "teachers_fte": 19.3299999237061}, {"ncessch": "470014701140", "school_name": "Memphis Scholars Florida Kansas", "city": "Memphis", "state": "TN", "zip": "38106", "lat": 35.1099130010001, "lon": -90.066904999, "charter": true, "level": "", "enrollment": 143, "teachers_fte": 5.5}, {"ncessch": "470014701187", "school_name": "Wooddale Middle School", "city": "Memphis", "state": "TN", "zip": "38118", "lat": 35.0541200000001, "lon": -89.8919369989999, "charter": true, "level": "", "enrollment": 486, "teachers_fte": 28.5}, {"ncessch": "470014702295", "school_name": "Cornerstone Prep - Lester Campus", "city": "Memphis", "state": "TN", "zip": "38112", "lat": 35.141146, "lon": -89.963536, "charter": true, "level": "", "enrollment": 401, "teachers_fte": 14.8299999237061}, {"ncessch": "470014702304", "school_name": "Humes Preparatory Academy Middle School", "city": "Memphis", "state": "TN", "zip": "38107", "lat": 35.158802001, "lon": -90.033471, "charter": true, "level": "", "enrollment": 193, "teachers_fte": 10.0}, {"ncessch": "470014702309", "school_name": "Brick Church: A LEAD Public School", "city": "Nashville", "state": "TN", "zip": "37207", "lat": 36.2205050000001, "lon": -86.781436, "charter": true, "level": "", "enrollment": 229, "teachers_fte": 12.0}, {"ncessch": "470014702315", "school_name": "Westside Middle School", "city": "Memphis", "state": "TN", "zip": "38127", "lat": 35.218132, "lon": -90.036911999, "charter": true, "level": "", "enrollment": 328, "teachers_fte": 11.0}, {"ncessch": "470014702324", "school_name": "Journey Hanley School", "city": "Memphis", "state": "TN", "zip": "38114", "lat": 35.1135820000001, "lon": -89.976593, "charter": true, "level": "", "enrollment": 657, "teachers_fte": 29.75}, {"ncessch": "470014702398", "school_name": "Promise Academy - Spring Hill", "city": "Memphis", "state": "TN", "zip": "38128", "lat": 35.223416, "lon": -89.93699, "charter": true, "level": "", "enrollment": 388, "teachers_fte": 15.0}, {"ncessch": "470014702456", "school_name": "Neely's Bend: A LEAD Public School", "city": "Madison", "state": "TN", "zip": "37115", "lat": 36.2422040000001, "lon": -86.674236, "charter": true, "level": "", "enrollment": 367, "teachers_fte": 18.0}, {"ncessch": "470014702458", "school_name": "Memphis Scholars Raleigh-Egypt", "city": "Memphis", "state": "TN", "zip": "38106", "lat": 35.1101050010001, "lon": -90.06713, "charter": true, "level": "", "enrollment": 78, "teachers_fte": 5.5}, {"ncessch": "470014702461", "school_name": "Kirby Middle School", "city": "Memphis", "state": "TN", "zip": "38115", "lat": 35.0360900000001, "lon": -89.840895001, "charter": true, "level": "", "enrollment": 385, "teachers_fte": 24.0}, {"ncessch": "470014702462", "school_name": "Memphis Scholars Caldwell-Guthrie", "city": "Memphis", "state": "TN", "zip": "38107", "lat": 35.1673840010001, "lon": -90.02512, "charter": true, "level": "", "enrollment": 309, "teachers_fte": 14.3299999237061}, {"ncessch": "470014702466", "school_name": "Hillcrest High School", "city": "Memphis", "state": "TN", "zip": "38116", "lat": 35.034365999, "lon": -90.0145200009999, "charter": true, "level": "", "enrollment": 435, "teachers_fte": 24.0}], "4700148": [{"ncessch": "470014800164", "school_name": "Highland Oaks Elementary", "city": "Memphis", "state": "TN", "zip": "38125", "lat": 35.0047000000001, "lon": -89.8144, "charter": false, "level": "", "enrollment": 827, "teachers_fte": 62.1699981689453}, {"ncessch": "470014800176", "school_name": "Cordova Middle", "city": "Cordova", "state": "TN", "zip": "38018", "lat": 35.1489, "lon": -89.7696999999999, "charter": false, "level": "", "enrollment": 650, "teachers_fte": 27.1700000762939}, {"ncessch": "470014800179", "school_name": "Oak Forest Elementary", "city": "Memphis", "state": "TN", "zip": "38119", "lat": 35.061448, "lon": -89.814855, "charter": false, "level": "", "enrollment": 411, "teachers_fte": 32.0}, {"ncessch": "470014800499", "school_name": "Shelby Oaks Elementary", "city": "Memphis", "state": "TN", "zip": "38134", "lat": 35.1777999990001, "lon": -89.8604, "charter": false, "level": "", "enrollment": 743, "teachers_fte": 47.0}, {"ncessch": "470014800857", "school_name": "Macon-Hall Elementary", "city": "Cordova", "state": "TN", "zip": "38016", "lat": 35.1622830000001, "lon": -89.734629001, "charter": false, "level": "", "enrollment": 1141, "teachers_fte": 73.0}, {"ncessch": "470014800861", "school_name": "Ida B. Wells Academy ES/MS", "city": "Memphis", "state": "TN", "zip": "38126", "lat": 35.1199, "lon": -90.0445999999999, "charter": false, "level": "", "enrollment": 126, "teachers_fte": 17.9200000762939}, {"ncessch": "470014801011", "school_name": "A. B. Hill Elementary", "city": "Memphis", "state": "TN", "zip": "38106", "lat": 35.11004, "lon": -90.051057, "charter": false, "level": "", "enrollment": 618, "teachers_fte": 34.3300018310547}, {"ncessch": "470014801015", "school_name": "Avon School", "city": "Memphis", "state": "TN", "zip": "38117", "lat": 35.139353, "lon": -89.901894, "charter": false, "level": "", "enrollment": 182, "teachers_fte": 20.5}, {"ncessch": "470014801016", "school_name": "B. T. Washington High", "city": "Memphis", "state": "TN", "zip": "38126", "lat": 35.128297, "lon": -90.044995, "charter": false, "level": "", "enrollment": 477, "teachers_fte": 33.2700004577637}, {"ncessch": "470014801018", "school_name": "Bellevue Middle", "city": "Memphis", "state": "TN", "zip": "38104", "lat": 35.1308000010001, "lon": -90.0216, "charter": false, "level": "", "enrollment": 594, "teachers_fte": 33.6699981689453}, {"ncessch": "470014801019", "school_name": "Berclair Elementary", "city": "Memphis", "state": "TN", "zip": "38122", "lat": 35.1531000000001, "lon": -89.907200001, "charter": false, "level": "", "enrollment": 646, "teachers_fte": 53.5}, {"ncessch": "470014801020", "school_name": "Bethel Grove Elementary", "city": "Memphis", "state": "TN", "zip": "38114", "lat": 35.0991450000001, "lon": -89.980986, "charter": false, "level": "", "enrollment": 247, "teachers_fte": 14.0}, {"ncessch": "470014801022", "school_name": "Brownsville Road Elementary", "city": "Memphis", "state": "TN", "zip": "38135", "lat": 35.2270330000001, "lon": -89.886743, "charter": false, "level": "", "enrollment": 467, "teachers_fte": 28.8299999237061}, {"ncessch": "470014801023", "school_name": "Bruce Elementary", "city": "Memphis", "state": "TN", "zip": "38104", "lat": 35.1312, "lon": -90.0223, "charter": false, "level": "", "enrollment": 495, "teachers_fte": 37.5}, {"ncessch": "470014801025", "school_name": "Campus School", "city": "Memphis", "state": "TN", "zip": "38152", "lat": 35.1169370000001, "lon": -89.934450999, "charter": false, "level": "", "enrollment": 398, "teachers_fte": 20.5499992370605}, {"ncessch": "470014801028", "school_name": "Central High", "city": "Memphis", "state": "TN", "zip": "38104", "lat": 35.1338900000001, "lon": -90.019801001, "charter": false, "level": "", "enrollment": 1312, "teachers_fte": 62.0200004577637}, {"ncessch": "470014801030", "school_name": "Cherokee Elementary", "city": "Memphis", "state": "TN", "zip": "38114", "lat": 35.0940000000001, "lon": -89.9602, "charter": false, "level": "", "enrollment": 395, "teachers_fte": 32.1699981689453}, {"ncessch": "470014801032", "school_name": "Chickasaw Middle", "city": "Memphis", "state": "TN", "zip": "38109", "lat": 35.0379, "lon": -90.0916, "charter": false, "level": "", "enrollment": 322, "teachers_fte": 23.0}, {"ncessch": "470014801036", "school_name": "Colonial Middle", "city": "Memphis", "state": "TN", "zip": "38117", "lat": 35.0942000000001, "lon": -89.9009, "charter": false, "level": "", "enrollment": 1000, "teachers_fte": 61.5}, {"ncessch": "470014801040", "school_name": "Craigmont High", "city": "Memphis", "state": "TN", "zip": "38128", "lat": 35.2162999990001, "lon": -89.8962999999999, "charter": false, "level": "", "enrollment": 779, "teachers_fte": 50.9900016784668}, {"ncessch": "470014801042", "school_name": "Cromwell Elementary", "city": "Memphis", "state": "TN", "zip": "38118", "lat": 35.0456, "lon": -89.8971, "charter": false, "level": "", "enrollment": 470, "teachers_fte": 29.8299999237061}, {"ncessch": "470014801043", "school_name": "Cummings Elementary/Middle", "city": "Memphis", "state": "TN", "zip": "38106", "lat": 35.1189000000001, "lon": -90.0282999999999, "charter": false, "level": "", "enrollment": 269, "teachers_fte": 24.4200000762939}, {"ncessch": "470014801045", "school_name": "Delano Elementary", "city": "Memphis", "state": "TN", "zip": "38127", "lat": 35.1995000000001, "lon": -90.0057, "charter": false, "level": "", "enrollment": 283, "teachers_fte": 18.0}, {"ncessch": "470014801047", "school_name": "Double Tree Elementary", "city": "Memphis", "state": "TN", "zip": "38109", "lat": 35.0236, "lon": -90.1027, "charter": false, "level": "", "enrollment": 372, "teachers_fte": 14.5}, {"ncessch": "470014801048", "school_name": "Douglass Elementary/Middle", "city": "Memphis", "state": "TN", "zip": "38108", "lat": 35.1774, "lon": -89.9532, "charter": false, "level": "", "enrollment": 474, "teachers_fte": 38.3600006103516}, {"ncessch": "470014801053", "school_name": "East High", "city": "Memphis", "state": "TN", "zip": "38111", "lat": 35.1317999990001, "lon": -89.954300001, "charter": false, "level": "", "enrollment": 568, "teachers_fte": 34.9000015258789}, {"ncessch": "470014801055", "school_name": "Egypt Elementary", "city": "Memphis", "state": "TN", "zip": "38128", "lat": 35.2396000000001, "lon": -89.9301, "charter": false, "level": "", "enrollment": 522, "teachers_fte": 32.0}, {"ncessch": "470014801056", "school_name": "Evans Elementary", "city": "Memphis", "state": "TN", "zip": "38118", "lat": 35.0687, "lon": -89.898400001, "charter": false, "level": "", "enrollment": 400, "teachers_fte": 26.0}, {"ncessch": "470014801061", "school_name": "Ford Road Elementary", "city": "Memphis", "state": "TN", "zip": "38109", "lat": 35.0576, "lon": -90.079599999, "charter": false, "level": "", "enrollment": 562, "teachers_fte": 28.1700000762939}, {"ncessch": "470014801065", "school_name": "Gardenview Elementary", "city": "Memphis", "state": "TN", "zip": "38116", "lat": 35.0374, "lon": -89.997399999, "charter": false, "level": "", "enrollment": 295, "teachers_fte": 22.5}, {"ncessch": "470014801069", "school_name": "Georgian Hills Middle", "city": "Memphis", "state": "TN", "zip": "38127", "lat": 35.2332000000001, "lon": -89.9961, "charter": false, "level": "", "enrollment": 320, "teachers_fte": 18.6700000762939}, {"ncessch": "470014801074", "school_name": "Grahamwood Elementary", "city": "Memphis", "state": "TN", "zip": "38122", "lat": 35.1498, "lon": -89.9286, "charter": false, "level": "", "enrollment": 861, "teachers_fte": 62.0}, {"ncessch": "470014801080", "school_name": "Hamilton High", "city": "Memphis", "state": "TN", "zip": "38106", "lat": 35.1000949990001, "lon": -90.0170449999999, "charter": false, "level": "", "enrollment": 682, "teachers_fte": 45.3600006103516}, {"ncessch": "470014801083", "school_name": "Havenview Middle", "city": "Memphis", "state": "TN", "zip": "38116", "lat": 35.0091, "lon": -90.0144, "charter": false, "level": "", "enrollment": 676, "teachers_fte": 33.1699981689453}, {"ncessch": "470014801084", "school_name": "Hawkins Mill Elementary", "city": "Memphis", "state": "TN", "zip": "38127", "lat": 35.2428, "lon": -89.9834999999999, "charter": false, "level": "", "enrollment": 295, "teachers_fte": 16.5}, {"ncessch": "470014801088", "school_name": "Idlewild Elementary", "city": "Memphis", "state": "TN", "zip": "38104", "lat": 35.1334000000001, "lon": -89.997, "charter": false, "level": "", "enrollment": 579, "teachers_fte": 38.0}, {"ncessch": "470014801089", "school_name": "Jackson Elementary", "city": "Memphis", "state": "TN", "zip": "38108", "lat": 35.1849710000001, "lon": -89.929458999, "charter": false, "level": "", "enrollment": 281, "teachers_fte": 20.0}, {"ncessch": "470014801092", "school_name": "Kingsbury Elementary", "city": "Memphis", "state": "TN", "zip": "38108", "lat": 35.1688980000001, "lon": -89.9249080009999, "charter": false, "level": "", "enrollment": 502, "teachers_fte": 41.6699981689453}, {"ncessch": "470014801093", "school_name": "Kingsbury High", "city": "Memphis", "state": "TN", "zip": "38122", "lat": 35.166099999, "lon": -89.925300001, "charter": false, "level": "", "enrollment": 1295, "teachers_fte": 59.2799987792969}, {"ncessch": "470014801095", "school_name": "Kingsbury Career Technology Center", "city": "Memphis", "state": "TN", "zip": "38122", "lat": 35.167787, "lon": -89.924348, "charter": false, "level": "", "enrollment": 0, "teachers_fte": 11.0}, {"ncessch": "470014801100", "school_name": "Larose Elementary", "city": "Memphis", "state": "TN", "zip": "38126", "lat": 35.123661, "lon": -90.04805, "charter": false, "level": "", "enrollment": 295, "teachers_fte": 22.5}, {"ncessch": "470014801105", "school_name": "Levi Elementary", "city": "Memphis", "state": "TN", "zip": "38109", "lat": 35.0423999990001, "lon": -90.069, "charter": false, "level": "", "enrollment": 423, "teachers_fte": 31.0}, {"ncessch": "470014801113", "school_name": "Manassas High", "city": "Memphis", "state": "TN", "zip": "38107", "lat": 35.1704, "lon": -90.033, "charter": false, "level": "", "enrollment": 347, "teachers_fte": 25.9200000762939}, {"ncessch": "470014801115", "school_name": "Melrose High", "city": "Memphis", "state": "TN", "zip": "38114", "lat": 35.1057000000001, "lon": -89.966899999, "charter": false, "level": "", "enrollment": 697, "teachers_fte": 48.8499984741211}, {"ncessch": "470014801122", "school_name": "Mitchell High", "city": "Memphis", "state": "TN", "zip": "38109", "lat": 35.0570000000001, "lon": -90.0864999999999, "charter": false, "level": "", "enrollment": 371, "teachers_fte": 21.4400005340576}, {"ncessch": "470014801123", "school_name": "Newberry Elementary", "city": "Memphis", "state": "TN", "zip": "38115", "lat": 35.0538529990001, "lon": -89.878544, "charter": false, "level": "", "enrollment": 403, "teachers_fte": 28.0}, {"ncessch": "470014801126", "school_name": "Oakhaven Elementary", "city": "Memphis", "state": "TN", "zip": "38118", "lat": 35.0449780000001, "lon": -89.958596999, "charter": false, "level": "", "enrollment": 538, "teachers_fte": 33.5}, {"ncessch": "470014801127", "school_name": "Oakhaven High", "city": "Memphis", "state": "TN", "zip": "38118", "lat": 35.0463900010001, "lon": -89.959060999, "charter": false, "level": "", "enrollment": 389, "teachers_fte": 25.4899997711182}, {"ncessch": "470014801128", "school_name": "Oakshire Elementary", "city": "Memphis", "state": "TN", "zip": "38116", "lat": 35.0054000010001, "lon": -90.0048, "charter": false, "level": "", "enrollment": 418, "teachers_fte": 25.0}, {"ncessch": "470014801130", "school_name": "Overton High", "city": "Memphis", "state": "TN", "zip": "38117", "lat": 35.0836, "lon": -89.9043, "charter": false, "level": "", "enrollment": 1422, "teachers_fte": 99.4899978637695}, {"ncessch": "470014801132", "school_name": "Peabody Elementary", "city": "Memphis", "state": "TN", "zip": "38104", "lat": 35.1199, "lon": -89.9926, "charter": false, "level": "", "enrollment": 353, "teachers_fte": 24.6700000762939}, {"ncessch": "470014801137", "school_name": "Raleigh-Bartlett Meadows Elementary", "city": "Memphis", "state": "TN", "zip": "38134", "lat": 35.1954000000001, "lon": -89.890100001, "charter": false, "level": "", "enrollment": 441, "teachers_fte": 30.5}, {"ncessch": "470014801138", "school_name": "Raleigh-Egypt High", "city": "Memphis", "state": "TN", "zip": "38128", "lat": 35.240399999, "lon": -89.9313, "charter": false, "level": "", "enrollment": 714, "teachers_fte": 38.5499992370605}, {"ncessch": "470014801139", "school_name": "Richland Elementary", "city": "Memphis", "state": "TN", "zip": "38120", "lat": 35.1362, "lon": -89.8807, "charter": false, "level": "", "enrollment": 870, "teachers_fte": 57.0}, {"ncessch": "470014801141", "school_name": "Balmoral/Ridgeway Elementary", "city": "Memphis", "state": "TN", "zip": "38119", "lat": 35.0797000000001, "lon": -89.8667, "charter": false, "level": "", "enrollment": 245, "teachers_fte": 22.0}, {"ncessch": "470014801142", "school_name": "Ridgeway High", "city": "Memphis", "state": "TN", "zip": "38119", "lat": 35.0890000000001, "lon": -89.8601, "charter": false, "level": "", "enrollment": 818, "teachers_fte": 53.6800003051758}, {"ncessch": "470014801144", "school_name": "Riverview Elementary/Middle", "city": "Memphis", "state": "TN", "zip": "38109", "lat": 35.0967000000001, "lon": -90.0708999999999, "charter": false, "level": "", "enrollment": 429, "teachers_fte": 27.0}, {"ncessch": "470014801145", "school_name": "Rozelle Elementary", "city": "Memphis", "state": "TN", "zip": "38114", "lat": 35.1189000000001, "lon": -90.009600001, "charter": false, "level": "", "enrollment": 203, "teachers_fte": 23.1700000762939}, {"ncessch": "470014801146", "school_name": "Scenic Hills Elementary", "city": "Memphis", "state": "TN", "zip": "38128", "lat": 35.2046, "lon": -89.9482, "charter": false, "level": "", "enrollment": 292, "teachers_fte": 24.0}, {"ncessch": "470014801151", "school_name": "Sharpe Elementary", "city": "Memphis", "state": "TN", "zip": "38111", "lat": 35.0862000000001, "lon": -89.948600001, "charter": false, "level": "", "enrollment": 315, "teachers_fte": 23.0}, {"ncessch": "470014801152", "school_name": "Sheffield Elementary", "city": "Memphis", "state": "TN", "zip": "38118", "lat": 35.0576, "lon": -89.9207, "charter": false, "level": "", "enrollment": 510, "teachers_fte": 31.5}, {"ncessch": "470014801153", "school_name": "Sheffield High", "city": "Memphis", "state": "TN", "zip": "38118", "lat": 35.0618940000001, "lon": -89.919912, "charter": false, "level": "", "enrollment": 536, "teachers_fte": 26.1100006103516}, {"ncessch": "470014801154", "school_name": "Sheffield Career Technology Center", "city": "Memphis", "state": "TN", "zip": "38118", "lat": 35.057822, "lon": -89.918399, "charter": false, "level": "", "enrollment": 0, "teachers_fte": 4.5}, {"ncessch": "470014801155", "school_name": "Sherwood Elementary", "city": "Memphis", "state": "TN", "zip": "38111", "lat": 35.1004110000001, "lon": -89.939118, "charter": false, "level": "", "enrollment": 558, "teachers_fte": 30.5}, {"ncessch": "470014801156", "school_name": "Sherwood Middle", "city": "Memphis", "state": "TN", "zip": "38111", "lat": 35.0996890000001, "lon": -89.9464, "charter": false, "level": "", "enrollment": 688, "teachers_fte": 45.0}, {"ncessch": "470014801157", "school_name": "Shrine School", "city": "Memphis", "state": "TN", "zip": "38118", "lat": 35.058658, "lon": -89.920633, "charter": false, "level": "", "enrollment": 138, "teachers_fte": 13.0}, {"ncessch": "470014801158", "school_name": "Snowden Elementary/Middle", "city": "Memphis", "state": "TN", "zip": "38112", "lat": 35.1529, "lon": -89.9969, "charter": false, "level": "", "enrollment": 1373, "teachers_fte": 82.3300018310547}, {"ncessch": "470014801159", "school_name": "South Park Elementary", "city": "Memphis", "state": "TN", "zip": "38111", "lat": 35.0838450000001, "lon": -89.930822, "charter": false, "level": "", "enrollment": 518, "teachers_fte": 32.1699981689453}, {"ncessch": "470014801162", "school_name": "Springdale Elementary", "city": "Memphis", "state": "TN", "zip": "38108", "lat": 35.15957, "lon": -89.9753049989999, "charter": false, "level": "", "enrollment": 244, "teachers_fte": 21.0}, {"ncessch": "470014801164", "school_name": "Treadwell Elementary", "city": "Memphis", "state": "TN", "zip": "38122", "lat": 35.1573000000001, "lon": -89.942699999, "charter": false, "level": "", "enrollment": 841, "teachers_fte": 62.1699981689453}, {"ncessch": "470014801166", "school_name": "Trezevant High", "city": "Memphis", "state": "TN", "zip": "38127", "lat": 35.2173660010001, "lon": -89.9779520009999, "charter": false, "level": "", "enrollment": 552, "teachers_fte": 32.0499992370605}, {"ncessch": "470014801169", "school_name": "Vollentine Elementary", "city": "Memphis", "state": "TN", "zip": "38107", "lat": 35.1644170000001, "lon": -90.001254, "charter": false, "level": "", "enrollment": 350, "teachers_fte": 24.2000007629395}, {"ncessch": "470014801171", "school_name": "Wells Station Elementary", "city": "Memphis", "state": "TN", "zip": "38108", "lat": 35.1752970000001, "lon": -89.9163, "charter": false, "level": "", "enrollment": 629, "teachers_fte": 50.0}, {"ncessch": "470014801172", "school_name": "Westside Elementary", "city": "Memphis", "state": "TN", "zip": "38127", "lat": 35.216892, "lon": -90.037272, "charter": false, "level": "", "enrollment": 346, "teachers_fte": 20.0}, {"ncessch": "470014801176", "school_name": "Westwood High", "city": "Memphis", "state": "TN", "zip": "38109", "lat": 35.0265000000001, "lon": -90.0918, "charter": false, "level": "", "enrollment": 319, "teachers_fte": 23.7700004577637}, {"ncessch": "470014801177", "school_name": "White Station Elementary", "city": "Memphis", "state": "TN", "zip": "38117", "lat": 35.1395000000001, "lon": -89.9007999999999, "charter": false, "level": "", "enrollment": 766, "teachers_fte": 43.5}, {"ncessch": "470014801178", "school_name": "White Station High", "city": "Memphis", "state": "TN", "zip": "38117", "lat": 35.118525, "lon": -89.9060449999999, "charter": false, "level": "", "enrollment": 1840, "teachers_fte": 108.709999084473}, {"ncessch": "470014801180", "school_name": "Whitehaven Elementary", "city": "Memphis", "state": "TN", "zip": "38116", "lat": 35.0182, "lon": -90.0257, "charter": false, "level": "", "enrollment": 460, "teachers_fte": 25.0}, {"ncessch": "470014801181", "school_name": "Whitehaven High", "city": "Memphis", "state": "TN", "zip": "38116", "lat": 35.015999999, "lon": -90.026, "charter": false, "level": "", "enrollment": 1587, "teachers_fte": 94.6500015258789}, {"ncessch": "470014801184", "school_name": "Willow Oaks Elementary", "city": "Memphis", "state": "TN", "zip": "38117", "lat": 35.0852, "lon": -89.915, "charter": false, "level": "", "enrollment": 648, "teachers_fte": null}, {"ncessch": "470014801185", "school_name": "Winchester Elementary", "city": "Memphis", "state": "TN", "zip": "38116", "lat": 35.0513, "lon": -89.9971, "charter": false, "level": "", "enrollment": 422, "teachers_fte": 29.0}, {"ncessch": "470014801186", "school_name": "Wooddale High", "city": "Memphis", "state": "TN", "zip": "38118", "lat": 35.0570200000001, "lon": -89.8918639999999, "charter": false, "level": "", "enrollment": 651, "teachers_fte": 29.9899997711182}, {"ncessch": "470014801565", "school_name": "Fox Meadows Elementary", "city": "Memphis", "state": "TN", "zip": "38115", "lat": 35.0681000010001, "lon": -89.8796, "charter": false, "level": "", "enrollment": 506, "teachers_fte": 32.0}, {"ncessch": "470014801568", "school_name": "Barret's Chapel Elementary/Middle", "city": "Arlington", "state": "TN", "zip": "38002", "lat": 35.3488, "lon": -89.719500001, "charter": false, "level": "", "enrollment": 365, "teachers_fte": 31.5}, {"ncessch": "470014801571", "school_name": "Bolton High", "city": "Arlington", "state": "TN", "zip": "38002", "lat": 35.3262, "lon": -89.7612, "charter": false, "level": "", "enrollment": 710, "teachers_fte": 41.6500015258789}, {"ncessch": "470014801577", "school_name": "E.E. Jeter Elementary/Middle", "city": "Millington", "state": "TN", "zip": "38053", "lat": 35.331800001, "lon": -90.0296, "charter": false, "level": "", "enrollment": 366, "teachers_fte": 28.25}, {"ncessch": "470014801581", "school_name": "Germantown Elementary", "city": "Germantown", "state": "TN", "zip": "38138", "lat": 35.0734, "lon": -89.8019, "charter": false, "level": "", "enrollment": 625, "teachers_fte": 45.25}, {"ncessch": "470014801582", "school_name": "Germantown High", "city": "Germantown", "state": "TN", "zip": "38138", "lat": 35.0822880000001, "lon": -89.8076149999999, "charter": false, "level": "", "enrollment": 1806, "teachers_fte": 108.540000915527}, {"ncessch": "470014801583", "school_name": "Germantown Middle", "city": "Germantown", "state": "TN", "zip": "38138", "lat": 35.0734, "lon": -89.7997, "charter": false, "level": "", "enrollment": 734, "teachers_fte": 46.2999992370605}, {"ncessch": "470014801584", "school_name": "Lucy Elementary", "city": "Millington", "state": "TN", "zip": "38053", "lat": 35.297109001, "lon": -89.926563, "charter": false, "level": "", "enrollment": 328, "teachers_fte": 25.1700000762939}, {"ncessch": "470014801590", "school_name": "Mt. Pisgah Middle/High", "city": "Cordova", "state": "TN", "zip": "38016", "lat": 35.165516, "lon": -89.710401, "charter": false, "level": "", "enrollment": 586, "teachers_fte": 25.0699996948242}, {"ncessch": "470014801592", "school_name": "Ross Elementary", "city": "Memphis", "state": "TN", "zip": "38141", "lat": 35.0154000000001, "lon": -89.838, "charter": false, "level": "", "enrollment": 665, "teachers_fte": 31.5}, {"ncessch": "470014801595", "school_name": "Woodstock Middle School", "city": "Millington", "state": "TN", "zip": "38053", "lat": 35.2871000000001, "lon": -89.9759, "charter": false, "level": "", "enrollment": 229, "teachers_fte": 22.25}, {"ncessch": "470014801597", "school_name": "Germanshire Elementary", "city": "Germantown", "state": "TN", "zip": "38125", "lat": 35.0405000000001, "lon": -89.8267999989999, "charter": false, "level": "", "enrollment": 764, "teachers_fte": 41.1699981689453}, {"ncessch": "470014801605", "school_name": "Getwell Elementary", "city": "Memphis", "state": "TN", "zip": "38118", "lat": 35.0725, "lon": -89.9338, "charter": false, "level": "", "enrollment": 514, "teachers_fte": 32.0}, {"ncessch": "470014801606", "school_name": "Hickory Ridge Elementary", "city": "Memphis", "state": "TN", "zip": "38115", "lat": 35.0418000000001, "lon": -89.8650000009999, "charter": false, "level": "", "enrollment": 670, "teachers_fte": 42.5}, {"ncessch": "470014801615", "school_name": "Hickory Ridge Middle", "city": "Memphis", "state": "TN", "zip": "38115", "lat": 35.0426, "lon": -89.8554, "charter": false, "level": "", "enrollment": 803, "teachers_fte": 47.1699981689453}, {"ncessch": "470014801616", "school_name": "Holmes Road Elementary", "city": "Memphis", "state": "TN", "zip": "38116", "lat": 35.005500001, "lon": -90.0300999999999, "charter": false, "level": "", "enrollment": 713, "teachers_fte": 38.0}, {"ncessch": "470014801625", "school_name": "Ridgeway Middle", "city": "Memphis", "state": "TN", "zip": "38119", "lat": 35.0783000010001, "lon": -89.852500001, "charter": false, "level": "", "enrollment": 620, "teachers_fte": 33.6699981689453}, {"ncessch": "470014801626", "school_name": "Robert R. Church Elementary", "city": "Memphis", "state": "TN", "zip": "38116", "lat": 35.0373280000001, "lon": -90.005264, "charter": false, "level": "", "enrollment": 645, "teachers_fte": 33.5}, {"ncessch": "470014801627", "school_name": "Winridge Elementary", "city": "Memphis", "state": "TN", "zip": "38115", "lat": 35.0520000000001, "lon": -89.8559999999999, "charter": false, "level": "", "enrollment": 486, "teachers_fte": 28.6700000762939}, {"ncessch": "470014801853", "school_name": "Southwest Career Technology Center", "city": "Memphis", "state": "TN", "zip": "38109", "lat": 35.0462680000001, "lon": -90.067896, "charter": false, "level": "", "enrollment": 0, "teachers_fte": 6.5}, {"ncessch": "470014801854", "school_name": "Trezevant Career and Technology Center", "city": "Memphis", "state": "TN", "zip": "38127", "lat": 35.2138160000001, "lon": -89.973693, "charter": false, "level": "", "enrollment": 0, "teachers_fte": 10.0}, {"ncessch": "470014801857", "school_name": "Crump Elementary", "city": "Memphis", "state": "TN", "zip": "38141", "lat": 35.0282000010001, "lon": -89.8606, "charter": false, "level": "", "enrollment": 595, "teachers_fte": 35.1699981689453}, {"ncessch": "470014801859", "school_name": "Kirby High", "city": "Memphis", "state": "TN", "zip": "38115", "lat": 35.0376000000001, "lon": -89.8463, "charter": false, "level": "", "enrollment": 835, "teachers_fte": 49.4000015258789}, {"ncessch": "470014801860", "school_name": "Northaven Elementary", "city": "Memphis", "state": "TN", "zip": "38127", "lat": 35.2653, "lon": -90.0423, "charter": false, "level": "", "enrollment": 303, "teachers_fte": 21.0}, {"ncessch": "470014801907", "school_name": "Dexter School", "city": "Cordova", "state": "TN", "zip": "38016", "lat": 35.1671000000001, "lon": -89.8256, "charter": false, "level": "", "enrollment": 1513, "teachers_fte": 80.3300018310547}, {"ncessch": "470014801911", "school_name": "Cordova Elementary", "city": "Cordova", "state": "TN", "zip": "38018", "lat": 35.14624, "lon": -89.7689369999999, "charter": false, "level": "", "enrollment": 818, "teachers_fte": 47.25}, {"ncessch": "470014801927", "school_name": "Craigmont Middle", "city": "Memphis", "state": "TN", "zip": "38128", "lat": 35.220199999, "lon": -89.8953, "charter": false, "level": "", "enrollment": 485, "teachers_fte": 34.8300018310547}, {"ncessch": "470014801928", "school_name": "KIPP Memphis Collegiate Middle", "city": "Memphis", "state": "TN", "zip": "38107", "lat": 35.1668599990001, "lon": -90.040048, "charter": true, "level": "", "enrollment": 211, "teachers_fte": 20.0}, {"ncessch": "470014801939", "school_name": "A. Maceo Walker Middle", "city": "Memphis", "state": "TN", "zip": "38116", "lat": 35.0365, "lon": -90.0011, "charter": false, "level": "", "enrollment": 729, "teachers_fte": 43.25}, {"ncessch": "470014801960", "school_name": "White Station Middle", "city": "Memphis", "state": "TN", "zip": "38120", "lat": 35.1391, "lon": -89.8803, "charter": false, "level": "", "enrollment": 1099, "teachers_fte": 70.0500030517578}, {"ncessch": "470014801972", "school_name": "Dunbar Elementary", "city": "Memphis", "state": "TN", "zip": "38114", "lat": 35.106723, "lon": -89.975408, "charter": false, "level": "", "enrollment": 201, "teachers_fte": 10.5}, {"ncessch": "470014801974", "school_name": "Middle College High", "city": "Memphis", "state": "TN", "zip": "38104", "lat": 35.1252000000001, "lon": -89.9820999999999, "charter": false, "level": "", "enrollment": 311, "teachers_fte": 19.1000003814697}, {"ncessch": "470014801983", "school_name": "J. P. Freeman Elementary/Middle", "city": "Memphis", "state": "TN", "zip": "38109", "lat": 35.004199999, "lon": -90.0418, "charter": false, "level": "", "enrollment": 548, "teachers_fte": 34.1100006103516}, {"ncessch": "470014802017", "school_name": "Chimneyrock Elementary School", "city": "Cordova", "state": "TN", "zip": "38016", "lat": 35.176900001, "lon": -89.7762, "charter": false, "level": "", "enrollment": 884, "teachers_fte": 59.0}, {"ncessch": "470014802019", "school_name": "Southwind Elementary", "city": "Memphis", "state": "TN", "zip": "38125", "lat": 35.0264, "lon": -89.7913, "charter": false, "level": "", "enrollment": 686, "teachers_fte": 43.5}, {"ncessch": "470014802025", "school_name": "Keystone Elementary", "city": "Memphis", "state": "TN", "zip": "38128", "lat": 35.2431, "lon": -89.9526999999999, "charter": false, "level": "", "enrollment": 526, "teachers_fte": 33.5}, {"ncessch": "470014802026", "school_name": "Sea Isle Elementary", "city": "Memphis", "state": "TN", "zip": "38117", "lat": 35.095, "lon": -89.888400001, "charter": false, "level": "", "enrollment": 492, "teachers_fte": 28.5}, {"ncessch": "470014802040", "school_name": "American Way Middle", "city": "Memphis", "state": "TN", "zip": "38118", "lat": 35.0755, "lon": -89.936200001, "charter": false, "level": "", "enrollment": 690, "teachers_fte": 41.75}, {"ncessch": "470014802041", "school_name": "Downtown Elementary", "city": "Memphis", "state": "TN", "zip": "38103", "lat": 35.1441, "lon": -90.0470999999999, "charter": false, "level": "", "enrollment": 718, "teachers_fte": 38.0}, {"ncessch": "470014802043", "school_name": "Lucie E. Campbell Elementary", "city": "Memphis", "state": "TN", "zip": "38127", "lat": 35.2143, "lon": -89.969199999, "charter": false, "level": "", "enrollment": 600, "teachers_fte": 30.0}, {"ncessch": "470014802044", "school_name": "Circles Of Success Learning Academy", "city": "Memphis", "state": "TN", "zip": "38106", "lat": 35.1080000010001, "lon": -90.033200001, "charter": true, "level": "", "enrollment": 217, "teachers_fte": 16.8299999237061}, {"ncessch": "470014802045", "school_name": "Memphis Academy Of Science Engineering Middle/High", "city": "Memphis", "state": "TN", "zip": "38104", "lat": 35.1431830000001, "lon": -90.019282999, "charter": true, "level": "", "enrollment": 593, "teachers_fte": 51.2400016784668}, {"ncessch": "470014802079", "school_name": "Kate Bond Elementary School", "city": "Bartlett", "state": "TN", "zip": "38133", "lat": 35.1994350000001, "lon": -89.804113, "charter": false, "level": "", "enrollment": 770, "teachers_fte": 59.5}, {"ncessch": "470014802080", "school_name": "Cordova High School", "city": "Cordova", "state": "TN", "zip": "38016", "lat": 35.1743000000001, "lon": -89.754299999, "charter": false, "level": "", "enrollment": 2110, "teachers_fte": 102.26000213623}, {"ncessch": "470014802081", "school_name": "Hollis F. Price Middle College", "city": "Memphis", "state": "TN", "zip": "38126", "lat": 35.118627001, "lon": -90.03489, "charter": false, "level": "", "enrollment": 79, "teachers_fte": 12.1800003051758}, {"ncessch": "470014802083", "school_name": "City University School Of Liberal Arts", "city": "Memphis", "state": "TN", "zip": "38106", "lat": 35.0188170000001, "lon": -90.015399999, "charter": true, "level": "", "enrollment": 227, "teachers_fte": 10.4700002670288}, {"ncessch": "470014802084", "school_name": "Memphis Business Academy Middle", "city": "Memphis", "state": "TN", "zip": "38134", "lat": 35.215650001, "lon": -89.993129, "charter": true, "level": "", "enrollment": 390, "teachers_fte": 35.2799987792969}, {"ncessch": "470014802085", "school_name": "Promise Academy", "city": "Memphis", "state": "TN", "zip": "38108", "lat": 35.1727000000001, "lon": -89.9737, "charter": true, "level": "", "enrollment": 304, "teachers_fte": 14.5}, {"ncessch": "470014802086", "school_name": "Southern Avenue Charter School Of Academic Excellence Creati", "city": "Memphis", "state": "TN", "zip": "38132", "lat": 35.068316001, "lon": -89.9900039999999, "charter": true, "level": "", "enrollment": 337, "teachers_fte": 33.1699981689453}, {"ncessch": "470014802087", "school_name": "Star Academy", "city": "Memphis", "state": "TN", "zip": "38108", "lat": 35.200407, "lon": -89.9549519999999, "charter": true, "level": "", "enrollment": 285, "teachers_fte": 9.0}, {"ncessch": "470014802088", "school_name": "Soulsville Charter School", "city": "Memphis", "state": "TN", "zip": "38106", "lat": 35.1164370000001, "lon": -90.032371999, "charter": true, "level": "", "enrollment": 651, "teachers_fte": 55.8300018310547}, {"ncessch": "470014802112", "school_name": "William Herbert Brewster Elementary School", "city": "Memphis", "state": "TN", "zip": "38112", "lat": 35.1458000000001, "lon": -89.9731, "charter": false, "level": "", "enrollment": 479, "teachers_fte": 37.5}, {"ncessch": "470014802126", "school_name": "Kingsbury Middle", "city": "Memphis", "state": "TN", "zip": "38122", "lat": 35.166844999, "lon": -89.925691001, "charter": false, "level": "", "enrollment": 556, "teachers_fte": 41.6699981689453}, {"ncessch": "470014802137", "school_name": "Southwind High", "city": "Memphis", "state": "TN", "zip": "38125", "lat": 35.0234, "lon": -89.8002999999999, "charter": false, "level": "", "enrollment": 1507, "teachers_fte": 63.3499984741211}, {"ncessch": "470014802148", "school_name": "Oakhaven Middle", "city": "Memphis", "state": "TN", "zip": "38108", "lat": 35.0462350010001, "lon": -89.9596979999999, "charter": false, "level": "", "enrollment": 291, "teachers_fte": 13.6700000762939}, {"ncessch": "470014802150", "school_name": "Douglass High", "city": "Memphis", "state": "TN", "zip": "38108", "lat": 35.1755000000001, "lon": -89.9521, "charter": false, "level": "", "enrollment": 657, "teachers_fte": 38.5200004577637}, {"ncessch": "470014802171", "school_name": "Power Center Academy Middle", "city": "Memphis", "state": "TN", "zip": "38115", "lat": 35.0495680000001, "lon": -89.8823389999999, "charter": true, "level": "", "enrollment": 450, "teachers_fte": 15.8299999237061}, {"ncessch": "470014802172", "school_name": "Primary Prepatory", "city": "Memphis", "state": "TN", "zip": "38127", "lat": 35.215017, "lon": -89.9749219999999, "charter": false, "level": "", "enrollment": 0, "teachers_fte": null}, {"ncessch": "470014802177", "school_name": "Early Childhood Programs", "city": "Memphis", "state": "TN", "zip": "38112", "lat": 35.153466, "lon": -90.045355999, "charter": false, "level": "", "enrollment": 1152, "teachers_fte": 15.0}, {"ncessch": "470014802178", "school_name": "Memphis Business Academy High School", "city": "Memphis", "state": "TN", "zip": "38127", "lat": 35.2149000000001, "lon": -89.9929, "charter": true, "level": "", "enrollment": 510, "teachers_fte": 34.5}, {"ncessch": "470014802184", "school_name": "Campus Kids Corner", "city": "Memphis", "state": "TN", "zip": "38134", "lat": 35.1625310000001, "lon": -89.8661569989999, "charter": false, "level": "", "enrollment": 0, "teachers_fte": null}, {"ncessch": "470014802188", "school_name": "Northwest Prep Academy", "city": "Memphis", "state": "TN", "zip": "38118", "lat": 35.079029, "lon": -89.976056, "charter": false, "level": "", "enrollment": 175, "teachers_fte": 19.5200004577637}, {"ncessch": "470014802199", "school_name": "Highland Oaks Middle", "city": "Memphis", "state": "TN", "zip": "38125", "lat": 34.995735, "lon": -89.810888999, "charter": false, "level": "", "enrollment": 589, "teachers_fte": 33.6699981689453}, {"ncessch": "470014802200", "school_name": "Lowrance Elementary/Middle", "city": "Memphis", "state": "TN", "zip": "38125", "lat": 35.0364000000001, "lon": -89.805699999, "charter": false, "level": "", "enrollment": 948, "teachers_fte": 57.8600006103516}, {"ncessch": "470014802208", "school_name": "Freedom Preparatory Academy Flagship", "city": "Memphis", "state": "TN", "zip": "38109", "lat": 35.0088000000001, "lon": -90.0739, "charter": true, "level": "", "enrollment": 830, "teachers_fte": 45.0}, {"ncessch": "470014802210", "school_name": "Ridgeway Early Learning Center", "city": "Memphis", "state": "TN", "zip": "38115", "lat": 35.0539880000001, "lon": -89.8580719999999, "charter": false, "level": "", "enrollment": 136, "teachers_fte": 10.0}, {"ncessch": "470014802217", "school_name": "Treadwell Middle School", "city": "Memphis", "state": "TN", "zip": "38122", "lat": 35.1579, "lon": -89.9437, "charter": false, "level": "", "enrollment": 621, "teachers_fte": 36.0}, {"ncessch": "470014802236", "school_name": "Riverwood Elementary School", "city": "Cordova", "state": "TN", "zip": "38016", "lat": 35.1614890000001, "lon": -89.77572, "charter": false, "level": "", "enrollment": 943, "teachers_fte": 59.1699981689453}, {"ncessch": "470014802245", "school_name": "Memphis School of Excellence", "city": "Memphis", "state": "TN", "zip": "38118", "lat": 35.0491450000001, "lon": -89.898467, "charter": true, "level": "", "enrollment": 526, "teachers_fte": 41.8300018310547}, {"ncessch": "470014802248", "school_name": "Veritas College Preparatory", "city": "Memphis", "state": "TN", "zip": "38106", "lat": 35.0931330000001, "lon": -90.012933, "charter": true, "level": "", "enrollment": 144, "teachers_fte": 11.0}, {"ncessch": "470014802250", "school_name": "Memphis College Preparatory", "city": "Memphis", "state": "TN", "zip": "38106", "lat": 35.0931330000001, "lon": -90.012933, "charter": true, "level": "", "enrollment": 256, "teachers_fte": 16.8299999237061}, {"ncessch": "470014802270", "school_name": "Power Center Academy High School", "city": "Memphis", "state": "TN", "zip": "38115", "lat": 35.0530390000001, "lon": -89.883889, "charter": true, "level": "", "enrollment": 706, "teachers_fte": 37.5}, {"ncessch": "470014802271", "school_name": "Memphis Virtual School", "city": "Memphis", "state": "TN", "zip": "38118", "lat": 35.060253, "lon": -89.911159001, "charter": false, "level": "", "enrollment": 486, "teachers_fte": 58.1199989318848}, {"ncessch": "470014802272", "school_name": "Kate Bond Middle School", "city": "Memphis", "state": "TN", "zip": "38133", "lat": 35.199500001, "lon": -89.8061, "charter": false, "level": "", "enrollment": 1009, "teachers_fte": 61.8300018310547}, {"ncessch": "470014802273", "school_name": "KIPP Memphis Collegiate High School", "city": "Memphis", "state": "TN", "zip": "38108", "lat": 35.16724, "lon": -89.9879329999999, "charter": true, "level": "", "enrollment": 466, "teachers_fte": 31.5499992370605}, {"ncessch": "470014802274", "school_name": "Memphis Business Academy Elementary School", "city": "Memphis", "state": "TN", "zip": "38127", "lat": 35.160758, "lon": -89.910068, "charter": true, "level": "", "enrollment": 271, "teachers_fte": 22.8299999237061}, {"ncessch": "470014802287", "school_name": "Grandview Heights Middle School", "city": "Memphis", "state": "TN", "zip": "38127", "lat": 35.2074000000001, "lon": -89.9859, "charter": false, "level": "", "enrollment": 390, "teachers_fte": 20.5}, {"ncessch": "470014802296", "school_name": "KIPP Memphis Collegiate Elementary", "city": "Memphis", "state": "TN", "zip": "38107", "lat": 35.1664260000001, "lon": -90.040443, "charter": true, "level": "", "enrollment": 536, "teachers_fte": 17.8299999237061}, {"ncessch": "470014802299", "school_name": "KIPP Memphis Academy Middle", "city": "Memphis", "state": "TN", "zip": "38108", "lat": 35.167673, "lon": -89.988018999, "charter": true, "level": "", "enrollment": 228, "teachers_fte": 21.8299999237061}, {"ncessch": "470014802300", "school_name": "Memphis Grizzlies Preparatory Charter School", "city": "Memphis", "state": "TN", "zip": "38103", "lat": 35.146843, "lon": -90.049734001, "charter": true, "level": "", "enrollment": 347, "teachers_fte": 23.5}, {"ncessch": "470014802316", "school_name": "Nat Burning Orange Mound Day Nursery Learning Inc.", "city": "Memphis", "state": "TN", "zip": "38114", "lat": 35.1089000000001, "lon": -89.9818999999999, "charter": false, "level": "", "enrollment": 0, "teachers_fte": null}, {"ncessch": "470014802317", "school_name": "Arrow Academy of Excellence", "city": "Memphis", "state": "TN", "zip": "38111", "lat": 35.1143000000001, "lon": -89.961399999, "charter": true, "level": "", "enrollment": 98, "teachers_fte": 5.0}, {"ncessch": "470014802326", "school_name": "Belle Forest Community School", "city": "Memphis", "state": "TN", "zip": "38115", "lat": 35.062826, "lon": -89.858017, "charter": false, "level": "", "enrollment": 1002, "teachers_fte": 59.6699981689453}, {"ncessch": "470014802333", "school_name": "Bluebird Learning Center", "city": "Memphis", "state": "TN", "zip": "38116", "lat": 35.116583, "lon": -90.0211929989999, "charter": false, "level": "", "enrollment": 0, "teachers_fte": null}, {"ncessch": "470014802335", "school_name": "Memphis Learning Academy", "city": "Memphis", "state": "TN", "zip": "38104", "lat": 35.143200001, "lon": -90.0119, "charter": false, "level": "", "enrollment": 0, "teachers_fte": null}, {"ncessch": "470014802340", "school_name": "Kids School Early Childhood Development Center", "city": "Memphis", "state": "TN", "zip": "38107", "lat": 35.1722760000001, "lon": -90.035626, "charter": false, "level": "", "enrollment": 0, "teachers_fte": null}, {"ncessch": "470014802342", "school_name": "Ernestine Rivers Child Care Center", "city": "Memphis", "state": "TN", "zip": "38106", "lat": 35.1080000010001, "lon": -90.033200001, "charter": false, "level": "", "enrollment": 0, "teachers_fte": null}, {"ncessch": "470014802348", "school_name": "Jessie Mahan Day Care Center", "city": "Memphi", "state": "TN", "zip": "38106", "lat": 35.141308001, "lon": -90.020569, "charter": false, "level": "", "enrollment": 0, "teachers_fte": null}, {"ncessch": "470014802350", "school_name": "Hooks Dimmick Child Care Center", "city": "Memphis", "state": "TN", "zip": "38118", "lat": 35.062636001, "lon": -89.897951, "charter": false, "level": "", "enrollment": 0, "teachers_fte": null}, {"ncessch": "470014802352", "school_name": "City University School Girls Preparatory", "city": "Memphis", "state": "TN", "zip": "38116", "lat": 35.0188170000001, "lon": -90.015399999, "charter": true, "level": "", "enrollment": 86, "teachers_fte": 9.67000007629395}, {"ncessch": "470014802354", "school_name": "Early Childhood Education", "city": "Memphis", "state": "TN", "zip": "38104", "lat": 35.137551, "lon": -90.036504, "charter": false, "level": "", "enrollment": 0, "teachers_fte": null}, {"ncessch": "470014802358", "school_name": "Horn Lake Road Learning Center", "city": "Memphis", "state": "TN", "zip": "38109", "lat": 35.0487150000001, "lon": -90.069734999, "charter": false, "level": "", "enrollment": 0, "teachers_fte": null}, {"ncessch": "470014802379", "school_name": "Maxine Smith STEAM Academy", "city": "Memphis", "state": "TN", "zip": "38104", "lat": 35.1252000000001, "lon": -89.9823000009999, "charter": false, "level": "", "enrollment": 364, "teachers_fte": 26.0}, {"ncessch": "470014802390", "school_name": "Vision Preparatory Charter School", "city": "Memphis", "state": "TN", "zip": "38109", "lat": 35.0949830000001, "lon": -90.07176, "charter": true, "level": "", "enrollment": 393, "teachers_fte": 26.5}, {"ncessch": "470014802400", "school_name": "City University School of Independence", "city": "Memphis", "state": "TN", "zip": "38116", "lat": 35.0188170000001, "lon": -90.015399999, "charter": true, "level": "", "enrollment": 14, "teachers_fte": 5.32000017166138}, {"ncessch": "470014802418", "school_name": "Memphis Rise Academy", "city": "Memphis", "state": "TN", "zip": "38134", "lat": 35.1890719990001, "lon": -89.8900389999999, "charter": true, "level": "", "enrollment": 766, "teachers_fte": 50.1699981689453}, {"ncessch": "470014802429", "school_name": "Power Center Academy Elementary School", "city": "Memphis", "state": "TN", "zip": "38115", "lat": 35.0523650000001, "lon": -89.883060001, "charter": true, "level": "", "enrollment": 720, "teachers_fte": 43.0}, {"ncessch": "470014802430", "school_name": "Exceptional Children Special Placements", "city": "Memphis", "state": "TN", "zip": "38112", "lat": 35.1301330000001, "lon": -89.9756619999999, "charter": false, "level": "", "enrollment": 511, "teachers_fte": null}, {"ncessch": "470014802443", "school_name": "The Excel Center", "city": "Memphis", "state": "TN", "zip": "38106", "lat": 35.083508001, "lon": -90.013246, "charter": false, "level": "", "enrollment": 450, "teachers_fte": 11.0299997329712}, {"ncessch": "470014802452", "school_name": "Granville T. Woods Academy of Innovation Charter School", "city": "Memphis", "state": "TN", "zip": "38128", "lat": 35.229903001, "lon": -89.898635, "charter": true, "level": "", "enrollment": 377, "teachers_fte": 19.1700000762939}, {"ncessch": "470014802459", "school_name": "Memphis STEM Academy", "city": "Memphis", "state": "TN", "zip": "38127", "lat": 35.2182310000001, "lon": -89.990958, "charter": true, "level": "", "enrollment": 219, "teachers_fte": 16.5}, {"ncessch": "470014802465", "school_name": "Journey East Academy", "city": "Memphis", "state": "TN", "zip": "38115", "lat": 35.0506109990001, "lon": -89.834246, "charter": true, "level": "", "enrollment": 347, "teachers_fte": 19.5}, {"ncessch": "470014802467", "school_name": "Memphis Delta Preparatory", "city": "Memphis", "state": "TN", "zip": "38106", "lat": 35.1130230000001, "lon": -90.0309139999999, "charter": true, "level": "", "enrollment": 397, "teachers_fte": 25.0}, {"ncessch": "470014802470", "school_name": "Westhaven Elementary", "city": "Memphis", "state": "TN", "zip": "38109", "lat": 35.023691, "lon": -90.049892001, "charter": false, "level": "", "enrollment": 762, "teachers_fte": 38.3300018310547}, {"ncessch": "470014802471", "school_name": "Freedom Prep Elementary - Millbranch", "city": "Memphis", "state": "TN", "zip": "38116", "lat": 35.046339001, "lon": -90.005888, "charter": true, "level": "", "enrollment": 551, "teachers_fte": 35.5}, {"ncessch": "470014802474", "school_name": "Power Center Academy Middle - Southeast", "city": "Memphis", "state": "TN", "zip": "38125", "lat": 35.021441, "lon": -89.791207, "charter": true, "level": "", "enrollment": 240, "teachers_fte": 18.0}, {"ncessch": "470014802481", "school_name": "Power Center Academy Elementary - Southeast", "city": "Memphis", "state": "TN", "zip": "38125", "lat": 35.021441, "lon": -89.791207, "charter": true, "level": "", "enrollment": 415, "teachers_fte": 22.8299999237061}, {"ncessch": "470014802485", "school_name": "Memphis School of Excellence Elementary", "city": "Memphis", "state": "TN", "zip": "38141", "lat": 35.027098, "lon": -89.8810359999999, "charter": true, "level": "", "enrollment": 415, "teachers_fte": 21.6700000762939}, {"ncessch": "470014802489", "school_name": "Believe Memphis Academy Charter School", "city": "Memphis", "state": "TN", "zip": "38106", "lat": 35.084394, "lon": -90.015787, "charter": true, "level": "", "enrollment": 317, "teachers_fte": 17.0}, {"ncessch": "470014802499", "school_name": "Geeter School", "city": "Memphis", "state": "TN", "zip": "38109", "lat": 35.0217180000001, "lon": -90.069067999, "charter": false, "level": "", "enrollment": 604, "teachers_fte": 44.0}, {"ncessch": "470014802531", "school_name": "Memphis Business Academy Hickory Hill Elementary School", "city": "Memphis", "state": "TN", "zip": "38125", "lat": 35.0271490000001, "lon": -89.8226999999999, "charter": true, "level": "", "enrollment": 95, "teachers_fte": 12.8299999237061}, {"ncessch": "470014802539", "school_name": "Memphis Business Academy Hickory Hill Middle School", "city": "Memphis", "state": "TN", "zip": "38125", "lat": 35.0271490000001, "lon": -89.8226999999999, "charter": true, "level": "", "enrollment": 51, "teachers_fte": 7.59999990463257}, {"ncessch": "470014802544", "school_name": "Perea Elementary School", "city": "Memphis", "state": "TN", "zip": "38107", "lat": 35.1654810000001, "lon": -90.0147049999999, "charter": true, "level": "", "enrollment": 260, "teachers_fte": 16.1700000762939}, {"ncessch": "470014802548", "school_name": "Crosstown High School", "city": "Memphis", "state": "TN", "zip": "38104", "lat": 35.152471, "lon": -90.0132859999999, "charter": true, "level": "", "enrollment": 473, "teachers_fte": 40.7400016784668}, {"ncessch": "470014802565", "school_name": "Freedom Prep Middle - Brownlee", "city": "Memphis", "state": "TN", "zip": "38116", "lat": 35.032022001, "lon": -90.0365859999999, "charter": true, "level": "", "enrollment": 339, "teachers_fte": 17.0}, {"ncessch": "470014802582", "school_name": "Compass Community School Orange Mound Campus", "city": "Memphis", "state": "TN", "zip": "38114", "lat": 35.0977760000001, "lon": -89.97196, "charter": true, "level": "", "enrollment": 200, "teachers_fte": 18.4200000762939}, {"ncessch": "470014802585", "school_name": "Compass Community School Berclair Campus", "city": "Memphis", "state": "TN", "zip": "38122", "lat": 35.1475330000001, "lon": -89.9317809999999, "charter": true, "level": "", "enrollment": 231, "teachers_fte": 21.0}, {"ncessch": "470014802588", "school_name": "Memphis Merit Academy", "city": "Memphis", "state": "TN", "zip": "38118", "lat": 35.0729230000001, "lon": -89.903993, "charter": true, "level": "", "enrollment": 291, "teachers_fte": 7.0}, {"ncessch": "470014802589", "school_name": "Compass Community School Binghampton Campus", "city": "Memphis", "state": "TN", "zip": "38112", "lat": 35.1437460000001, "lon": -89.975624, "charter": true, "level": "", "enrollment": 207, "teachers_fte": 17.0}, {"ncessch": "470014802590", "school_name": "University Middle", "city": "Memphis", "state": "TN", "zip": "38152", "lat": 35.1224720010001, "lon": -89.9389429999999, "charter": false, "level": "", "enrollment": 271, "teachers_fte": 18.6700000762939}, {"ncessch": "470014802594", "school_name": "Compass Community School Hickory Hill Campus", "city": "Memphis", "state": "TN", "zip": "38115", "lat": 35.0519550000001, "lon": -89.8801300009999, "charter": true, "level": "", "enrollment": 255, "teachers_fte": 20.0}, {"ncessch": "470014802601", "school_name": "Raleigh Egypt Middle School", "city": "Memphis", "state": "TN", "zip": "38128", "lat": 35.240712, "lon": -89.930181999, "charter": false, "level": "", "enrollment": 490, "teachers_fte": 27.8299999237061}, {"ncessch": "470014802605", "school_name": "Compass Community School Frayser Campus", "city": "Memphis", "state": "TN", "zip": "38127", "lat": 35.2266060000001, "lon": -90.021263, "charter": true, "level": "", "enrollment": 210, "teachers_fte": 17.0}, {"ncessch": "470014802609", "school_name": "Hamilton School", "city": "Memphis", "state": "TN", "zip": "38106", "lat": 35.105695, "lon": -90.0179689999999, "charter": false, "level": "", "enrollment": 652, "teachers_fte": 24.2999992370605}, {"ncessch": "470014802611", "school_name": "Compass Community School Midtown Campus", "city": "Memphis", "state": "TN", "zip": "38104", "lat": 35.1398130000001, "lon": -89.999986, "charter": true, "level": "", "enrollment": 331, "teachers_fte": 26.7299995422363}, {"ncessch": "470014802630", "school_name": "Alcy Elementary", "city": "Memphis", "state": "TN", "zip": "38114", "lat": 35.078827, "lon": -90.004144001, "charter": false, "level": "", "enrollment": 661, "teachers_fte": 45.0}, {"ncessch": "470014802631", "school_name": "Parkway Village Elementary", "city": "Memphis", "state": "TN", "zip": "38118", "lat": 35.066913001, "lon": -89.924501, "charter": false, "level": "", "enrollment": 828, "teachers_fte": 63.0}, {"ncessch": "470014802632", "school_name": "Aurora Collegiate Academy", "city": "Memphis", "state": "TN", "zip": "38122", "lat": 35.1481190000001, "lon": -89.8997219999999, "charter": true, "level": "", "enrollment": 324, "teachers_fte": 1.0}, {"ncessch": "470014802633", "school_name": "Leadership Preparatory Charter School", "city": "Memphis", "state": "TN", "zip": "38111", "lat": 35.085183, "lon": -89.922385, "charter": true, "level": "", "enrollment": 419, "teachers_fte": 27.2999992370605}, {"ncessch": "470014802634", "school_name": "Memphis School of Excellence Elementary Cordova", "city": "Cordova", "state": "TN", "zip": "38018", "lat": 35.157118, "lon": -89.784196, "charter": true, "level": "", "enrollment": 309, "teachers_fte": 16.0}, {"ncessch": "470014802635", "school_name": "Beacon College Preparatory", "city": "Memphis", "state": "TN", "zip": "38134", "lat": 35.1914380000001, "lon": -89.89167, "charter": true, "level": "", "enrollment": 206, "teachers_fte": 18.0}, {"ncessch": "470014802636", "school_name": "Freedom Prep Elementary - Parkrose", "city": "Memphis", "state": "TN", "zip": "38109", "lat": 35.0257800000001, "lon": -90.0903099989999, "charter": true, "level": "", "enrollment": 578, "teachers_fte": 29.5}, {"ncessch": "470014802672", "school_name": "Medical District High School", "city": "Memphis", "state": "TN", "zip": "38103", "lat": 35.137060999, "lon": -90.03653, "charter": false, "level": "", "enrollment": 99, "teachers_fte": 9.67000007629395}, {"ncessch": "470014802673", "school_name": "Memphis School of Excellence Cordova", "city": "Cordova", "state": "TN", "zip": "38018", "lat": 35.157159, "lon": -89.7831140009999, "charter": true, "level": "", "enrollment": 295, "teachers_fte": 18.5}, {"ncessch": "470014810435", "school_name": "Frayser-Corning Elementary", "city": "Memphis", "state": "TN", "zip": "38127", "lat": 35.213733, "lon": -90.0101749999999, "charter": false, "level": "", "enrollment": 369, "teachers_fte": 16.8299999237061}, {"ncessch": "470014810436", "school_name": "Georgian Hills Elementary", "city": "Memphis", "state": "TN", "zip": "38127", "lat": 35.232877, "lon": -89.997925, "charter": false, "level": "", "enrollment": 262, "teachers_fte": 17.5}, {"ncessch": "470014810437", "school_name": "Memphis Virtual Adult High School", "city": "Memphis", "state": "TN", "zip": "38118", "lat": 35.060275, "lon": -89.911243, "charter": false, "level": "", "enrollment": 26, "teachers_fte": 1.87000000476837}, {"ncessch": "470014810438", "school_name": "Whitney Elementary", "city": "Memphis", "state": "TN", "zip": "38127", "lat": 35.207456001, "lon": -90.023355001, "charter": false, "level": "", "enrollment": 262, "teachers_fte": 13.0}, {"ncessch": "470014810439", "school_name": "University High School", "city": "Memphis", "state": "TN", "zip": "38152", "lat": 35.122433001, "lon": -89.938953, "charter": false, "level": "", "enrollment": 96, "teachers_fte": 6.11999988555908}, {"ncessch": "470014810440", "school_name": "Carver College and Career Academy", "city": "Memphis", "state": "TN", "zip": "38109", "lat": 35.1045930000001, "lon": -90.068024, "charter": false, "level": "", "enrollment": 613, "teachers_fte": 97.4300003051758}], "4700149": [{"ncessch": "470014900147", "school_name": "Crosswind Elementary School", "city": "Collierville", "state": "TN", "zip": "38017", "lat": 35.078563, "lon": -89.689319, "charter": false, "level": "", "enrollment": 701, "teachers_fte": 51.25}, {"ncessch": "470014900420", "school_name": "Tara Oaks Elementary School", "city": "Collierville", "state": "TN", "zip": "38017", "lat": 35.068589, "lon": -89.6484330009999, "charter": false, "level": "", "enrollment": 655, "teachers_fte": 46.75}, {"ncessch": "470014901134", "school_name": "West Collierville Middle School", "city": "Collierville", "state": "TN", "zip": "38017", "lat": 35.070387, "lon": -89.687248, "charter": false, "level": "", "enrollment": 1309, "teachers_fte": 75.5}, {"ncessch": "470014901359", "school_name": "Sycamore Elementary School", "city": "Collierville", "state": "TN", "zip": "38017", "lat": 35.0123630000001, "lon": -89.6816699999999, "charter": false, "level": "", "enrollment": 592, "teachers_fte": 46.5}, {"ncessch": "470014901573", "school_name": "Collierville Elementary School", "city": "Collierville", "state": "TN", "zip": "38017", "lat": 35.0558580000001, "lon": -89.667447, "charter": false, "level": "", "enrollment": 813, "teachers_fte": 55.5}, {"ncessch": "470014901574", "school_name": "Collierville High School", "city": "Collierville", "state": "TN", "zip": "38017", "lat": 35.0188620000001, "lon": -89.67659, "charter": false, "level": "", "enrollment": 2836, "teachers_fte": 146.830001831055}, {"ncessch": "470014901575", "school_name": "Collierville Middle School", "city": "Collierville", "state": "TN", "zip": "38017", "lat": 35.028983, "lon": -89.660691, "charter": false, "level": "", "enrollment": 773, "teachers_fte": 55.5}, {"ncessch": "470014902076", "school_name": "Bailey Station Elementary School", "city": "Collierville", "state": "TN", "zip": "38017", "lat": 35.0547060000001, "lon": -89.7244249999999, "charter": false, "level": "", "enrollment": 851, "teachers_fte": 57.25}, {"ncessch": "470014902515", "school_name": "Schilling Farms Elementary School", "city": "Collierville", "state": "TN", "zip": "38017", "lat": 35.034413, "lon": -89.703137001, "charter": false, "level": "", "enrollment": 597, "teachers_fte": 47.0}, {"ncessch": "470014902674", "school_name": "Collierville Virtual Academy", "city": "Collierville", "state": "TN", "zip": "38017", "lat": 35.0447800000001, "lon": -89.667205, "charter": false, "level": "", "enrollment": 132, "teachers_fte": 6.5}], "4700150": [{"ncessch": "470015001587", "school_name": "Millington Central Middle High School", "city": "Millington", "state": "TN", "zip": "38053", "lat": 35.3455420000001, "lon": -89.8971940009999, "charter": false, "level": "", "enrollment": 1191, "teachers_fte": 74.3300018310547}, {"ncessch": "470015002078", "school_name": "Millington Primary School", "city": "Millington", "state": "TN", "zip": "38053", "lat": 35.3429140000001, "lon": -89.8475, "charter": false, "level": "", "enrollment": 858, "teachers_fte": 52.0}, {"ncessch": "470015002676", "school_name": "Millington Intermediate School", "city": "Millington", "state": "TN", "zip": "38053", "lat": 35.3512660010001, "lon": -89.897736, "charter": false, "level": "", "enrollment": 553, "teachers_fte": 30.0}], "4700151": [{"ncessch": "470015101576", "school_name": "Dogwood Elementary School", "city": "Germantown", "state": "TN", "zip": "38139", "lat": 35.084793, "lon": -89.764628999, "charter": false, "level": "", "enrollment": 635, "teachers_fte": 45.2000007629395}, {"ncessch": "470015101580", "school_name": "Farmington Elementary School", "city": "Germantown", "state": "TN", "zip": "38138", "lat": 35.0922929990001, "lon": -89.7783019999999, "charter": false, "level": "", "enrollment": 628, "teachers_fte": 45.3699989318848}, {"ncessch": "470015101591", "school_name": "Riverdale Elementary School", "city": "Germantown", "state": "TN", "zip": "38138", "lat": 35.1015180000001, "lon": -89.816887, "charter": false, "level": "", "enrollment": 1171, "teachers_fte": 83.370002746582}, {"ncessch": "470015102001", "school_name": "Houston High School", "city": "Germantown", "state": "TN", "zip": "38139", "lat": 35.093739, "lon": -89.7375289999999, "charter": false, "level": "", "enrollment": 1938, "teachers_fte": 104.330001831055}, {"ncessch": "470015102018", "school_name": "Houston Middle School", "city": "Germantown", "state": "TN", "zip": "38139", "lat": 35.096575999, "lon": -89.74859, "charter": false, "level": "", "enrollment": 897, "teachers_fte": 53.7000007629395}, {"ncessch": "470015102602", "school_name": "Forest Hill Elementary School", "city": "Germantown", "state": "TN", "zip": "38138", "lat": 35.0579230000001, "lon": -89.757196, "charter": false, "level": "", "enrollment": 697, "teachers_fte": 45.7000007629395}, {"ncessch": "470015102675", "school_name": "Germantown Online Academy of Learning", "city": "Germantown", "state": "TN", "zip": "38138", "lat": 35.058836, "lon": -89.7570469999999, "charter": false, "level": "", "enrollment": 60, "teachers_fte": 11.4899997711182}], "4700152": [{"ncessch": "470015201358", "school_name": "Arlington Middle", "city": "Arlington", "state": "TN", "zip": "38002", "lat": 35.2761370000001, "lon": -89.69152, "charter": false, "level": "", "enrollment": 992, "teachers_fte": 50.0}, {"ncessch": "470015201567", "school_name": "Arlington Elementary", "city": "Arlington", "state": "TN", "zip": "38002", "lat": 35.28583, "lon": -89.667875, "charter": false, "level": "", "enrollment": 901, "teachers_fte": 57.5}, {"ncessch": "470015202075", "school_name": "Arlington High", "city": "Arlington", "state": "TN", "zip": "38002", "lat": 35.275690001, "lon": -89.669641, "charter": false, "level": "", "enrollment": 2063, "teachers_fte": 109.5}, {"ncessch": "470015202197", "school_name": "Donelson Elementary", "city": "Arlington", "state": "TN", "zip": "38002", "lat": 35.2531929990001, "lon": -89.6584799999999, "charter": false, "level": "", "enrollment": 847, "teachers_fte": 55.5}], "4700153": [{"ncessch": "470015300415", "school_name": "Appling Middle School", "city": "Bartlett", "state": "TN", "zip": "38133", "lat": 35.2265349990001, "lon": -89.806346, "charter": false, "level": "", "enrollment": 584, "teachers_fte": 38.0400009155273}, {"ncessch": "470015300972", "school_name": "Rivercrest Elementary", "city": "Bartlett", "state": "TN", "zip": "38135", "lat": 35.258881, "lon": -89.854365, "charter": false, "level": "", "enrollment": 652, "teachers_fte": 45.3699989318848}, {"ncessch": "470015301566", "school_name": "Altruria Elementary", "city": "Bartlett", "state": "TN", "zip": "38134", "lat": 35.2150150000001, "lon": -89.8421359989999, "charter": false, "level": "", "enrollment": 771, "teachers_fte": 52.8699989318848}, {"ncessch": "470015301569", "school_name": "Bartlett Elementary School", "city": "Bartlett", "state": "TN", "zip": "38135", "lat": 35.233265999, "lon": -89.8639019999999, "charter": false, "level": "", "enrollment": 647, "teachers_fte": 43.8699989318848}, {"ncessch": "470015301570", "school_name": "Bartlett High School", "city": "Bartlett", "state": "TN", "zip": "38134", "lat": 35.2076060000001, "lon": -89.873761999, "charter": false, "level": "", "enrollment": 2851, "teachers_fte": 154.539993286133}, {"ncessch": "470015301578", "school_name": "Ellendale Elementary", "city": "Bartlett", "state": "TN", "zip": "38135", "lat": 35.2358850000001, "lon": -89.83169, "charter": false, "level": "", "enrollment": 505, "teachers_fte": 36.2000007629395}, {"ncessch": "470015301579", "school_name": "Elmore Park Middle School", "city": "Bartlett", "state": "TN", "zip": "38134", "lat": 35.1974700000001, "lon": -89.8534490009999, "charter": false, "level": "", "enrollment": 730, "teachers_fte": 40.8800010681152}, {"ncessch": "470015301979", "school_name": "Oak Elementary", "city": "Bartlett", "state": "TN", "zip": "38134", "lat": 35.2236050000001, "lon": -89.827637001, "charter": false, "level": "", "enrollment": 725, "teachers_fte": 44.0}, {"ncessch": "470015302077", "school_name": "Bon Lin Elementary School", "city": "Bartlett", "state": "TN", "zip": "38134", "lat": 35.232835999, "lon": -89.790803, "charter": false, "level": "", "enrollment": 752, "teachers_fte": 42.8300018310547}, {"ncessch": "470015302161", "school_name": "Bon Lin Middle School", "city": "Bartlett", "state": "TN", "zip": "38133", "lat": 35.2313500010001, "lon": -89.790765, "charter": false, "level": "", "enrollment": 729, "teachers_fte": 42.0400009155273}], "4700154": [{"ncessch": "470015401547", "school_name": "Lakeland Elementary School", "city": "Lakeland", "state": "TN", "zip": "38002", "lat": 35.2512990000001, "lon": -89.7271949999999, "charter": false, "level": "", "enrollment": 1038, "teachers_fte": 72.5}, {"ncessch": "470015402476", "school_name": "Lakeland Preparatory School", "city": "Lakeland", "state": "TN", "zip": "38002", "lat": 35.2632399990001, "lon": -89.747537001, "charter": false, "level": "", "enrollment": 1094, "teachers_fte": 69.1699981689453}], "4700156": [{"ncessch": "470015602640", "school_name": "Wilder Youth Development Center", "city": "Somerville", "state": "TN", "zip": "38068", "lat": 35.279184, "lon": -89.3654250009999, "charter": false, "level": "", "enrollment": 33, "teachers_fte": 9.82999992370605}], "4700157": [{"ncessch": "470015701046", "school_name": "Cornerstone Prep Denver Campus", "city": "Memphis", "state": "TN", "zip": "38127", "lat": 35.217787, "lon": -89.9984229999999, "charter": true, "level": "", "enrollment": 662, "teachers_fte": 50.3800010681152}, {"ncessch": "470015702370", "school_name": "Lester Prep", "city": "Memphis", "state": "TN", "zip": "38112", "lat": 35.141216, "lon": -89.963426001, "charter": true, "level": "", "enrollment": 211, "teachers_fte": 21.0}, {"ncessch": "470015702437", "school_name": "Libertas", "city": "Memphis", "state": "TN", "zip": "38127", "lat": 35.228531999, "lon": -89.977878, "charter": true, "level": "", "enrollment": 488, "teachers_fte": 28.0}, {"ncessch": "470015702688", "school_name": "Bluff City High School", "city": "Memphis", "state": "TN", "zip": "38115", "lat": 35.0365140000001, "lon": -89.8394039999999, "charter": true, "level": "", "enrollment": 494, "teachers_fte": 23.5}, {"ncessch": "470015702689", "school_name": "KIPP Antioch College Prep Elementary", "city": "Antioch", "state": "TN", "zip": "37013", "lat": 36.046926, "lon": -86.611817001, "charter": true, "level": "", "enrollment": 654, "teachers_fte": 33.0}, {"ncessch": "470015702690", "school_name": "KIPP Antioch College Prep Middle", "city": "Antioch", "state": "TN", "zip": "37013", "lat": 36.046926, "lon": -86.611817001, "charter": true, "level": "", "enrollment": 506, "teachers_fte": 25.5}, {"ncessch": "470015702691", "school_name": "Nashville Collegiate Prep", "city": "Nashville", "state": "TN", "zip": "37211", "lat": 36.044917001, "lon": -86.701174, "charter": true, "level": "", "enrollment": 430, "teachers_fte": 20.0}, {"ncessch": "470015710445", "school_name": "Cornerstone Prep School", "city": "Memphis", "state": "TN", "zip": "38118", "lat": 35.0682380000001, "lon": -89.889789, "charter": true, "level": "", "enrollment": 33, "teachers_fte": 0.330000013113022}, {"ncessch": "470015710446", "school_name": "Rocketship NSH3 Antioch", "city": "Antioch", "state": "TN", "zip": "37013", "lat": 36.044231, "lon": -86.644749, "charter": true, "level": "", "enrollment": 340, "teachers_fte": 15.0}], "4700180": [{"ncessch": "470018000034", "school_name": "Cascade High School", "city": "Wartrace", "state": "TN", "zip": "37183", "lat": 35.5696620000001, "lon": -86.349636, "charter": false, "level": "", "enrollment": 545, "teachers_fte": 48.2700004577637}, {"ncessch": "470018000035", "school_name": "Eakin Elementary", "city": "Shelbyville", "state": "TN", "zip": "37160", "lat": 35.5008, "lon": -86.4455, "charter": false, "level": "", "enrollment": 692, "teachers_fte": 53.2999992370605}, {"ncessch": "470018000036", "school_name": "Shelbyville Central High School", "city": "Shelbyville", "state": "TN", "zip": "37160", "lat": 35.4913, "lon": -86.4175, "charter": false, "level": "", "enrollment": 1553, "teachers_fte": 93.4199981689453}, {"ncessch": "470018000037", "school_name": "Harris Middle School", "city": "Shelbyville", "state": "TN", "zip": "37160", "lat": 35.4880000000001, "lon": -86.4150999999999, "charter": false, "level": "", "enrollment": 963, "teachers_fte": 61.3600006103516}, {"ncessch": "470018000039", "school_name": "Community High School", "city": "Unionville", "state": "TN", "zip": "37180", "lat": 35.607986, "lon": -86.570629001, "charter": false, "level": "", "enrollment": 566, "teachers_fte": 37.7599983215332}, {"ncessch": "470018000040", "school_name": "East Side Elementary", "city": "Shelbyville", "state": "TN", "zip": "37160", "lat": 35.4785000000001, "lon": -86.4552, "charter": false, "level": "", "enrollment": 424, "teachers_fte": 32.9500007629395}, {"ncessch": "470018000041", "school_name": "Thomas Magnet School", "city": "Shelbyville", "state": "TN", "zip": "37160", "lat": 35.4883, "lon": -86.464500001, "charter": false, "level": "", "enrollment": 449, "teachers_fte": 26.1700000762939}, {"ncessch": "470018000042", "school_name": "Liberty Elementary", "city": "Shelbyville", "state": "TN", "zip": "37160", "lat": 35.4297, "lon": -86.510099999, "charter": false, "level": "", "enrollment": 630, "teachers_fte": 45.3600006103516}, {"ncessch": "470018000044", "school_name": "South Side Elementary", "city": "Shelbyville", "state": "TN", "zip": "37160", "lat": 35.4694000000001, "lon": -86.4671999999999, "charter": false, "level": "", "enrollment": 387, "teachers_fte": 34.9000015258789}, {"ncessch": "470018000578", "school_name": "Cascade Elementary", "city": "Wartrace", "state": "TN", "zip": "37183", "lat": 35.5688000000001, "lon": -86.3589000009999, "charter": false, "level": "", "enrollment": 675, "teachers_fte": 38.3199996948242}, {"ncessch": "470018000582", "school_name": "Community Elementary School", "city": "Unionville", "state": "TN", "zip": "37180", "lat": 35.6122080000001, "lon": -86.580725001, "charter": false, "level": "", "enrollment": 663, "teachers_fte": 37.9000015258789}, {"ncessch": "470018002218", "school_name": "Community Middle School", "city": "Unionville", "state": "TN", "zip": "37180", "lat": 35.6131290000001, "lon": -86.581946, "charter": false, "level": "", "enrollment": 370, "teachers_fte": 25.8099994659424}, {"ncessch": "470018002222", "school_name": "Learning Way Elementary", "city": "Shelbyville", "state": "TN", "zip": "37160", "lat": 35.485529, "lon": -86.415588, "charter": false, "level": "", "enrollment": 675, "teachers_fte": 48.4500007629395}, {"ncessch": "470018002276", "school_name": "Cascade Middle School", "city": "Wartrace", "state": "TN", "zip": "37183", "lat": 35.5669590000001, "lon": -86.3588379999999, "charter": false, "level": "", "enrollment": 378, "teachers_fte": 24.9400005340576}, {"ncessch": "470018002642", "school_name": "Bedford County Virtual School", "city": "Wartrace", "state": "TN", "zip": "37183", "lat": 35.5669590000001, "lon": -86.3588379999999, "charter": false, "level": "", "enrollment": 77, "teachers_fte": 16.5499992370605}], "4700210": [{"ncessch": "470021000045", "school_name": "Bells Elementary", "city": "Bells", "state": "TN", "zip": "38006", "lat": 35.724143, "lon": -89.0917219999999, "charter": false, "level": "", "enrollment": 399, "teachers_fte": 27.3299999237061}], "4700240": [{"ncessch": "470024000049", "school_name": "Big Sandy School", "city": "Big Sandy", "state": "TN", "zip": "38221", "lat": 36.2286, "lon": -88.0866, "charter": false, "level": "", "enrollment": 288, "teachers_fte": 36.0999984741211}, {"ncessch": "470024000050", "school_name": "Briarwood School", "city": "Camden", "state": "TN", "zip": "38320", "lat": 36.069800001, "lon": -88.1111, "charter": false, "level": "", "enrollment": 381, "teachers_fte": 27.5}, {"ncessch": "470024000051", "school_name": "Camden Elementary", "city": "Camden", "state": "TN", "zip": "38320", "lat": 36.069199999, "lon": -88.100100001, "charter": false, "level": "", "enrollment": 473, "teachers_fte": 34.5}, {"ncessch": "470024000052", "school_name": "Camden Central High School", "city": "Camden", "state": "TN", "zip": "38320", "lat": 36.0724000000001, "lon": -88.106500001, "charter": false, "level": "", "enrollment": 521, "teachers_fte": 31.3299999237061}, {"ncessch": "470024000053", "school_name": "Holladay Elementary", "city": "Holladay", "state": "TN", "zip": "38341", "lat": 35.870434001, "lon": -88.145660999, "charter": false, "level": "", "enrollment": 129, "teachers_fte": 12.75}, {"ncessch": "470024000250", "school_name": "Benton County Academy", "city": "Camden", "state": "TN", "zip": "38320", "lat": 36.0703450010001, "lon": -88.1113629989999, "charter": false, "level": "", "enrollment": 0, "teachers_fte": null}, {"ncessch": "470024001033", "school_name": "Camden Jr High School", "city": "Camden", "state": "TN", "zip": "38320", "lat": 36.0717000000001, "lon": -88.1045999999999, "charter": false, "level": "", "enrollment": 371, "teachers_fte": 25.3400001525879}, {"ncessch": "470024001828", "school_name": "Senator Frank P. Lashlee Career and Technical Center", "city": "Camden", "state": "TN", "zip": "38320", "lat": 36.0717910000001, "lon": -88.1082769989999, "charter": false, "level": "", "enrollment": 0, "teachers_fte": 4.03999996185303}], "4700270": [{"ncessch": "470027000055", "school_name": "Bledsoe County High School", "city": "Pikeville", "state": "TN", "zip": "37367", "lat": 35.586597999, "lon": -85.215868001, "charter": false, "level": "", "enrollment": 483, "teachers_fte": 30.7000007629395}, {"ncessch": "470027000057", "school_name": "Cecil B Rigsby Elementary", "city": "Pikeville", "state": "TN", "zip": "37367", "lat": 35.5713270000001, "lon": -85.123218, "charter": false, "level": "", "enrollment": 173, "teachers_fte": 10.6999998092651}, {"ncessch": "470027000059", "school_name": "Mary V Wheeler Elementary", "city": "Pikeville", "state": "TN", "zip": "37367", "lat": 35.6651000000001, "lon": -85.230200001, "charter": false, "level": "", "enrollment": 205, "teachers_fte": 16.2000007629395}, {"ncessch": "470027000060", "school_name": "Pikeville Elementary", "city": "Pikeville", "state": "TN", "zip": "37367", "lat": 35.590247, "lon": -85.1915809989999, "charter": false, "level": "", "enrollment": 415, "teachers_fte": 25.2000007629395}, {"ncessch": "470027001035", "school_name": "Bledsoe County Middle School", "city": "Pikeville", "state": "TN", "zip": "37367", "lat": 35.5839, "lon": -85.2178, "charter": false, "level": "", "enrollment": 378, "teachers_fte": 24.2000007629395}], "4700300": [{"ncessch": "470030000068", "school_name": "Fairview Elementary", "city": "Maryville", "state": "TN", "zip": "37803", "lat": 35.718372, "lon": -84.004148, "charter": false, "level": "", "enrollment": 303, "teachers_fte": 21.5}, {"ncessch": "470030000070", "school_name": "Friendsville Elementary", "city": "Friendsville", "state": "TN", "zip": "37777", "lat": 35.761801, "lon": -84.130612, "charter": false, "level": "", "enrollment": 214, "teachers_fte": 15.0}, {"ncessch": "470030000072", "school_name": "Heritage High School", "city": "Maryville", "state": "TN", "zip": "37804", "lat": 35.7633490000001, "lon": -83.861722, "charter": false, "level": "", "enrollment": 1198, "teachers_fte": 78.1999969482422}, {"ncessch": "470030000074", "school_name": "Lanier Elementary", "city": "Maryville", "state": "TN", "zip": "37742", "lat": 35.622832999, "lon": -84.097144999, "charter": false, "level": "", "enrollment": 337, "teachers_fte": 21.5}, {"ncessch": "470030000078", "school_name": "Porter Elementary", "city": "Maryville", "state": "TN", "zip": "37804", "lat": 35.8043850010001, "lon": -83.870041, "charter": false, "level": "", "enrollment": 232, "teachers_fte": 17.0}, {"ncessch": "470030000081", "school_name": "Rockford Elementary", "city": "Rockford", "state": "TN", "zip": "37853", "lat": 35.823921, "lon": -83.942286999, "charter": false, "level": "", "enrollment": 403, "teachers_fte": 25.3299999237061}, {"ncessch": "470030000084", "school_name": "Townsend Elementary", "city": "Townsend", "state": "TN", "zip": "37882", "lat": 35.6739219990001, "lon": -83.7548189999999, "charter": false, "level": "", "enrollment": 108, "teachers_fte": 6.82999992370605}, {"ncessch": "470030000086", "school_name": "Walland Elementary School", "city": "Walland", "state": "TN", "zip": "37886", "lat": 35.730711, "lon": -83.810614, "charter": false, "level": "", "enrollment": 294, "teachers_fte": 18.5}, {"ncessch": "470030001041", "school_name": "Heritage Middle School", "city": "Maryville", "state": "TN", "zip": "37804", "lat": 35.761038, "lon": -83.864916001, "charter": false, "level": "", "enrollment": 665, "teachers_fte": 43.5099983215332}, {"ncessch": "470030001387", "school_name": "Carpenters Middle School", "city": "Maryville", "state": "TN", "zip": "37803", "lat": 35.6776750000001, "lon": -84.029219, "charter": false, "level": "", "enrollment": 529, "teachers_fte": 33.6699981689453}, {"ncessch": "470030001652", "school_name": "Union Grove Middle School", "city": "Friendsville", "state": "TN", "zip": "37737", "lat": 35.7471100010001, "lon": -84.073356, "charter": false, "level": "", "enrollment": 611, "teachers_fte": 39.6699981689453}, {"ncessch": "470030001669", "school_name": "Eagleton Elementary", "city": "Maryville", "state": "TN", "zip": "37804", "lat": 35.805735999, "lon": -83.9161769999999, "charter": false, "level": "", "enrollment": 482, "teachers_fte": 34.1699981689453}, {"ncessch": "470030001830", "school_name": "William Blount High School", "city": "Maryville", "state": "TN", "zip": "37801", "lat": 35.7419170000001, "lon": -84.0342899999999, "charter": false, "level": "", "enrollment": 1545, "teachers_fte": 95.0400009155273}, {"ncessch": "470030001873", "school_name": "Middlesettlements", "city": "Louisville", "state": "TN", "zip": "37777", "lat": 35.800985, "lon": -84.035266, "charter": false, "level": "", "enrollment": 329, "teachers_fte": 21.3299999237061}, {"ncessch": "470030001916", "school_name": "Montvale Elementary", "city": "Maryville", "state": "TN", "zip": "37803", "lat": 35.6930130010001, "lon": -83.966507, "charter": false, "level": "", "enrollment": 291, "teachers_fte": 19.5}, {"ncessch": "470030001991", "school_name": "Mary Blount Elementary", "city": "Maryville", "state": "TN", "zip": "37801", "lat": 35.7522930000001, "lon": -84.0384339999999, "charter": false, "level": "", "enrollment": 594, "teachers_fte": 40.0}, {"ncessch": "470030002099", "school_name": "Carpenters Elementary School", "city": "Maryville", "state": "TN", "zip": "37803", "lat": 35.6758400000001, "lon": -84.028723, "charter": false, "level": "", "enrollment": 540, "teachers_fte": 35.0}, {"ncessch": "470030002164", "school_name": "Union Grove Elementary School", "city": "Friendsville", "state": "TN", "zip": "37737", "lat": 35.748676, "lon": -84.075585, "charter": false, "level": "", "enrollment": 249, "teachers_fte": 16.0}, {"ncessch": "470030002266", "school_name": "Prospect Elementary School", "city": "Seymour", "state": "TN", "zip": "37865", "lat": 35.8394660000001, "lon": -83.8007269999999, "charter": false, "level": "", "enrollment": 341, "teachers_fte": 23.3299999237061}, {"ncessch": "470030002557", "school_name": "Samuel Everett School of Innovation", "city": "Maryville", "state": "TN", "zip": "37802", "lat": 35.768734001, "lon": -83.954404, "charter": false, "level": "", "enrollment": 369, "teachers_fte": 15.3100004196167}, {"ncessch": "470030002560", "school_name": "Eagleton 1 Head Start", "city": "Maryville", "state": "TN", "zip": "37804", "lat": 35.796929, "lon": -83.941812, "charter": false, "level": "", "enrollment": 0, "teachers_fte": null}, {"ncessch": "470030002643", "school_name": "Eagleton College and Career Academy", "city": "Maryville", "state": "TN", "zip": "37804", "lat": 35.796929, "lon": -83.941812, "charter": false, "level": "", "enrollment": 600, "teachers_fte": 39.6699981689453}], "4700330": [{"ncessch": "470033000087", "school_name": "Black Fox Elementary School", "city": "Cleveland", "state": "TN", "zip": "37311", "lat": 35.127306, "lon": -84.9219189999999, "charter": false, "level": "", "enrollment": 510, "teachers_fte": 31.0}, {"ncessch": "470033000089", "school_name": "Ocoee Middle School", "city": "Cleveland", "state": "TN", "zip": "37311", "lat": 35.174427, "lon": -84.8675919999999, "charter": false, "level": "", "enrollment": 997, "teachers_fte": 71.0}, {"ncessch": "470033000090", "school_name": "Bradley Central High School", "city": "Cleveland", "state": "TN", "zip": "37311", "lat": 35.1581629990001, "lon": -84.8901279999999, "charter": false, "level": "", "enrollment": 1677, "teachers_fte": 107.0}, {"ncessch": "470033000092", "school_name": "Charleston Elementary School", "city": "Charleston", "state": "TN", "zip": "37310", "lat": 35.2828490000001, "lon": -84.761597001, "charter": false, "level": "", "enrollment": 341, "teachers_fte": 21.5}, {"ncessch": "470033000094", "school_name": "Hopewell Elementary School", "city": "Cleveland", "state": "TN", "zip": "37312", "lat": 35.2330240000001, "lon": -84.888659, "charter": false, "level": "", "enrollment": 457, "teachers_fte": 28.0}, {"ncessch": "470033000096", "school_name": "Michigan Avenue Elementary School", "city": "Cleveland", "state": "TN", "zip": "37323", "lat": 35.162759001, "lon": -84.8204249999999, "charter": false, "level": "", "enrollment": 466, "teachers_fte": 28.5}, {"ncessch": "470033000098", "school_name": "North Lee Elementary School", "city": "Cleveland", "state": "TN", "zip": "37312", "lat": 35.208451, "lon": -84.844122, "charter": false, "level": "", "enrollment": 513, "teachers_fte": 28.5}, {"ncessch": "470033000099", "school_name": "Oak Grove Elementary School", "city": "Cleveland", "state": "TN", "zip": "37323", "lat": 35.144062999, "lon": -84.843383, "charter": false, "level": "", "enrollment": 406, "teachers_fte": 24.5}, {"ncessch": "470033000100", "school_name": "Prospect Elementary School", "city": "Cleveland", "state": "TN", "zip": "37311", "lat": 35.178773, "lon": -84.916624, "charter": false, "level": "", "enrollment": 396, "teachers_fte": 23.0}, {"ncessch": "470033000101", "school_name": "Taylor Elementary School", "city": "Cleveland", "state": "TN", "zip": "37323", "lat": 35.1208530010001, "lon": -84.7829419999999, "charter": false, "level": "", "enrollment": 263, "teachers_fte": 22.0}, {"ncessch": "470033000104", "school_name": "Lake Forest Middle School", "city": "Cleveland", "state": "TN", "zip": "37323", "lat": 35.107468, "lon": -84.8470209989999, "charter": false, "level": "", "enrollment": 1127, "teachers_fte": 72.5}, {"ncessch": "470033000105", "school_name": "Valley View Elementary School", "city": "Cleveland", "state": "TN", "zip": "37323", "lat": 35.0515530000001, "lon": -84.805417001, "charter": false, "level": "", "enrollment": 307, "teachers_fte": 18.5}, {"ncessch": "470033000106", "school_name": "Waterville Community Elementary School", "city": "Cleveland", "state": "TN", "zip": "37323", "lat": 35.099922, "lon": -84.871788, "charter": false, "level": "", "enrollment": 660, "teachers_fte": 38.0}, {"ncessch": "470033000293", "school_name": "North Cleveland GOAL Academy", "city": "Cleveland", "state": "TN", "zip": "37312", "lat": 35.1842580000001, "lon": -84.861728999, "charter": false, "level": "", "enrollment": 14, "teachers_fte": 7.5}, {"ncessch": "470033001388", "school_name": "Walker Valley High School", "city": "Cleveland", "state": "TN", "zip": "37312", "lat": 35.2765110010001, "lon": -84.784545, "charter": false, "level": "", "enrollment": 1498, "teachers_fte": 97.5}, {"ncessch": "470033002224", "school_name": "Park View Elementary School", "city": "Cleveland", "state": "TN", "zip": "37323", "lat": 35.1488430000001, "lon": -84.8215749999999, "charter": false, "level": "", "enrollment": 463, "teachers_fte": 26.5}, {"ncessch": "470033002312", "school_name": "Bradley County Virtual School", "city": "Cleveland", "state": "TN", "zip": "37311", "lat": 35.1755840000001, "lon": -84.864067999, "charter": false, "level": "", "enrollment": 174, "teachers_fte": 11.0}, {"ncessch": "470033010417", "school_name": "PIE Innovation Center", "city": "Cleveland", "state": "TN", "zip": "37311", "lat": 35.175348, "lon": -84.864366, "charter": false, "level": "", "enrollment": 0, "teachers_fte": null}], "4700360": [{"ncessch": "470036000107", "school_name": "Anderson Elementary", "city": "Bristol", "state": "TN", "zip": "37620", "lat": 36.586599999, "lon": -82.1894, "charter": false, "level": "", "enrollment": 308, "teachers_fte": 25.2000007629395}, {"ncessch": "470036000108", "school_name": "Avoca Elementary", "city": "Bristol", "state": "TN", "zip": "37620", "lat": 36.533100001, "lon": -82.2467, "charter": false, "level": "", "enrollment": 423, "teachers_fte": 28.2000007629395},